dataid,levelid,longitude,latitude,chinese_name,english_name,code1,code2,code3,code4,code5,alias1,alias2,alias3,alias4,alias5,area,population,continentid,countryid,provinceid,cityid,countyid,townid,villageid,buildingid,comments
12998,7,112.575813,37.82032,坞城街道,,140105,0351,140105001000,,,,,,,,,,2,100,1003,1214,2224,12998,,,
12999,7,112.580415,37.826378,营盘街道,,140105,0351,140105002000,,,,,,,,,,2,100,1003,1214,2224,12999,,,
13000,7,112.603408,37.787338,北营街道,,140105,0351,140105003000,,,,,,,,,,2,100,1003,1214,2224,13000,,,
13001,7,112.55488,37.81834,平阳路街道,,140105,0351,140105004000,,,,,,,,,,2,100,1003,1214,2224,13001,,,
13002,7,112.608661,37.780219,黄陵街道,,140105,0351,140105005000,,,,,,,,,,2,100,1003,1214,2224,13002,,,
13003,7,112.569991,37.729963,小店街道,,140105,0351,140105006000,,,,,,,,,,2,100,1003,1214,2224,13003,,,
13004,7,112.564306,37.742941,龙城街道,,140105,0351,140105007000,,,,,,,,,,2,100,1003,1214,2224,13004,,,
13005,7,112.538797,37.637045,北格镇,,140105,0351,140105100000,,,,,,,,,,2,100,1003,1214,2224,13005,,,
13006,7,112.626296,37.724746,西温庄乡,,140105,0351,140105200000,,,,,,,,,,2,100,1003,1214,2224,13006,,,
13007,7,112.481676,37.647415,刘家堡乡,,140105,0351,140105201000,,,,,,,,,,2,100,1003,1214,2224,13007,,,
13008,7,112.56578,37.869021,柳巷街道,,140106,0351,140106001000,,,,,,,,,,2,100,1003,1214,2225,13008,,,
13009,7,112.580241,37.863976,文庙街道,,140106,0351,140106002000,,,,,,,,,,2,100,1003,1214,2225,13009,,,
13010,7,112.557761,37.8666,庙前街道,,140106,0351,140106003000,,,,,,,,,,2,100,1003,1214,2225,13010,,,
13011,7,112.56426,37.8464,迎泽街道,,140106,0351,140106004000,,,,,,,,,,2,100,1003,1214,2225,13011,,,
13012,7,112.578031,37.856938,桥东街道,,140106,0351,140106005000,,,,,,,,,,2,100,1003,1214,2225,13012,,,
13013,7,112.547417,37.842364,老军营街道,,140106,0351,140106006000,,,,,,,,,,2,100,1003,1214,2225,13013,,,
13014,7,112.598937,37.85465,郝庄镇,,140106,0351,140106100000,,,,,,,,,,2,100,1003,1214,2225,13014,,,
13015,7,112.561622,37.893541,巨轮街道,,140107,0351,140107001000,,,,,,,,,,2,100,1003,1214,2226,13015,,,
13016,7,112.558483,37.877212,三桥街道,,140107,0351,140107002000,,,,,,,,,,2,100,1003,1214,2226,13016,,,
13017,7,112.564444,37.871145,鼓楼街道,,140107,0351,140107003000,,,,,,,,,,2,100,1003,1214,2226,13017,,,
13018,7,112.571032,37.873248,杏花岭街道,,140107,0351,140107004000,,,,,,,,,,2,100,1003,1214,2226,13018,,,
13019,7,112.56968,37.882291,坝陵桥街道,,140107,0351,140107005000,,,,,,,,,,2,100,1003,1214,2226,13019,,,
13020,7,112.592778,37.875,大东关街道,,140107,0351,140107006000,,,,,,,,,,2,100,1003,1214,2226,13020,,,
13021,7,112.58842,37.890679,职工新街街道,,140107,0351,140107007000,,,,,,,,,,2,100,1003,1214,2226,13021,,,
13022,7,112.578272,37.894383,敦化坊街道,,140107,0351,140107008000,,,,,,,,,,2,100,1003,1214,2226,13022,,,
13023,7,112.569823,37.917135,涧河街道,,140107,0351,140107009000,,,,,,,,,,2,100,1003,1214,2226,13023,,,
13024,7,112.625503,37.87829,杨家峪街道,,140107,0351,140107010000,,,,,,,,,,2,100,1003,1214,2226,13024,,,
13025,7,112.577653,37.914709,中涧河乡,,140107,0351,140107200000,,,,,,,,,,2,100,1003,1214,2226,13025,,,
13026,7,112.615862,37.950085,小返乡,,140107,0351,140107201000,,,,,,,,,,2,100,1003,1214,2226,13026,,,
13027,7,112.564624,37.913201,尖草坪街道,,140108,0351,140108001000,,,,,,,,,,2,100,1003,1214,2227,13027,,,
13028,7,112.556887,37.93406,光社街道,,140108,0351,140108002000,,,,,,,,,,2,100,1003,1214,2227,13028,,,
13029,7,112.456282,38.003694,上兰街道,,140108,0351,140108003000,,,,,,,,,,2,100,1003,1214,2227,13029,,,
13030,7,112.532131,37.956842,南寨街道,,140108,0351,140108004000,,,,,,,,,,2,100,1003,1214,2227,13030,,,
13031,7,112.539149,37.955975,迎新街道,,140108,0351,140108005000,,,,,,,,,,2,100,1003,1214,2227,13031,,,
13032,7,112.537697,37.920831,古城街道,,140108,0351,140108006000,,,,,,,,,,2,100,1003,1214,2227,13032,,,
13033,7,112.522721,37.897324,汇丰街道,,140108,0351,140108007000,,,,,,,,,,2,100,1003,1214,2227,13033,,,
13034,7,112.489685,37.93815,柴村街道,,140108,0351,140108008000,,,,,,,,,,2,100,1003,1214,2227,13034,,,
13035,7,112.486691,37.940387,新城街道,,140108,0351,140108009000,,,,,,,,,,2,100,1003,1214,2227,13035,,,
13036,7,112.511396,37.992214,向阳镇,,140108,0351,140108100000,,,,,,,,,,2,100,1003,1214,2227,13036,,,
13037,7,112.585304,37.98439,阳曲镇,,140108,0351,140108101000,,,,,,,,,,2,100,1003,1214,2227,13037,,,
13038,7,112.414671,37.956882,马头水乡,,140108,0351,140108200000,,,,,,,,,,2,100,1003,1214,2227,13038,,,
13039,7,112.483876,38.024085,柏板乡,,140108,0351,140108201000,,,,,,,,,,2,100,1003,1214,2227,13039,,,
13040,7,112.532551,38.023182,西墕乡,,140108,0351,140108202000,,,,,,,,,,2,100,1003,1214,2227,13040,,,
13041,7,112.514493,37.862792,千峰街道,,140109,0351,140109001000,,,,,,,,,,2,100,1003,1214,2228,13041,,,
13042,7,112.507288,37.854701,下元街道,,140109,0351,140109002000,,,,,,,,,,2,100,1003,1214,2228,13042,,,
13043,7,112.496384,37.861571,和平街道,,140109,0351,140109003000,,,,,,,,,,2,100,1003,1214,2228,13043,,,
13044,7,112.523319,37.887371,兴华街道,,140108,0351,140109004000,,,,,,,,,,2,100,1003,1214,2228,13044,,,
13045,7,112.512232,37.886456,万柏林街道,,140109,0351,140109005000,,,,,,,,,,2,100,1003,1214,2228,13045,,,
13046,7,112.410025,37.837474,杜儿坪街道,,140109,0351,140109006000,,,,,,,,,,2,100,1003,1214,2228,13046,,,
13047,7,112.44071,37.83758,白家庄街道,,140109,0351,140109007000,,,,,,,,,,2,100,1003,1214,2228,13047,,,
13048,7,112.458575,37.853977,南寒街道,,140109,0351,140109008000,,,,,,,,,,2,100,1003,1214,2228,13048,,,
13049,7,112.471125,37.8815,东社街道,,140109,0351,140109009000,,,,,,,,,,2,100,1003,1214,2228,13049,,,
13050,7,112.392447,37.882596,化客头街道,,140109,0351,140109010000,,,,,,,,,,2,100,1003,1214,2228,13050,,,
13051,7,112.50462,37.851279,小井峪街道,,140109,0351,140109011000,,,,,,,,,,2,100,1003,1214,2228,13051,,,
13052,7,112.43947,37.863639,西铭街道,,140109,0351,140109012000,,,,,,,,,,2,100,1003,1214,2228,13052,,,
13053,7,112.50829,37.821082,长风西街街道,,140109,0351,140109013000,,,,,,,,,,2,100,1003,1214,2228,13053,,,
13054,7,112.489998,37.812439,神堂沟街道,,140110,0351,140109014000,,,,,,,,,,2,100,1003,1214,2228,13054,,,
13055,7,112.355503,37.89832,王封乡,,140109,0351,140109200000,,,,,,,,,,2,100,1003,1214,2228,13055,,,
13056,7,112.516172,37.815618,义井街道,,140109,0351,140110001000,,,,,,,,,,2,100,1003,1214,2229,13056,,,
13057,7,112.485412,37.767954,罗城街道,,140110,0351,140110002000,,,,,,,,,,2,100,1003,1214,2229,13057,,,
13058,7,112.482218,37.729047,晋源街道,,140110,0351,140110003000,,,,,,,,,,2,100,1003,1214,2229,13058,,,
13059,7,112.490346,37.783089,金胜镇,,140110,0351,140110100000,,,,,,,,,,2,100,1003,1214,2229,13059,,,
13060,7,112.442789,37.698777,晋祠镇,,140110,0351,140110101000,,,,,,,,,,2,100,1003,1214,2229,13060,,,
13061,7,112.389912,37.650774,姚村镇,,140110,0351,140110102000,,,,,,,,,,2,100,1003,1214,2229,13061,,,
13062,7,112.370155,37.593832,清源镇,,140121,0351,140121100000,,,,,,,,,,2,100,1003,1214,2230,13062,,,
13063,7,112.506604,37.56402,徐沟镇,,140121,0351,140121101000,,,,,,,,,,2,100,1003,1214,2230,13063,,,
13064,7,112.269751,37.600712,东于镇,,140121,0351,140121102000,,,,,,,,,,2,100,1003,1214,2230,13064,,,
13065,7,112.411239,37.494674,孟封镇,,140121,0351,140121103000,,,,,,,,,,2,100,1003,1214,2230,13065,,,
13066,7,112.309899,37.621736,马峪乡,,140121,0351,140121200000,,,,,,,,,,2,100,1003,1214,2230,13066,,,
13067,7,112.329065,37.524223,柳杜乡,,140121,0351,140121201000,,,,,,,,,,2,100,1003,1214,2230,13067,,,
13068,7,112.409901,37.570825,西谷乡,,140121,0351,140121202000,,,,,,,,,,2,100,1003,1214,2230,13068,,,
13069,7,112.478977,37.592635,王答乡,,140121,0351,140121203000,,,,,,,,,,2,100,1003,1214,2230,13069,,,
13070,7,112.566528,37.550678,集义乡,,140121,0351,140121204000,,,,,,,,,,2,100,1003,1214,2230,13070,,,
13071,7,112.67637,38.061324,黄寨镇,,140122,0351,140122100000,,,,,,,,,,2,100,1003,1214,2231,13071,,,
13072,7,112.724944,38.17685,大盂镇,,140122,0351,140122101000,,,,,,,,,,2,100,1003,1214,2231,13072,,,
13073,7,112.783959,38.070412,东黄水镇,,140122,0351,140122102000,,,,,,,,,,2,100,1003,1214,2231,13073,,,
13074,7,112.544039,38.088877,泥屯镇,,140122,0351,140122103000,,,,,,,,,,2,100,1003,1214,2231,13074,,,
13075,7,112.68626,38.16575,高村乡,,140122,0351,140122200000,,,,,,,,,,2,100,1003,1214,2231,13075,,,
13076,7,112.659798,38.025413,侯村乡,,140122,0351,140122201000,,,,,,,,,,2,100,1003,1214,2231,13076,,,
13077,7,112.936302,38.050478,凌井店乡,,140122,0351,140122202000,,,,,,,,,,2,100,1003,1214,2231,13077,,,
13078,7,112.422273,38.13597,西凌井乡,,140122,0351,140122203000,,,,,,,,,,2,100,1003,1214,2231,13078,,,
13079,7,112.306458,38.221351,北小店乡,,140122,0351,140122204000,,,,,,,,,,2,100,1003,1214,2231,13079,,,
13080,7,112.896057,38.248526,杨兴乡,,140122,0351,140122205000,,,,,,,,,,2,100,1003,1214,2231,13080,,,
13081,7,112.672953,38.058489,中心镇,,140122,0351,140122400000,,,,,,,,,,2,100,1003,1214,2231,13081,,,
13082,7,111.797615,38.070146,娄烦镇,,140123,0351,140123100000,,,,,,,,,,2,100,1003,1214,2232,13082,,,
13083,7,111.831772,38.163644,静游镇,,140123,0351,140123101000,,,,,,,,,,2,100,1003,1214,2232,13083,,,
13084,7,111.941706,38.042779,杜交曲镇,,140123,0351,140123102000,,,,,,,,,,2,100,1003,1214,2232,13084,,,
13085,7,111.899542,38.094039,庙湾乡,,140123,0351,140123200000,,,,,,,,,,2,100,1003,1214,2232,13085,,,
13086,7,111.633701,38.010583,马家庄乡,,140123,0351,140123201000,,,,,,,,,,2,100,1003,1214,2232,13086,,,
13087,7,111.637102,38.0911,盖家庄乡,,140123,0351,140123202000,,,,,,,,,,2,100,1003,1214,2232,13087,,,
13088,7,111.681818,37.943807,米峪镇乡,,140123,0351,140123203000,,,,,,,,,,2,100,1003,1214,2232,13088,,,
13089,7,111.862741,37.942081,天池店乡,,140123,0351,140123204000,,,,,,,,,,2,100,1003,1214,2232,13089,,,
13090,7,112.584525,37.829681,唐槐园区街道,,140105,0351,140171401000,,,,,,,,,,2,100,1003,1214,2233,13090,,,
13091,7,112.56925,37.794968,学府园区街道,,140105,0351,140171402000,,,,,,,,,,2,100,1003,1214,2233,13091,,,
13092,7,112.58918,37.99398,阳曲产业园区街道,,140108,0351,140171403000,,,,,,,,,,2,100,1003,1214,2233,13092,,,
13093,7,112.548879,37.87059,潇河园区街道,,140100,0351,140171404000,,,,,,,,,,2,100,1003,1214,2233,13093,,,
13094,7,112.548879,37.87059,科创城街道,,140100,0351,140171405000,,,,,,,,,,2,100,1003,1214,2233,13094,,,
13095,7,112.183858,37.904681,东曲街道,,140181,0351,140181001000,,,,,,,,,,2,100,1003,1214,2234,13095,,,
13096,7,112.166503,37.92085,西曲街道,,140181,0351,140181002000,,,,,,,,,,2,100,1003,1214,2234,13096,,,
13097,7,112.153151,37.916679,桃园街道,,140181,0351,140181003000,,,,,,,,,,2,100,1003,1214,2234,13097,,,
13098,7,112.10749,37.901591,屯兰街道,,140181,0351,140181004000,,,,,,,,,,2,100,1003,1214,2234,13098,,,
13099,7,112.224762,37.923749,河口镇,,140181,0351,140181100000,,,,,,,,,,2,100,1003,1214,2234,13099,,,
13100,7,112.066955,37.9519,镇城底镇,,140181,0351,140181101000,,,,,,,,,,2,100,1003,1214,2234,13100,,,
13101,7,112.033752,37.849267,马兰镇,,140181,0351,140181102000,,,,,,,,,,2,100,1003,1214,2234,13101,,,
13102,7,112.153033,38.098308,阁上乡,,140181,0351,140181200000,,,,,,,,,,2,100,1003,1214,2234,13102,,,
13103,7,112.099439,37.991609,加乐泉乡,,140181,0351,140181201000,,,,,,,,,,2,100,1003,1214,2234,13103,,,
13104,7,112.087776,37.944397,梭峪乡,,140181,0351,140181202000,,,,,,,,,,2,100,1003,1214,2234,13104,,,
13105,7,111.895655,37.849082,岔口乡,,140181,0351,140181203000,,,,,,,,,,2,100,1003,1214,2234,13105,,,
13106,7,112.043657,37.803201,常安乡,,140181,0351,140181204000,,,,,,,,,,2,100,1003,1214,2234,13106,,,
13107,7,112.07939,37.784305,原相乡,,140181,0351,140181205000,,,,,,,,,,2,100,1003,1214,2234,13107,,,
13108,7,112.187537,37.798826,邢家社乡,,140181,0351,140181206000,,,,,,,,,,2,100,1003,1214,2234,13108,,,
13109,7,113.158625,40.2638,新荣镇,,140212,0352,140212100000,,,,,,,,,,2,100,1003,1215,2235,13109,,,
13110,7,113.308368,40.171945,古店镇,,140211,0352,140212101000,,,,,,,,,,2,100,1003,1215,2235,13110,,,
13111,7,113.009856,40.224831,破鲁堡乡,,140212,0352,140212200000,,,,,,,,,,2,100,1003,1215,2235,13111,,,
13112,7,113.040938,40.282739,郭家窑乡,,140212,0352,140212202000,,,,,,,,,,2,100,1003,1215,2235,13112,,,
13113,7,113.346302,40.161667,花元屯乡,,140212,0352,140212203000,,,,,,,,,,2,100,1003,1215,2235,13113,,,
13114,7,113.223849,40.231371,西村乡,,140212,0352,140212206000,,,,,,,,,,2,100,1003,1215,2235,13114,,,
13115,7,113.044806,40.188813,上深涧乡,,140212,0352,140212207000,,,,,,,,,,2,100,1003,1215,2235,13115,,,
13116,7,113.275608,40.349799,堡子湾乡,,140212,0352,140212209000,,,,,,,,,,2,100,1003,1215,2235,13116,,,
13117,7,112.708329,39.996068,南关街道,,140226,0352,140213001000,,,,,,,,,,2,100,1003,1215,2236,13117,,,
13118,7,113.302372,40.113891,北关街道,,140202,0352,140213002000,,,,,,,,,,2,100,1003,1215,2236,13118,,,
13119,7,113.615229,40.039602,东街街道,,140227,0352,140213003000,,,,,,,,,,2,100,1003,1215,2236,13119,,,
13120,7,113.298966,40.093888,西街街道,,140202,0352,140213004000,,,,,,,,,,2,100,1003,1215,2236,13120,,,
13121,7,113.2707,40.079513,南街街道,,140202,0352,140213005000,,,,,,,,,,2,100,1003,1215,2236,13121,,,
13122,7,113.303614,40.100183,北街街道,,140202,0352,140213006000,,,,,,,,,,2,100,1003,1215,2236,13122,,,
13123,7,113.284014,40.083038,新建南路街道,,140202,0352,140213007000,,,,,,,,,,2,100,1003,1215,2236,13123,,,
13124,7,113.275419,40.099661,新建北路街道,,140202,0352,140213008000,,,,,,,,,,2,100,1003,1215,2236,13124,,,
13125,7,113.265126,40.063501,大庆路街道,,140211,0352,140213009000,,,,,,,,,,2,100,1003,1215,2236,13125,,,
13126,7,113.296015,40.123051,新华街街道,,140202,0352,140213010000,,,,,,,,,,2,100,1003,1215,2236,13126,,,
13127,7,113.292959,40.064036,向阳里街道,,140202,0352,140213011000,,,,,,,,,,2,100,1003,1215,2236,13127,,,
13128,7,113.2707,40.079513,振华南街街道,,140202,0352,140213012000,,,,,,,,,,2,100,1003,1215,2236,13128,,,
13129,7,113.27977,40.05485,开源街街道,,140211,0352,140213013000,,,,,,,,,,2,100,1003,1215,2236,13129,,,
13130,7,113.301929,40.077089,新旺乡,,140202,0352,140213201000,,,,,,,,,,2,100,1003,1215,2236,13130,,,
13131,7,113.356864,40.076633,水泊寺乡,,140211,0352,140213202000,,,,,,,,,,2,100,1003,1215,2236,13131,,,
13132,7,113.251155,40.083015,马军营乡,,140211,0352,140213203000,,,,,,,,,,2,100,1003,1215,2236,13132,,,
13133,7,113.184103,40.02505,新胜街道,,140211,0352,140214001000,,,,,,,,,,2,100,1003,1215,2237,13133,,,
13134,7,113.172529,40.035308,新平旺街道,,140203,0352,140214002000,,,,,,,,,,2,100,1003,1215,2237,13134,,,
13135,7,113.150835,40.027346,煤峪口街道,,140211,0352,140214003000,,,,,,,,,,2,100,1003,1215,2237,13135,,,
13136,7,113.109995,40.014507,永定庄街道,,140211,0352,140214004000,,,,,,,,,,2,100,1003,1215,2237,13136,,,
13137,7,113.130769,40.109395,同家梁街道,,140211,0352,140214005000,,,,,,,,,,2,100,1003,1215,2237,13137,,,
13138,7,113.047687,39.992084,四老沟街道,,140211,0352,140214006000,,,,,,,,,,2,100,1003,1215,2237,13138,,,
13139,7,113.119463,40.051461,忻州窑街道,,140203,0352,140214007000,,,,,,,,,,2,100,1003,1215,2237,13139,,,
13140,7,113.058037,39.996624,白洞街道,,140211,0352,140214008000,,,,,,,,,,2,100,1003,1215,2237,13140,,,
13141,7,113.300129,40.076762,雁崖街道,,140200,0352,140214009000,,,,,,,,,,2,100,1003,1215,2237,13141,,,
13142,7,112.960389,39.93605,挖金湾街道,,140211,0352,140214010000,,,,,,,,,,2,100,1003,1215,2237,13142,,,
13143,7,113.15458,40.0991,晋华宫街道,,140211,0352,140214011000,,,,,,,,,,2,100,1003,1215,2237,13143,,,
13144,7,113.300129,40.076762,马脊梁街道,,140200,0352,140214012000,,,,,,,,,,2,100,1003,1215,2237,13144,,,
13145,7,113.130769,40.109395,大斗沟街道,,140211,0352,140214013000,,,,,,,,,,2,100,1003,1215,2237,13145,,,
13146,7,112.910452,39.937164,王村街道,,140211,0352,140214014000,,,,,,,,,,2,100,1003,1215,2237,13146,,,
13147,7,113.079714,40.130186,姜家湾街道,,140211,0352,140214015000,,,,,,,,,,2,100,1003,1215,2237,13147,,,
13148,7,113.130769,40.109395,新泉路街道,,140211,0352,140214016000,,,,,,,,,,2,100,1003,1215,2237,13148,,,
13149,7,113.159246,40.031503,民胜街道,,140203,0352,140214017000,,,,,,,,,,2,100,1003,1215,2237,13149,,,
13150,7,113.148737,40.007262,口泉街道,,140211,0352,140214018000,,,,,,,,,,2,100,1003,1215,2237,13150,,,
13151,7,113.300129,40.076762,马口街道,,140200,0352,140214019000,,,,,,,,,,2,100,1003,1215,2237,13151,,,
13152,7,112.92732,40.082949,燕子山街道,,140226,0352,140214020000,,,,,,,,,,2,100,1003,1215,2237,13152,,,
13153,7,113.130769,40.109395,杏儿沟街道,,140211,0352,140214021000,,,,,,,,,,2,100,1003,1215,2237,13153,,,
13154,7,113.300129,40.076762,青磁窑街道,,140200,0352,140214022000,,,,,,,,,,2,100,1003,1215,2237,13154,,,
13155,7,113.172321,40.019206,平泉路街道,,140211,0352,140214023000,,,,,,,,,,2,100,1003,1215,2237,13155,,,
13156,7,113.01426,40.112779,四台沟街道,,140211,0352,140214024000,,,,,,,,,,2,100,1003,1215,2237,13156,,,
13157,7,113.300129,40.076762,和顺街道,,140200,0352,140214025000,,,,,,,,,,2,100,1003,1215,2237,13157,,,
13158,7,113.300129,40.076762,和瑞街道,,140200,0352,140214026000,,,,,,,,,,2,100,1003,1215,2237,13158,,,
13159,7,113.300129,40.076762,平盛路街道,,140200,0352,140214027000,,,,,,,,,,2,100,1003,1215,2237,13159,,,
13160,7,113.300129,40.076762,清泉街街道,,140200,0352,140214028000,,,,,,,,,,2,100,1003,1215,2237,13160,,,
13161,7,113.233108,40.046199,西花园街道,,140203,0352,140214029000,,,,,,,,,,2,100,1003,1215,2237,13161,,,
13162,7,113.217788,40.066106,老平旺街道,,140203,0352,140214030000,,,,,,,,,,2,100,1003,1215,2237,13162,,,
13163,7,113.021413,40.116097,高山镇,,140211,0352,140214101000,,,,,,,,,,2,100,1003,1215,2237,13163,,,
13164,7,113.2342,40.095729,云冈镇,,140211,0352,140214102000,,,,,,,,,,2,100,1003,1215,2237,13164,,,
13165,7,113.148737,40.007262,口泉乡,,140211,0352,140214200000,,,,,,,,,,2,100,1003,1215,2237,13165,,,
13166,7,113.245649,40.01652,西韩岭乡,,140211,0352,140214206000,,,,,,,,,,2,100,1003,1215,2237,13166,,,
13167,7,113.191956,40.047695,平旺乡,,140203,0352,140214207000,,,,,,,,,,2,100,1003,1215,2237,13167,,,
13168,7,113.003532,39.964705,鸦儿崖乡,,140211,0352,140214210000,,,,,,,,,,2,100,1003,1215,2237,13168,,,
13169,7,113.61015,40.044508,西坪镇,,140227,0352,140215100000,,,,,,,,,,2,100,1003,1215,2238,13169,,,
13170,7,113.461437,40.054907,倍加造镇,,140227,0352,140215101000,,,,,,,,,,2,100,1003,1215,2238,13170,,,
13171,7,113.45741,40.115304,周士庄镇,,140227,0352,140215102000,,,,,,,,,,2,100,1003,1215,2238,13171,,,
13172,7,113.463704,39.85147,吉家庄乡,,140227,0352,140215201000,,,,,,,,,,2,100,1003,1215,2238,13172,,,
13173,7,113.609,39.923425,峰峪乡,,140227,0352,140215202000,,,,,,,,,,2,100,1003,1215,2238,13173,,,
13174,7,113.471855,39.935535,杜庄乡,,140227,0352,140215204000,,,,,,,,,,2,100,1003,1215,2238,13174,,,
13175,7,113.430255,39.990051,党留庄乡,,140227,0352,140215205000,,,,,,,,,,2,100,1003,1215,2238,13175,,,
13176,7,113.658423,40.021279,瓜园乡,,140227,0352,140215207000,,,,,,,,,,2,100,1003,1215,2238,13176,,,
13177,7,113.582844,40.168573,聚乐乡,,140227,0352,140215209000,,,,,,,,,,2,100,1003,1215,2238,13177,,,
13178,7,113.754517,40.026753,许堡乡,,140227,0352,140215211000,,,,,,,,,,2,100,1003,1215,2238,13178,,,
13179,7,113.755001,40.371402,龙泉镇,,140221,0352,140221100000,,,,,,,,,,2,100,1003,1215,2239,13179,,,
13180,7,113.897225,40.411524,罗文皂镇,,140221,0352,140221101000,,,,,,,,,,2,100,1003,1215,2239,13180,,,
13181,7,113.819015,40.278298,大白登镇,,140221,0352,140221102000,,,,,,,,,,2,100,1003,1215,2239,13181,,,
13182,7,113.672039,40.26037,王官屯镇,,140221,0352,140221103000,,,,,,,,,,2,100,1003,1215,2239,13182,,,
13183,7,113.962534,40.13656,古城镇,,140221,0352,140221104000,,,,,,,,,,2,100,1003,1215,2239,13183,,,
13184,7,113.899611,40.054189,东小村镇,,140221,0352,140221105000,,,,,,,,,,2,100,1003,1215,2239,13184,,,
13185,7,113.900263,39.955883,友宰镇,,140221,0352,140221106000,,,,,,,,,,2,100,1003,1215,2239,13185,,,
13186,7,113.580646,40.353057,长城乡,,140221,0352,140221201000,,,,,,,,,,2,100,1003,1215,2239,13186,,,
13187,7,113.874854,40.369587,北徐屯乡,,140221,0352,140221202000,,,,,,,,,,2,100,1003,1215,2239,13187,,,
13188,7,113.904436,40.280119,狮子屯乡,,140221,0352,140221204000,,,,,,,,,,2,100,1003,1215,2239,13188,,,
13189,7,113.745059,40.13923,下深井乡,,140221,0352,140221209000,,,,,,,,,,2,100,1003,1215,2239,13189,,,
13190,7,113.970762,39.968232,鳌石乡,,140221,0352,140221212000,,,,,,,,,,2,100,1003,1215,2239,13190,,,
13191,7,114.096859,40.419793,玉泉镇,,140222,0352,140222100000,,,,,,,,,,2,100,1003,1215,2240,13191,,,
13192,7,114.07313,40.442851,谷前堡镇,,140222,0352,140222101000,,,,,,,,,,2,100,1003,1215,2240,13192,,,
13193,7,114.111603,40.319314,米薪关镇,,140222,0352,140222102000,,,,,,,,,,2,100,1003,1215,2240,13193,,,
13194,7,114.22075,40.52736,逯家湾镇,,140222,0352,140222103000,,,,,,,,,,2,100,1003,1215,2240,13194,,,
13195,7,114.086427,40.660689,新平堡镇,,140222,0352,140222104000,,,,,,,,,,2,100,1003,1215,2240,13195,,,
13196,7,113.932722,40.386647,卅里铺乡,,140222,0352,140222200000,,,,,,,,,,2,100,1003,1215,2240,13196,,,
13197,7,114.04188,40.343514,南河堡乡,,140222,0352,140222202000,,,,,,,,,,2,100,1003,1215,2240,13197,,,
13198,7,114.113402,40.266568,贾家屯乡,,140222,0352,140222204000,,,,,,,,,,2,100,1003,1215,2240,13198,,,
13199,7,114.062858,40.19386,赵家沟乡,,140222,0352,140222206000,,,,,,,,,,2,100,1003,1215,2240,13199,,,
13200,7,114.381141,40.301706,南高崖乡,,140222,0352,140222208000,,,,,,,,,,2,100,1003,1215,2240,13200,,,
13201,7,114.235127,40.437841,张西河乡,,140222,0352,140222209000,,,,,,,,,,2,100,1003,1215,2240,13201,,,
13202,7,114.073635,40.138639,马家皂乡,,140221,0352,140222210000,,,,,,,,,,2,100,1003,1215,2240,13202,,,
13203,7,114.289992,39.761573,壶泉镇,,140223,0352,140223100000,,,,,,,,,,2,100,1003,1215,2241,13203,,,
13204,7,114.099046,39.754326,南村镇,,140223,0352,140223101000,,,,,,,,,,2,100,1003,1215,2241,13204,,,
13205,7,114.213066,39.841003,一斗泉乡,,140223,0352,140223200000,,,,,,,,,,2,100,1003,1215,2241,13205,,,
13206,7,114.342305,39.791004,蕉山乡,,140223,0352,140223202000,,,,,,,,,,2,100,1003,1215,2241,13206,,,
13207,7,114.36807,39.75294,加斗乡,,140223,0352,140223203000,,,,,,,,,,2,100,1003,1215,2241,13207,,,
13208,7,114.281985,39.710677,宜兴乡,,140223,0352,140223206000,,,,,,,,,,2,100,1003,1215,2241,13208,,,
13209,7,114.208216,39.746337,作疃乡,,140223,0352,140223207000,,,,,,,,,,2,100,1003,1215,2241,13209,,,
13210,7,114.111682,39.817882,梁庄乡,,140223,0352,140223209000,,,,,,,,,,2,100,1003,1215,2241,13210,,,
13211,7,113.96291,39.79573,望狐乡,,140223,0352,140223211000,,,,,,,,,,2,100,1003,1215,2241,13211,,,
13212,7,114.236603,39.44319,武灵镇,,140224,0352,140224100000,,,,,,,,,,2,100,1003,1215,2242,13212,,,
13213,7,114.056184,39.388674,东河南镇,,140224,0352,140224101000,,,,,,,,,,2,100,1003,1215,2242,13213,,,
13214,7,114.317101,39.220299,上寨镇,,140224,0352,140224102000,,,,,,,,,,2,100,1003,1215,2242,13214,,,
13215,7,114.320996,39.446802,落水河乡,,140224,0352,140224200000,,,,,,,,,,2,100,1003,1215,2242,13215,,,
13216,7,114.152861,39.51834,史庄乡,,140224,0352,140224203000,,,,,,,,,,2,100,1003,1215,2242,13216,,,
13217,7,114.042447,39.486059,赵北乡,,140224,0352,140224205000,,,,,,,,,,2,100,1003,1215,2242,13217,,,
13218,7,114.362576,39.539189,石家田乡,,140224,0352,140224206000,,,,,,,,,,2,100,1003,1215,2242,13218,,,
13219,7,114.4206,39.541191,柳科乡,,140224,0352,140224207000,,,,,,,,,,2,100,1003,1215,2242,13219,,,
13220,7,113.979477,39.332836,白崖台乡,,140224,0352,140224208000,,,,,,,,,,2,100,1003,1215,2242,13220,,,
13221,7,114.37047,39.316049,红石塄乡,,140224,0352,140224210000,,,,,,,,,,2,100,1003,1215,2242,13221,,,
13222,7,114.176965,39.122461,下关乡,,140224,0352,140224212000,,,,,,,,,,2,100,1003,1215,2242,13222,,,
13223,7,114.19268,39.190719,独峪乡,,140224,0352,140224213000,,,,,,,,,,2,100,1003,1215,2242,13223,,,
13224,7,113.688068,39.69915,永安镇,,140225,0352,140225100000,,,,,,,,,,2,100,1003,1215,2243,13224,,,
13225,7,113.497141,39.612761,西坊城镇,,140225,0352,140225101000,,,,,,,,,,2,100,1003,1215,2243,13225,,,
13226,7,113.653862,39.740934,蔡村镇,,140225,0352,140225102000,,,,,,,,,,2,100,1003,1215,2243,13226,,,
13227,7,113.830616,39.7852,沙圪坨镇,,140225,0352,140225103000,,,,,,,,,,2,100,1003,1215,2243,13227,,,
13228,7,113.921656,39.431092,王庄堡镇,,140225,0352,140225104000,,,,,,,,,,2,100,1003,1215,2243,13228,,,
13229,7,113.737812,39.638035,大磁窑镇,,140225,0352,140225105000,,,,,,,,,,2,100,1003,1215,2243,13229,,,
13230,7,113.67187,39.67743,东坊城乡,,140225,0352,140225201000,,,,,,,,,,2,100,1003,1215,2243,13230,,,
13231,7,113.533717,39.632238,裴村乡,,140225,0352,140225203000,,,,,,,,,,2,100,1003,1215,2243,13231,,,
13232,7,113.45942,39.61864,驼峰乡,,140225,0352,140225204000,,,,,,,,,,2,100,1003,1215,2243,13232,,,
13233,7,113.550783,39.682714,西留村乡,,140225,0352,140225205000,,,,,,,,,,2,100,1003,1215,2243,13233,,,
13234,7,113.63064,39.725875,下韩村乡,,140225,0352,140225206000,,,,,,,,,,2,100,1003,1215,2243,13234,,,
13235,7,113.572913,39.728605,南榆林乡,,140225,0352,140225208000,,,,,,,,,,2,100,1003,1215,2243,13235,,,
13236,7,113.636975,39.832912,吴城乡,,140225,0352,140225210000,,,,,,,,,,2,100,1003,1215,2243,13236,,,
13237,7,113.852993,39.655775,黄花滩乡,,140225,0352,140225212000,,,,,,,,,,2,100,1003,1215,2243,13237,,,
13238,7,113.898801,39.682579,大仁庄乡,,140225,0352,140225213000,,,,,,,,,,2,100,1003,1215,2243,13238,,,
13239,7,113.699475,39.693407,千佛岭乡,,140225,0352,140225215000,,,,,,,,,,2,100,1003,1215,2243,13239,,,
13240,7,113.643441,39.51468,官儿乡,,140225,0352,140225218000,,,,,,,,,,2,100,1003,1215,2243,13240,,,
13241,7,113.76907,39.618309,青磁窑乡,,140225,0352,140225220000,,,,,,,,,,2,100,1003,1215,2243,13241,,,
13242,7,112.724186,40.023661,云兴镇,,140226,0352,140226100000,,,,,,,,,,2,100,1003,1215,2244,13242,,,
13243,7,112.958542,40.1171,鹊儿山镇,,140226,0352,140226101000,,,,,,,,,,2,100,1003,1215,2244,13243,,,
13244,7,112.873693,39.979135,店湾镇,,140226,0352,140226102000,,,,,,,,,,2,100,1003,1215,2244,13244,,,
13245,7,112.891988,40.179599,管家堡乡,,140226,0352,140226200000,,,,,,,,,,2,100,1003,1215,2244,13245,,,
13246,7,112.832566,40.083782,张家场乡,,140226,0352,140226201000,,,,,,,,,,2,100,1003,1215,2244,13246,,,
13247,7,112.726483,40.099288,三屯乡,,140226,0352,140226205000,,,,,,,,,,2,100,1003,1215,2244,13247,,,
13248,7,112.773022,39.881767,马道头乡,,140226,0352,140226206000,,,,,,,,,,2,100,1003,1215,2244,13248,,,
13249,7,112.657611,39.887065,小京庄乡,,140226,0352,140226207000,,,,,,,,,,2,100,1003,1215,2244,13249,,,
13250,7,112.93297,39.87246,水窑乡,,140226,0352,140226209000,,,,,,,,,,2,100,1003,1215,2244,13250,,,
13251,7,113.39743,40.073892,经济技术开发区乡级单位,,140211,0352,140271400000,,,,,,,,,,2,100,1003,1215,2245,13251,,,
13252,7,113.590911,37.852767,上站街道,,140302,0353,140302001000,,,,,,,,,,2,100,1003,1216,2246,13252,,,
13253,7,113.587802,37.859437,下站街道,,140302,0353,140302002000,,,,,,,,,,2,100,1003,1216,2246,13253,,,
13254,7,113.575035,37.866687,北大街街道,,140302,0353,140302003000,,,,,,,,,,2,100,1003,1216,2246,13254,,,
13255,7,113.585626,37.848421,南山路街道,,140302,0353,140302004000,,,,,,,,,,2,100,1003,1216,2246,13255,,,
13256,7,113.60067,37.847437,义井街道,,140302,0353,140302005000,,,,,,,,,,2,100,1003,1216,2246,13256,,,
13257,7,113.60067,37.847437,坡底街道,,140302,0353,140302006000,,,,,,,,,,2,100,1003,1216,2246,13257,,,
13258,7,113.615951,37.844858,义井镇,,140302,0353,140302100000,,,,,,,,,,2,100,1003,1216,2246,13258,,,
13259,7,113.562806,37.867009,平潭街街道,,140303,0353,140303001000,,,,,,,,,,2,100,1003,1216,2247,13259,,,
13260,7,113.539242,37.871255,蔡洼街道,,140303,0353,140303003000,,,,,,,,,,2,100,1003,1216,2247,13260,,,
13261,7,113.512219,37.878407,赛鱼街道,,140303,0353,140303004000,,,,,,,,,,2,100,1003,1216,2247,13261,,,
13262,7,113.516502,37.893996,沙坪街道,,140303,0353,140303005000,,,,,,,,,,2,100,1003,1216,2247,13262,,,
13263,7,113.580519,37.856971,贵石沟街道,,140300,0353,140303006000,,,,,,,,,,2,100,1003,1216,2247,13263,,,
13264,7,113.544829,37.874877,桥头街道,,140303,0353,140303007000,,,,,,,,,,2,100,1003,1216,2247,13264,,,
13265,7,113.571928,37.939528,荫营镇,,140311,0353,140311100000,,,,,,,,,,2,100,1003,1216,2248,13265,,,
13266,7,113.564136,37.996733,河底镇,,140311,0353,140311101000,,,,,,,,,,2,100,1003,1216,2248,13266,,,
13267,7,113.477766,37.868846,平坦镇,,140311,0353,140311103000,,,,,,,,,,2,100,1003,1216,2248,13267,,,
13268,7,113.626669,38.028323,西南舁乡,,140311,0353,140311200000,,,,,,,,,,2,100,1003,1216,2248,13268,,,
13269,7,113.653725,37.893353,杨家庄乡,,140311,0353,140311201000,,,,,,,,,,2,100,1003,1216,2248,13269,,,
13270,7,113.569016,37.91129,李家庄乡,,140311,0353,140311202000,,,,,,,,,,2,100,1003,1216,2248,13270,,,
13271,7,113.386998,37.864504,旧街乡,,140311,0353,140311203000,,,,,,,,,,2,100,1003,1216,2248,13271,,,
13272,7,113.594164,37.944679,开发区,,140311,0353,140311400000,,,,,,,,,,2,100,1003,1216,2248,13272,,,
13273,7,113.629378,37.805196,冠山镇,,140321,0353,140321100000,,,,,,,,,,2,100,1003,1216,2249,13273,,,
13274,7,113.565185,37.765624,冶西镇,,140321,0353,140321101000,,,,,,,,,,2,100,1003,1216,2249,13274,,,
13275,7,113.660549,37.736647,锁簧镇,,140321,0353,140321102000,,,,,,,,,,2,100,1003,1216,2249,13275,,,
13276,7,113.695136,37.693841,张庄镇,,140321,0353,140321103000,,,,,,,,,,2,100,1003,1216,2249,13276,,,
13277,7,113.8788,37.780597,东回镇,,140321,0353,140321104000,,,,,,,,,,2,100,1003,1216,2249,13277,,,
13278,7,113.819366,37.824553,柏井镇,,140321,0353,140321105000,,,,,,,,,,2,100,1003,1216,2249,13278,,,
13279,7,113.874109,37.960641,娘子关镇,,140321,0353,140321106000,,,,,,,,,,2,100,1003,1216,2249,13279,,,
13280,7,113.72581,37.942319,巨城镇,,140321,0353,140321107000,,,,,,,,,,2,100,1003,1216,2249,13280,,,
13281,7,113.753494,37.781386,石门口乡,,140321,0353,140321200000,,,,,,,,,,2,100,1003,1216,2249,13281,,,
13282,7,113.719143,38.029896,岔口乡,,140321,0353,140321201000,,,,,,,,,,2,100,1003,1216,2249,13282,,,
13283,7,113.404631,38.091733,秀水镇,,140322,0353,140322100000,,,,,,,,,,2,100,1003,1216,2250,13283,,,
13284,7,113.46445,38.091041,孙家庄镇,,140322,0353,140322101000,,,,,,,,,,2,100,1003,1216,2250,13284,,,
13285,7,113.451262,38.043836,路家村镇,,140322,0353,140322102000,,,,,,,,,,2,100,1003,1216,2250,13285,,,
13286,7,113.380419,38.034462,南娄镇,,140322,0353,140322103000,,,,,,,,,,2,100,1003,1216,2250,13286,,,
13287,7,113.516083,38.094738,牛村镇,,140322,0353,140322104000,,,,,,,,,,2,100,1003,1216,2250,13287,,,
13288,7,113.354124,38.167173,苌池镇,,140322,0353,140322105000,,,,,,,,,,2,100,1003,1216,2250,13288,,,
13289,7,113.348861,38.290329,上社镇,,140322,0353,140322106000,,,,,,,,,,2,100,1003,1216,2250,13289,,,
13290,7,113.080383,38.185141,西烟镇,,140322,0353,140322107000,,,,,,,,,,2,100,1003,1216,2250,13290,,,
13291,7,113.609814,38.131768,仙人乡,,140322,0353,140322200000,,,,,,,,,,2,100,1003,1216,2250,13291,,,
13292,7,113.54583,38.155979,北下庄乡,,140322,0353,140322201000,,,,,,,,,,2,100,1003,1216,2250,13292,,,
13293,7,113.366516,38.385551,下社乡,,140322,0353,140322202000,,,,,,,,,,2,100,1003,1216,2250,13293,,,
13294,7,113.477646,38.439172,梁家寨乡,,140322,0353,140322203000,,,,,,,,,,2,100,1003,1216,2250,13294,,,
13295,7,113.169461,38.330339,西潘乡,,140322,0353,140322204000,,,,,,,,,,2,100,1003,1216,2250,13295,,,
13296,7,113.05555,38.112614,东梁乡,,140322,0353,140322205000,,,,,,,,,,2,100,1003,1216,2250,13296,,,
13297,7,113.116255,36.195386,东街街道,,140400,0355,140403001000,,,,,,,,,,2,100,1003,1217,2251,13297,,,
13298,7,113.107653,36.18424,西街街道,,140402,0355,140403002000,,,,,,,,,,2,100,1003,1217,2251,13298,,,
13299,7,113.110983,36.178403,英雄南路街道,,140402,0355,140403003000,,,,,,,,,,2,100,1003,1217,2251,13299,,,
13300,7,113.116255,36.195386,英雄中路街道,,140400,0355,140403004000,,,,,,,,,,2,100,1003,1217,2251,13300,,,
13301,7,113.12272,36.198089,紫金街街道,,140402,0355,140403005000,,,,,,,,,,2,100,1003,1217,2251,13301,,,
13302,7,113.133288,36.197225,太行东街街道,,140402,0355,140403006000,,,,,,,,,,2,100,1003,1217,2251,13302,,,
13303,7,113.117241,36.202947,太行西街街道,,140402,0355,140403007000,,,,,,,,,,2,100,1003,1217,2251,13303,,,
13304,7,113.115868,36.155621,延安南路街道,,140402,0355,140403008000,,,,,,,,,,2,100,1003,1217,2251,13304,,,
13305,7,113.116255,36.195386,常青街道,,140400,0355,140403009000,,,,,,,,,,2,100,1003,1217,2251,13305,,,
13306,7,113.113204,36.162786,五马街道,,140402,0355,140403010000,,,,,,,,,,2,100,1003,1217,2251,13306,,,
13307,7,113.112879,36.309875,长北街道,,140411,0355,140403011000,,,,,,,,,,2,100,1003,1217,2251,13307,,,
13308,7,113.0484,36.363735,故县街道,,140411,0355,140403012000,,,,,,,,,,2,100,1003,1217,2251,13308,,,
13309,7,113.157272,36.221616,老顶山镇,,140411,0355,140403100000,,,,,,,,,,2,100,1003,1217,2251,13309,,,
13310,7,113.070625,36.184754,堠北庄镇,,140411,0355,140403101000,,,,,,,,,,2,100,1003,1217,2251,13310,,,
13311,7,113.119571,36.236409,大辛庄镇,,140411,0355,140403102000,,,,,,,,,,2,100,1003,1217,2251,13311,,,
13312,7,113.122673,36.31754,马厂镇,,140411,0355,140403103000,,,,,,,,,,2,100,1003,1217,2251,13312,,,
13313,7,113.059522,36.348315,黄碾镇,,140411,0355,140403104000,,,,,,,,,,2,100,1003,1217,2251,13313,,,
13314,7,113.07992,36.40675,西白兔乡,,140411,0355,140403200000,,,,,,,,,,2,100,1003,1217,2251,13314,,,
13315,7,113.116255,36.195386,长治市漳泽工业转型试验区管理委员会社区,,140400,0355,140403400000,,,,,,,,,,2,100,1003,1217,2251,13315,,,
13316,7,113.436898,36.198632,长治市老顶山旅游开发管理中心,,140425,0355,140403401000,,,,,,,,,,2,100,1003,1217,2251,13316,,,
13317,7,113.049319,36.045332,韩店镇,,140421,0355,140404100000,,,,,,,,,,2,100,1003,1217,2252,13317,,,
13318,7,113.091502,36.121731,苏店镇,,140421,0355,140404101000,,,,,,,,,,2,100,1003,1217,2252,13318,,,
13319,7,113.12569,35.957959,荫城镇,,140421,0355,140404102000,,,,,,,,,,2,100,1003,1217,2252,13319,,,
13320,7,113.150427,35.908744,西火镇,,140421,0355,140404103000,,,,,,,,,,2,100,1003,1217,2252,13320,,,
13321,7,113.02744,35.966591,八义镇,,140421,0355,140404104000,,,,,,,,,,2,100,1003,1217,2252,13321,,,
13322,7,113.14655,36.095626,贾掌镇,,140421,0355,140404105000,,,,,,,,,,2,100,1003,1217,2252,13322,,,
13323,7,113.061089,36.163871,郝家庄乡,,140421,0355,140404200000,,,,,,,,,,2,100,1003,1217,2252,13323,,,
13324,7,113.128567,36.017106,西池乡,,140421,0355,140404201000,,,,,,,,,,2,100,1003,1217,2252,13324,,,
13325,7,113.00451,36.076673,北呈乡,,140421,0355,140404202000,,,,,,,,,,2,100,1003,1217,2252,13325,,,
13326,7,113.029743,36.031493,东和乡,,140421,0355,140404203000,,,,,,,,,,2,100,1003,1217,2252,13326,,,
13327,7,113.06018,35.920309,南宋乡,,140421,0355,140404204000,,,,,,,,,,2,100,1003,1217,2252,13327,,,
13328,7,113.11121,36.187185,振兴新区,,140402,0355,140404400000,,,,,,,,,,2,100,1003,1217,2252,13328,,,
13329,7,113.11121,36.187185,上党经济技术开发区,,140402,0355,140404401000,,,,,,,,,,2,100,1003,1217,2252,13329,,,
13330,7,113.11121,36.187185,长治市经济技术开发区长治县部分,,140402,0355,140404406000,,,,,,,,,,2,100,1003,1217,2252,13330,,,
13331,7,113.11121,36.187185,信义开发区,,140402,0355,140404407000,,,,,,,,,,2,100,1003,1217,2252,13331,,,
13332,7,112.89228,36.311433,麟绛镇,,140424,0355,140405100000,,,,,,,,,,2,100,1003,1217,2253,13332,,,
13333,7,113.000598,36.326141,上村镇,,140424,0355,140405101000,,,,,,,,,,2,100,1003,1217,2253,13333,,,
13334,7,112.989003,36.360306,渔泽镇,,140424,0355,140405102000,,,,,,,,,,2,100,1003,1217,2253,13334,,,
13335,7,112.84256,36.369755,余吾镇,,140424,0355,140405103000,,,,,,,,,,2,100,1003,1217,2253,13335,,,
13336,7,112.702971,36.424985,吾元镇,,140424,0355,140405104000,,,,,,,,,,2,100,1003,1217,2253,13336,,,
13337,7,112.614469,36.351593,张店镇,,140424,0355,140405105000,,,,,,,,,,2,100,1003,1217,2253,13337,,,
13338,7,112.731554,36.238172,丰宜镇,,140424,0355,140405106000,,,,,,,,,,2,100,1003,1217,2253,13338,,,
13339,7,112.93981,36.258444,李高乡,,140424,0355,140405200000,,,,,,,,,,2,100,1003,1217,2253,13339,,,
13340,7,112.951246,36.377464,路村乡,,140424,0355,140405201000,,,,,,,,,,2,100,1003,1217,2253,13340,,,
13341,7,112.740015,36.30583,河神庙乡,,140424,0355,140405202000,,,,,,,,,,2,100,1003,1217,2253,13341,,,
13342,7,112.867384,36.278402,西贾乡,,140424,0355,140405203000,,,,,,,,,,2,100,1003,1217,2253,13342,,,
13343,7,112.892151,36.315929,西流寨开发区,,140424,0355,140405400000,,,,,,,,,,2,100,1003,1217,2253,13343,,,
13344,7,112.999256,36.237737,康庄工业园区,,140424,0355,140405401000,,,,,,,,,,2,100,1003,1217,2253,13344,,,
13345,7,112.892151,36.315929,上莲开发区,,140424,0355,140405402000,,,,,,,,,,2,100,1003,1217,2253,13345,,,
13346,7,112.892151,36.315929,屯留县经济技术开发区,,140424,0355,140405403000,,,,,,,,,,2,100,1003,1217,2253,13346,,,
13347,7,113.229906,36.331575,潞华街道,,140481,0355,140406001000,,,,,,,,,,2,100,1003,1217,2254,13347,,,
13348,7,113.272041,36.313426,成家川街道,,140481,0355,140406002000,,,,,,,,,,2,100,1003,1217,2254,13348,,,
13349,7,113.103334,36.432391,店上镇,,140481,0355,140406100000,,,,,,,,,,2,100,1003,1217,2254,13349,,,
13350,7,113.305969,36.337008,微子镇,,140481,0355,140406101000,,,,,,,,,,2,100,1003,1217,2254,13350,,,
13351,7,113.317658,36.456272,辛安泉镇,,140481,0355,140406102000,,,,,,,,,,2,100,1003,1217,2254,13351,,,
13352,7,113.186159,36.285468,翟店镇,,140481,0355,140406103000,,,,,,,,,,2,100,1003,1217,2254,13352,,,
13353,7,113.254895,36.377372,合室乡,,140481,0355,140406200000,,,,,,,,,,2,100,1003,1217,2254,13353,,,
13354,7,113.369268,36.314044,黄牛蹄乡,,140481,0355,140406201000,,,,,,,,,,2,100,1003,1217,2254,13354,,,
13355,7,113.150921,36.349968,史回乡,,140481,0355,140406202000,,,,,,,,,,2,100,1003,1217,2254,13355,,,
13356,7,113.228852,36.334104,潞城经济技术开发区,,140481,0355,140406400000,,,,,,,,,,2,100,1003,1217,2254,13356,,,
13357,7,113.050388,36.531347,古韩镇,,140423,0355,140423100000,,,,,,,,,,2,100,1003,1217,2255,13357,,,
13358,7,113.061385,36.490137,王桥镇,,140423,0355,140423101000,,,,,,,,,,2,100,1003,1217,2255,13358,,,
13359,7,112.978719,36.436748,侯堡镇,,140423,0355,140423102000,,,,,,,,,,2,100,1003,1217,2255,13359,,,
13360,7,112.924074,36.512894,夏店镇,,140423,0355,140423103000,,,,,,,,,,2,100,1003,1217,2255,13360,,,
13361,7,112.815602,36.568661,虒亭镇,,140423,0355,140423104000,,,,,,,,,,2,100,1003,1217,2255,13361,,,
13362,7,113.077631,36.710358,西营镇,,140423,0355,140423105000,,,,,,,,,,2,100,1003,1217,2255,13362,,,
13363,7,112.947482,36.662411,王村镇,,140423,0355,140423106000,,,,,,,,,,2,100,1003,1217,2255,13363,,,
13364,7,113.055142,36.655043,下良镇,,140423,0355,140423107000,,,,,,,,,,2,100,1003,1217,2255,13364,,,
13365,7,113.007413,36.606811,善福乡,,140423,0355,140423200000,,,,,,,,,,2,100,1003,1217,2255,13365,,,
13366,7,113.07011,36.555618,北底乡,,140423,0355,140423201000,,,,,,,,,,2,100,1003,1217,2255,13366,,,
13367,7,112.77649,36.535684,上马乡,,140423,0355,140423202000,,,,,,,,,,2,100,1003,1217,2255,13367,,,
13368,7,112.958082,36.482609,富阳工业园区,,140423,0355,140423400000,,,,,,,,,,2,100,1003,1217,2255,13368,,,
13369,7,113.051491,36.535817,襄垣经济技术开发区,,140423,0355,140423402000,,,,,,,,,,2,100,1003,1217,2255,13369,,,
13370,7,113.437922,36.198467,青羊镇,,140425,0355,140425100000,,,,,,,,,,2,100,1003,1217,2256,13370,,,
13371,7,113.420668,36.059181,龙溪镇,,140425,0355,140425101000,,,,,,,,,,2,100,1003,1217,2256,13371,,,
13372,7,113.647249,36.358069,石城镇,,140425,0355,140425102000,,,,,,,,,,2,100,1003,1217,2256,13372,,,
13373,7,113.280422,36.213948,苗庄镇,,140425,0355,140425103000,,,,,,,,,,2,100,1003,1217,2256,13373,,,
13374,7,113.565609,36.03091,杏城镇,,140425,0355,140425104000,,,,,,,,,,2,100,1003,1217,2256,13374,,,
13375,7,113.44517,36.143291,西沟乡,,140425,0355,140425200000,,,,,,,,,,2,100,1003,1217,2256,13375,,,
13376,7,113.557185,36.151473,东寺头乡,,140425,0355,140425201000,,,,,,,,,,2,100,1003,1217,2256,13376,,,
13377,7,113.55308,36.22825,虹梯关乡,,140425,0355,140425202000,,,,,,,,,,2,100,1003,1217,2256,13377,,,
13378,7,113.59197,36.351947,阳高乡,,140425,0355,140425203000,,,,,,,,,,2,100,1003,1217,2256,13378,,,
13379,7,113.508448,36.345523,北耽车乡,,140425,0355,140425204000,,,,,,,,,,2,100,1003,1217,2256,13379,,,
13380,7,113.420924,36.287232,中五井乡,,140425,0355,140425205000,,,,,,,,,,2,100,1003,1217,2256,13380,,,
13381,7,113.30502,36.251987,北社乡,,140425,0355,140425206000,,,,,,,,,,2,100,1003,1217,2256,13381,,,
13382,7,113.435961,36.200179,平顺经济技术开发区,,140425,0355,140425400000,,,,,,,,,,2,100,1003,1217,2256,13382,,,
13383,7,113.386721,36.499435,黎侯镇,,140426,0355,140426100000,,,,,,,,,,2,100,1003,1217,2257,13383,,,
13384,7,113.4788,36.541229,东阳关镇,,140426,0355,140426101000,,,,,,,,,,2,100,1003,1217,2257,13384,,,
13385,7,113.26035,36.517242,上遥镇,,140426,0355,140426102000,,,,,,,,,,2,100,1003,1217,2257,13385,,,
13386,7,113.412282,36.742188,西井镇,,140426,0355,140426103000,,,,,,,,,,2,100,1003,1217,2257,13386,,,
13387,7,113.449079,36.802645,黄崖洞镇,,140426,0355,140426104000,,,,,,,,,,2,100,1003,1217,2257,13387,,,
13388,7,113.36541,36.46764,西仵乡,,140426,0355,140426200000,,,,,,,,,,2,100,1003,1217,2257,13388,,,
13389,7,113.42274,36.52456,停河铺乡,,140426,0355,140426201000,,,,,,,,,,2,100,1003,1217,2257,13389,,,
13390,7,113.423209,36.442049,程家山乡,,140426,0355,140426202000,,,,,,,,,,2,100,1003,1217,2257,13390,,,
13391,7,113.390721,36.57766,洪井乡,,140426,0355,140426203000,,,,,,,,,,2,100,1003,1217,2257,13391,,,
13392,7,113.386544,36.503621,黎城县经济技术开发区,,140426,0355,140426400000,,,,,,,,,,2,100,1003,1217,2257,13392,,,
13393,7,113.205473,36.099632,龙泉镇,,140427,0355,140427100000,,,,,,,,,,2,100,1003,1217,2258,13393,,,
13394,7,113.23171,35.945324,百尺镇,,140427,0355,140427101000,,,,,,,,,,2,100,1003,1217,2258,13394,,,
13395,7,113.274579,35.98971,店上镇,,140427,0355,140427102000,,,,,,,,,,2,100,1003,1217,2258,13395,,,
13396,7,113.336379,36.08042,晋庄镇,,140427,0355,140427103000,,,,,,,,,,2,100,1003,1217,2258,13396,,,
13397,7,113.422087,35.891375,树掌镇,,140427,0355,140427104000,,,,,,,,,,2,100,1003,1217,2258,13397,,,
13398,7,113.209064,36.148109,集店乡,,140427,0355,140427200000,,,,,,,,,,2,100,1003,1217,2258,13398,,,
13399,7,113.18391,36.005006,黄山乡,,140427,0355,140427201000,,,,,,,,,,2,100,1003,1217,2258,13399,,,
13400,7,113.3496,35.941099,东井岭乡,,140427,0355,140427202000,,,,,,,,,,2,100,1003,1217,2258,13400,,,
13401,7,113.41028,35.986749,石坡乡,,140427,0355,140427203000,,,,,,,,,,2,100,1003,1217,2258,13401,,,
13402,7,113.27276,36.073341,五龙山乡,,140427,0355,140427204000,,,,,,,,,,2,100,1003,1217,2258,13402,,,
13403,7,113.575529,35.884384,鹅屋乡,,140427,0355,140427205000,,,,,,,,,,2,100,1003,1217,2258,13403,,,
13404,7,113.577695,35.917859,桥上乡,,140427,0355,140427206000,,,,,,,,,,2,100,1003,1217,2258,13404,,,
13405,7,113.23898,36.129519,常平开发区,,140427,0355,140427400000,,,,,,,,,,2,100,1003,1217,2258,13405,,,
13406,7,113.207049,36.115449,壶关县经济技术开发区,,140427,0355,140427401000,,,,,,,,,,2,100,1003,1217,2258,13406,,,
13407,7,112.8907,36.119095,丹朱镇,,140428,0355,140428100000,,,,,,,,,,2,100,1003,1217,2259,13407,,,
13408,7,112.86685,36.244239,鲍店镇,,140428,0355,140428101000,,,,,,,,,,2,100,1003,1217,2259,13408,,,
13409,7,112.774929,36.096722,石哲镇,,140428,0355,140428102000,,,,,,,,,,2,100,1003,1217,2259,13409,,,
13410,7,112.88152,36.069663,大堡头镇,,140428,0355,140428103000,,,,,,,,,,2,100,1003,1217,2259,13410,,,
13411,7,112.888771,35.983991,慈林镇,,140428,0355,140428104000,,,,,,,,,,2,100,1003,1217,2259,13411,,,
13412,7,112.942071,35.946349,色头镇,,140428,0355,140428105000,,,,,,,,,,2,100,1003,1217,2259,13412,,,
13413,7,112.994234,36.115758,南漳镇,,140428,0355,140428106000,,,,,,,,,,2,100,1003,1217,2259,13413,,,
13414,7,112.869046,36.197799,岚水乡,,140428,0355,140428200000,,,,,,,,,,2,100,1003,1217,2259,13414,,,
13415,7,112.776251,36.21534,碾张乡,,140428,0355,140428201000,,,,,,,,,,2,100,1003,1217,2259,13415,,,
13416,7,112.83921,36.140228,常张乡,,140428,0355,140428202000,,,,,,,,,,2,100,1003,1217,2259,13416,,,
13417,7,112.824273,36.056193,南陈乡,,140428,0355,140428203000,,,,,,,,,,2,100,1003,1217,2259,13417,,,
13418,7,112.961944,36.141867,宋村乡,,140428,0355,140428204000,,,,,,,,,,2,100,1003,1217,2259,13418,,,
13419,7,112.8779,36.122334,长子经济技术开发区,,140428,0355,140428400000,,,,,,,,,,2,100,1003,1217,2259,13419,,,
13420,7,112.868645,36.83234,丰州镇,,140429,0355,140429100000,,,,,,,,,,2,100,1003,1217,2260,13420,,,
13421,7,113.227799,36.867813,洪水镇,,140429,0355,140429101000,,,,,,,,,,2,100,1003,1217,2260,13421,,,
13422,7,113.13526,36.78892,蟠龙镇,,140429,0355,140429102000,,,,,,,,,,2,100,1003,1217,2260,13422,,,
13423,7,113.05381,36.756179,监漳镇,,140429,0355,140429103000,,,,,,,,,,2,100,1003,1217,2260,13423,,,
13424,7,112.667826,36.941334,故城镇,,140429,0355,140429104000,,,,,,,,,,2,100,1003,1217,2260,13424,,,
13425,7,113.302621,36.940889,墨镫乡,,140429,0355,140429200000,,,,,,,,,,2,100,1003,1217,2260,13425,,,
13426,7,113.168382,36.752232,韩北乡,,140429,0355,140429201000,,,,,,,,,,2,100,1003,1217,2260,13426,,,
13427,7,113.06849,36.844777,大有乡,,140429,0355,140429202000,,,,,,,,,,2,100,1003,1217,2260,13427,,,
13428,7,112.997396,36.877631,贾豁乡,,140429,0355,140429203000,,,,,,,,,,2,100,1003,1217,2260,13428,,,
13429,7,112.923264,36.825146,故县乡,,140429,0355,140429204000,,,,,,,,,,2,100,1003,1217,2260,13429,,,
13430,7,112.938731,36.760856,上司乡,,140429,0355,140429205000,,,,,,,,,,2,100,1003,1217,2260,13430,,,
13431,7,112.85652,36.941282,石北乡,,140429,0355,140429206000,,,,,,,,,,2,100,1003,1217,2260,13431,,,
13432,7,112.762238,36.903468,涌泉乡,,140429,0355,140429207000,,,,,,,,,,2,100,1003,1217,2260,13432,,,
13433,7,112.534919,37.035396,分水岭乡,,140429,0355,140429208000,,,,,,,,,,2,100,1003,1217,2260,13433,,,
13434,7,112.875497,36.830166,武乡经济技术开发区,,140429,0355,140429400000,,,,,,,,,,2,100,1003,1217,2260,13434,,,
13435,7,112.704889,36.769023,定昌镇,,140430,0355,140430100000,,,,,,,,,,2,100,1003,1217,2261,13435,,,
13436,7,112.585474,36.747117,郭村镇,,140430,0355,140430101000,,,,,,,,,,2,100,1003,1217,2261,13436,,,
13437,7,112.626201,36.596947,故县镇,,140430,0355,140430102000,,,,,,,,,,2,100,1003,1217,2261,13437,,,
13438,7,112.748809,36.637148,新店镇,,140430,0355,140430103000,,,,,,,,,,2,100,1003,1217,2261,13438,,,
13439,7,112.623212,36.859578,漳源镇,,140430,0355,140430104000,,,,,,,,,,2,100,1003,1217,2261,13439,,,
13440,7,112.603233,36.687091,册村镇,,140430,0355,140430105000,,,,,,,,,,2,100,1003,1217,2261,13440,,,
13441,7,112.722606,36.71313,段柳乡,,140430,0355,140430200000,,,,,,,,,,2,100,1003,1217,2261,13441,,,
13442,7,112.777442,36.832061,松村乡,,140430,0355,140430201000,,,,,,,,,,2,100,1003,1217,2261,13442,,,
13443,7,112.82531,36.699159,次村乡,,140430,0355,140430202000,,,,,,,,,,2,100,1003,1217,2261,13443,,,
13444,7,112.619,36.909195,牛寺乡,,140430,0355,140430203000,,,,,,,,,,2,100,1003,1217,2261,13444,,,
13445,7,112.68379,36.66754,南里乡,,140430,0355,140430204000,,,,,,,,,,2,100,1003,1217,2261,13445,,,
13446,7,112.55294,36.544671,南泉乡,,140430,0355,140430205000,,,,,,,,,,2,100,1003,1217,2261,13446,,,
13447,7,112.65217,36.48222,杨安乡,,140430,0355,140430206000,,,,,,,,,,2,100,1003,1217,2261,13447,,,
13448,7,112.699226,36.756064,沁县现代农业产业示范区,,140430,0355,140430400000,,,,,,,,,,2,100,1003,1217,2261,13448,,,
13449,7,112.33997,36.504869,沁河镇,,140431,0355,140431100000,,,,,,,,,,2,100,1003,1217,2262,13449,,,
13450,7,112.317714,36.675375,郭道镇,,140431,0355,140431101000,,,,,,,,,,2,100,1003,1217,2262,13450,,,
13451,7,112.14785,36.548507,灵空山镇,,140431,0355,140431102000,,,,,,,,,,2,100,1003,1217,2262,13451,,,
13452,7,112.167315,36.979645,王和镇,,140431,0355,140431103000,,,,,,,,,,2,100,1003,1217,2262,13452,,,
13453,7,112.232266,36.566544,李元镇,,140431,0355,140431104000,,,,,,,,,,2,100,1003,1217,2262,13453,,,
13454,7,112.24327,36.45026,中峪乡,,140431,0355,140431200000,,,,,,,,,,2,100,1003,1217,2262,13454,,,
13455,7,112.40534,36.419149,法中乡,,140431,0355,140431201000,,,,,,,,,,2,100,1003,1217,2262,13455,,,
13456,7,112.393079,36.616478,交口乡,,140431,0355,140431202000,,,,,,,,,,2,100,1003,1217,2262,13456,,,
13457,7,112.225076,36.78095,聪子峪乡,,140431,0355,140431203000,,,,,,,,,,2,100,1003,1217,2262,13457,,,
13458,7,112.210019,36.638691,韩洪乡,,140431,0355,140431204000,,,,,,,,,,2,100,1003,1217,2262,13458,,,
13459,7,112.3884,36.800879,官滩乡,,140431,0355,140431205000,,,,,,,,,,2,100,1003,1217,2262,13459,,,
13460,7,112.43577,36.87405,景凤乡,,140431,0355,140431206000,,,,,,,,,,2,100,1003,1217,2262,13460,,,
13461,7,112.32253,36.809449,赤石桥乡,,140431,0355,140431207000,,,,,,,,,,2,100,1003,1217,2262,13461,,,
13462,7,112.195067,36.879359,王陶乡,,140431,0355,140431208000,,,,,,,,,,2,100,1003,1217,2262,13462,,,
13463,7,112.337446,36.5002,沁源经济技术开发区,,140431,0355,140431400000,,,,,,,,,,2,100,1003,1217,2262,13463,,,
13464,7,113.130652,36.210407,长治高新技术开发区城北街街道,,140402,0355,140471400000,,,,,,,,,,2,100,1003,1217,2263,13464,,,
13465,7,112.842524,35.502222,东街街道,,140502,0356,140502001000,,,,,,,,,,2,100,1003,1218,2264,13465,,,
13466,7,112.830927,35.504192,西街街道,,140502,0356,140502002000,,,,,,,,,,2,100,1003,1218,2264,13466,,,
13467,7,112.843866,35.490467,南街街道,,140502,0356,140502003000,,,,,,,,,,2,100,1003,1218,2264,13467,,,
13468,7,112.840809,35.509486,北街街道,,140502,0356,140502004000,,,,,,,,,,2,100,1003,1218,2264,13468,,,
13469,7,112.857028,35.491908,钟家庄街道,,140502,0356,140502006000,,,,,,,,,,2,100,1003,1218,2264,13469,,,
13470,7,112.816319,35.518578,西上庄街道,,140502,0356,140502007000,,,,,,,,,,2,100,1003,1218,2264,13470,,,
13471,7,112.87857,35.493987,开发区街道,,140502,0356,140502009000,,,,,,,,,,2,100,1003,1218,2264,13471,,,
13472,7,112.901437,35.547333,北石店镇,,140502,0356,140502100000,,,,,,,,,,2,100,1003,1218,2264,13472,,,
13473,7,112.172577,35.683475,龙港镇,,140521,0356,140521100000,,,,,,,,,,2,100,1003,1218,2265,13473,,,
13474,7,111.990565,35.564715,中村镇,,140521,0356,140521101000,,,,,,,,,,2,100,1003,1218,2265,13474,,,
13475,7,112.394768,35.731713,郑庄镇,,140521,0356,140521102000,,,,,,,,,,2,100,1003,1218,2265,13475,,,
13476,7,112.518117,35.667253,端氏镇,,140521,0356,140521103000,,,,,,,,,,2,100,1003,1218,2265,13476,,,
13477,7,112.53672,35.610364,嘉峰镇,,140521,0356,140521104000,,,,,,,,,,2,100,1003,1218,2265,13477,,,
13478,7,112.580912,35.604908,郑村镇,,140521,0356,140521105000,,,,,,,,,,2,100,1003,1218,2265,13478,,,
13479,7,112.710709,35.87742,柿庄镇,,140521,0356,140521106000,,,,,,,,,,2,100,1003,1218,2265,13479,,,
13480,7,112.111192,35.802497,樊村河乡,,140521,0356,140521200000,,,,,,,,,,2,100,1003,1218,2265,13480,,,
13481,7,112.115449,35.551026,土沃乡,,140521,0356,140521201000,,,,,,,,,,2,100,1003,1218,2265,13481,,,
13482,7,112.197406,35.579399,张村乡,,140521,0356,140521202000,,,,,,,,,,2,100,1003,1218,2265,13482,,,
13483,7,112.374655,35.853788,苏庄乡,,140521,0356,140521203000,,,,,,,,,,2,100,1003,1218,2265,13483,,,
13484,7,112.608949,35.707661,胡底乡,,140521,0356,140521204000,,,,,,,,,,2,100,1003,1218,2265,13484,,,
13485,7,112.602043,35.79093,固县乡,,140521,0356,140521205000,,,,,,,,,,2,100,1003,1218,2265,13485,,,
13486,7,112.601913,35.931248,十里乡,,140521,0356,140521206000,,,,,,,,,,2,100,1003,1218,2265,13486,,,
13487,7,112.419044,35.484066,凤城镇,,140522,0356,140522100000,,,,,,,,,,2,100,1003,1218,2266,13487,,,
13488,7,112.569957,35.472834,北留镇,,140522,0356,140522101000,,,,,,,,,,2,100,1003,1218,2266,13488,,,
13489,7,112.527819,35.493407,润城镇,,140522,0356,140522102000,,,,,,,,,,2,100,1003,1218,2266,13489,,,
13490,7,112.43561,35.55053,町店镇,,140522,0356,140522103000,,,,,,,,,,2,100,1003,1218,2266,13490,,,
13491,7,112.333852,35.601858,芹池镇,,140522,0356,140522104000,,,,,,,,,,2,100,1003,1218,2266,13491,,,
13492,7,112.2456,35.497631,次营镇,,140522,0356,140522105000,,,,,,,,,,2,100,1003,1218,2266,13492,,,
13493,7,112.157969,35.360768,横河镇,,140522,0356,140522106000,,,,,,,,,,2,100,1003,1218,2266,13493,,,
13494,7,112.362682,35.417036,河北镇,,140522,0356,140522107000,,,,,,,,,,2,100,1003,1218,2266,13494,,,
13495,7,112.443099,35.380924,蟒河镇,,140522,0356,140522108000,,,,,,,,,,2,100,1003,1218,2266,13495,,,
13496,7,112.503124,35.36402,东冶镇,,140522,0356,140522109000,,,,,,,,,,2,100,1003,1218,2266,13496,,,
13497,7,112.453261,35.434768,白桑乡,,140522,0356,140522200000,,,,,,,,,,2,100,1003,1218,2266,13497,,,
13498,7,112.394466,35.621589,寺头乡,,140522,0356,140522201000,,,,,,,,,,2,100,1003,1218,2266,13498,,,
13499,7,112.376236,35.524464,西河乡,,140522,0356,140522202000,,,,,,,,,,2,100,1003,1218,2266,13499,,,
13500,7,112.350668,35.50505,演礼乡,,140522,0356,140522203000,,,,,,,,,,2,100,1003,1218,2266,13500,,,
13501,7,112.285209,35.522037,固隆乡,,140522,0356,140522204000,,,,,,,,,,2,100,1003,1218,2266,13501,,,
13502,7,112.231908,35.475295,董封乡,,140522,0356,140522205000,,,,,,,,,,2,100,1003,1218,2266,13502,,,
13503,7,112.281196,35.423049,驾岭乡,,140522,0356,140522206000,,,,,,,,,,2,100,1003,1218,2266,13503,,,
13504,7,113.276324,35.77566,崇文镇,,140524,0356,140524100000,,,,,,,,,,2,100,1003,1218,2267,13504,,,
13505,7,113.12633,35.798821,礼义镇,,140524,0356,140524101000,,,,,,,,,,2,100,1003,1218,2267,13505,,,
13506,7,113.155914,35.668631,附城镇,,140524,0356,140524102000,,,,,,,,,,2,100,1003,1218,2267,13506,,,
13507,7,113.0933,35.6197,西河底镇,,140524,0356,140524103000,,,,,,,,,,2,100,1003,1218,2267,13507,,,
13508,7,113.30664,35.839515,平城镇,,140524,0356,140524104000,,,,,,,,,,2,100,1003,1218,2267,13508,,,
13509,7,113.174213,35.855267,杨村镇,,140524,0356,140524105000,,,,,,,,,,2,100,1003,1218,2267,13509,,,
13510,7,113.297845,35.687146,潞城镇,,140524,0356,140524106000,,,,,,,,,,2,100,1003,1218,2267,13510,,,
13511,7,113.26856,35.549823,夺火乡,,140524,0356,140524204000,,,,,,,,,,2,100,1003,1218,2267,13511,,,
13512,7,113.44358,35.546812,马圪当乡,,140524,0356,140524206000,,,,,,,,,,2,100,1003,1218,2267,13512,,,
13513,7,113.50064,35.710671,古郊乡,,140524,0356,140524207000,,,,,,,,,,2,100,1003,1218,2267,13513,,,
13514,7,113.465998,35.795222,六泉乡,,140524,0356,140524209000,,,,,,,,,,2,100,1003,1218,2267,13514,,,
13515,7,113.231726,35.841614,秦家庄乡,,140524,0356,140524212000,,,,,,,,,,2,100,1003,1218,2267,13515,,,
13516,7,112.79635,35.463994,南村镇,,140525,0356,140525100000,,,,,,,,,,2,100,1003,1218,2268,13516,,,
13517,7,112.742123,35.646816,下村镇,,140525,0356,140525101000,,,,,,,,,,2,100,1003,1218,2268,13517,,,
13518,7,112.70841,35.562286,大东沟镇,,140525,0356,140525102000,,,,,,,,,,2,100,1003,1218,2268,13518,,,
13519,7,112.629258,35.475216,周村镇,,140525,0356,140525103000,,,,,,,,,,2,100,1003,1218,2268,13519,,,
13520,7,112.759502,35.376398,犁川镇,,140525,0356,140525104000,,,,,,,,,,2,100,1003,1218,2268,13520,,,
13521,7,112.846589,35.332483,晋庙铺镇,,140525,0356,140525105000,,,,,,,,,,2,100,1003,1218,2268,13521,,,
13522,7,112.922177,35.507091,金村镇,,140525,0356,140525106000,,,,,,,,,,2,100,1003,1218,2268,13522,,,
13523,7,112.957317,35.597533,高都镇,,140525,0356,140525107000,,,,,,,,,,2,100,1003,1218,2268,13523,,,
13524,7,112.895149,35.61893,巴公镇,,140525,0356,140525108000,,,,,,,,,,2,100,1003,1218,2268,13524,,,
13525,7,112.798404,35.664613,大阳镇,,140525,0356,140525109000,,,,,,,,,,2,100,1003,1218,2268,13525,,,
13526,7,112.774287,35.326173,山河镇,,140525,0356,140525110000,,,,,,,,,,2,100,1003,1218,2268,13526,,,
13527,7,112.80455,35.400603,大箕镇,,140525,0356,140525111000,,,,,,,,,,2,100,1003,1218,2268,13527,,,
13528,7,113.094376,35.438569,柳树口镇,,140525,0356,140525112000,,,,,,,,,,2,100,1003,1218,2268,13528,,,
13529,7,112.956629,35.638134,北义城镇,,140525,0356,140525113000,,,,,,,,,,2,100,1003,1218,2268,13529,,,
13530,7,112.685592,35.527051,川底乡,,140525,0356,140525200000,,,,,,,,,,2,100,1003,1218,2268,13530,,,
13531,7,112.681848,35.426811,李寨乡,,140525,0356,140525201000,,,,,,,,,,2,100,1003,1218,2268,13531,,,
13532,7,112.68908,35.376989,南岭乡,,140525,0356,140525202000,,,,,,,,,,2,100,1003,1218,2268,13532,,,
13533,7,112.922451,35.804862,北城街道,,140581,0356,140581001000,,,,,,,,,,2,100,1003,1218,2269,13533,,,
13534,7,112.928001,35.794894,东城街道,,140581,0356,140581002000,,,,,,,,,,2,100,1003,1218,2269,13534,,,
13535,7,112.926123,35.785152,南城街道,,140581,0356,140581003000,,,,,,,,,,2,100,1003,1218,2269,13535,,,
13536,7,112.970283,35.762719,米山镇,,140581,0356,140581101000,,,,,,,,,,2,100,1003,1218,2269,13536,,,
13537,7,112.971224,35.84754,三甲镇,,140581,0356,140581102000,,,,,,,,,,2,100,1003,1218,2269,13537,,,
13538,7,112.978003,35.878343,神农镇,,140581,0356,140581103000,,,,,,,,,,2,100,1003,1218,2269,13538,,,
13539,7,113.040895,35.848706,陈区镇,,140581,0356,140581104000,,,,,,,,,,2,100,1003,1218,2269,13539,,,
13540,7,113.079952,35.754277,北诗镇,,140581,0356,140581105000,,,,,,,,,,2,100,1003,1218,2269,13540,,,
13541,7,112.943946,35.715879,河西镇,,140581,0356,140581106000,,,,,,,,,,2,100,1003,1218,2269,13541,,,
13542,7,112.820615,35.728444,马村镇,,140581,0356,140581107000,,,,,,,,,,2,100,1003,1218,2269,13542,,,
13543,7,112.849385,35.792694,野川镇,,140581,0356,140581108000,,,,,,,,,,2,100,1003,1218,2269,13543,,,
13544,7,112.870481,35.863708,寺庄镇,,140581,0356,140581109000,,,,,,,,,,2,100,1003,1218,2269,13544,,,
13545,7,113.113257,35.840372,建宁乡,,140581,0356,140581201000,,,,,,,,,,2,100,1003,1218,2269,13545,,,
13546,7,113.09062,35.691775,石末乡,,140581,0356,140581202000,,,,,,,,,,2,100,1003,1218,2269,13546,,,
13547,7,112.816044,35.762842,原村乡,,140581,0356,140581203000,,,,,,,,,,2,100,1003,1218,2269,13547,,,
13548,7,112.896805,35.855664,永禄乡,,140581,0356,140581204000,,,,,,,,,,2,100,1003,1218,2269,13548,,,
13549,7,112.422996,39.326404,北城街道,,140602,0349,140602001000,,,,,,,,,,2,100,1003,1219,2270,13549,,,
13550,7,112.412994,39.308719,南城街道,,140602,0349,140602002000,,,,,,,,,,2,100,1003,1219,2270,13550,,,
13551,7,112.55541,39.367744,神头街道,,140602,0349,140602003000,,,,,,,,,,2,100,1003,1219,2270,13551,,,
13552,7,112.423601,39.319321,北旺庄街道,,140602,0349,140602004000,,,,,,,,,,2,100,1003,1219,2270,13552,,,
13553,7,112.577484,39.389509,神头镇,,140602,0349,140602100000,,,,,,,,,,2,100,1003,1219,2270,13553,,,
13554,7,112.113355,39.300104,利民镇,,140602,0349,140602101000,,,,,,,,,,2,100,1003,1219,2270,13554,,,
13555,7,112.395432,39.34163,下团堡乡,,140602,0349,140602200000,,,,,,,,,,2,100,1003,1219,2270,13555,,,
13556,7,112.49213,39.385338,小平易乡,,140602,0349,140602201000,,,,,,,,,,2,100,1003,1219,2270,13556,,,
13557,7,112.693092,39.306181,滋润乡,,140602,0349,140602202000,,,,,,,,,,2,100,1003,1219,2270,13557,,,
13558,7,112.627627,39.280421,福善庄乡,,140602,0349,140602203000,,,,,,,,,,2,100,1003,1219,2270,13558,,,
13559,7,112.69505,39.211359,南榆林乡,,140602,0349,140602204000,,,,,,,,,,2,100,1003,1219,2270,13559,,,
13560,7,112.541989,39.241791,贾庄乡,,140602,0349,140602205000,,,,,,,,,,2,100,1003,1219,2270,13560,,,
13561,7,112.498495,39.199585,沙塄河乡,,140602,0349,140602206000,,,,,,,,,,2,100,1003,1219,2270,13561,,,
13562,7,112.36237,39.208731,窑子头乡,,140602,0349,140602207000,,,,,,,,,,2,100,1003,1219,2270,13562,,,
13563,7,112.340495,39.289991,张蔡庄乡,,140602,0349,140602208000,,,,,,,,,,2,100,1003,1219,2270,13563,,,
13564,7,112.290547,39.520061,井坪镇,,140603,0349,140603100000,,,,,,,,,,2,100,1003,1219,2271,13564,,,
13565,7,112.184668,39.76085,凤凰城镇,,140603,0349,140603101000,,,,,,,,,,2,100,1003,1219,2271,13565,,,
13566,7,112.308369,39.473041,白堂乡,,140603,0349,140603200000,,,,,,,,,,2,100,1003,1219,2271,13566,,,
13567,7,112.464886,39.442222,陶村乡,,140603,0349,140603201000,,,,,,,,,,2,100,1003,1219,2271,13567,,,
13568,7,112.083556,39.50725,下水头乡,,140603,0349,140603202000,,,,,,,,,,2,100,1003,1219,2271,13568,,,
13569,7,112.109567,39.63549,双碾乡,,140603,0349,140603203000,,,,,,,,,,2,100,1003,1219,2271,13569,,,
13570,7,112.040028,39.732646,阻虎乡,,140603,0349,140603204000,,,,,,,,,,2,100,1003,1219,2271,13570,,,
13571,7,112.073298,39.803681,高石庄乡,,140603,0349,140603205000,,,,,,,,,,2,100,1003,1219,2271,13571,,,
13572,7,112.243078,39.663218,西水界乡,,140603,0349,140603206000,,,,,,,,,,2,100,1003,1219,2271,13572,,,
13573,7,112.5189,39.492039,下面高乡,,140603,0349,140603207000,,,,,,,,,,2,100,1003,1219,2271,13573,,,
13574,7,112.08986,39.464089,下木角乡,,140603,0349,140603208000,,,,,,,,,,2,100,1003,1219,2271,13574,,,
13575,7,112.35794,39.608091,向阳堡乡,,140603,0349,140603209000,,,,,,,,,,2,100,1003,1219,2271,13575,,,
13576,7,112.480257,39.54385,榆岭乡,,140603,0349,140603210000,,,,,,,,,,2,100,1003,1219,2271,13576,,,
13577,7,112.615468,39.672785,玉井镇,,140621,0349,140621100000,,,,,,,,,,2,100,1003,1219,2272,13577,,,
13578,7,112.825941,39.609694,北周庄镇,,140621,0349,140621101000,,,,,,,,,,2,100,1003,1219,2272,13578,,,
13579,7,112.936306,39.439934,古城镇,,140621,0349,140621102000,,,,,,,,,,2,100,1003,1219,2272,13579,,,
13580,7,112.817831,39.52341,岱岳镇,,140621,0349,140621103000,,,,,,,,,,2,100,1003,1219,2272,13580,,,
13581,7,112.49075,39.645692,吴马营乡,,140621,0349,140621200000,,,,,,,,,,2,100,1003,1219,2272,13581,,,
13582,7,112.729499,39.722983,马营乡,,140621,0349,140621201000,,,,,,,,,,2,100,1003,1219,2272,13582,,,
13583,7,112.664309,39.595011,下喇叭乡,,140621,0349,140621202000,,,,,,,,,,2,100,1003,1219,2272,13583,,,
13584,7,112.910742,39.576733,合盛堡乡,,140621,0349,140621203000,,,,,,,,,,2,100,1003,1219,2272,13584,,,
13585,7,112.81645,39.473709,安荣乡,,140621,0349,140621205000,,,,,,,,,,2,100,1003,1219,2272,13585,,,
13586,7,112.800742,39.406035,薛圐圙乡,,140621,0349,140621206000,,,,,,,,,,2,100,1003,1219,2272,13586,,,
13587,7,112.855986,39.309038,后所乡,,140621,0349,140621207000,,,,,,,,,,2,100,1003,1219,2272,13587,,,
13588,7,112.795726,39.262883,张家庄乡,,140621,0349,140621208000,,,,,,,,,,2,100,1003,1219,2272,13588,,,
13589,7,112.992497,39.36445,马营庄乡,,140621,0349,140621209000,,,,,,,,,,2,100,1003,1219,2272,13589,,,
13590,7,112.795078,39.395158,山阴农牧场,,140621,0349,140621400000,,,,,,,,,,2,100,1003,1219,2272,13590,,,
13591,7,112.8166,39.526227,东城,,140621,0349,140621401000,,,,,,,,,,2,100,1003,1219,2272,13591,,,
13592,7,112.8166,39.526227,西城,,140621,0349,140621402000,,,,,,,,,,2,100,1003,1219,2272,13592,,,
13593,7,113.180804,39.554211,金城镇,,140622,0349,140622100000,,,,,,,,,,2,100,1003,1219,2273,13593,,,
13594,7,113.256834,39.484596,南河种镇,,140622,0349,140622101000,,,,,,,,,,2,100,1003,1219,2273,13594,,,
13595,7,113.303124,39.52011,下社镇,,140622,0349,140622102000,,,,,,,,,,2,100,1003,1219,2273,13595,,,
13596,7,113.28303,39.574695,镇子梁乡,,140622,0349,140622200000,,,,,,,,,,2,100,1003,1219,2273,13596,,,
13597,7,113.217964,39.640754,义井乡,,140622,0349,140622201000,,,,,,,,,,2,100,1003,1219,2273,13597,,,
13598,7,113.117541,39.629179,藏寨乡,,140622,0349,140622202000,,,,,,,,,,2,100,1003,1219,2273,13598,,,
13599,7,113.07721,39.533541,大黄巍乡,,140622,0349,140622203000,,,,,,,,,,2,100,1003,1219,2273,13599,,,
13600,7,113.101271,39.441318,杏寨乡,,140622,0349,140622204000,,,,,,,,,,2,100,1003,1219,2273,13600,,,
13601,7,113.115161,39.401147,下马峪乡,,140622,0349,140622205000,,,,,,,,,,2,100,1003,1219,2273,13601,,,
13602,7,113.186471,39.418253,南泉乡,,140622,0349,140622206000,,,,,,,,,,2,100,1003,1219,2273,13602,,,
13603,7,113.369962,39.562587,大临河乡,,140622,0349,140622207000,,,,,,,,,,2,100,1003,1219,2273,13603,,,
13604,7,113.424881,39.406403,白马石乡,,140622,0349,140622208000,,,,,,,,,,2,100,1003,1219,2273,13604,,,
13605,7,112.474321,39.989456,新城镇,,140623,0349,140623100000,,,,,,,,,,2,100,1003,1219,2274,13605,,,
13606,7,112.351576,40.162558,右卫镇,,140623,0349,140623101000,,,,,,,,,,2,100,1003,1219,2274,13606,,,
13607,7,112.361509,39.953688,威远镇,,140623,0349,140623102000,,,,,,,,,,2,100,1003,1219,2274,13607,,,
13608,7,112.576387,39.777743,元堡子镇,,140623,0349,140623103000,,,,,,,,,,2,100,1003,1219,2274,13608,,,
13609,7,112.536153,40.051685,牛心堡乡,,140623,0349,140623200000,,,,,,,,,,2,100,1003,1219,2274,13609,,,
13610,7,112.49542,39.903501,白头里乡,,140623,0349,140623201000,,,,,,,,,,2,100,1003,1219,2274,13610,,,
13611,7,112.45694,39.796498,高家堡乡,,140623,0349,140623202000,,,,,,,,,,2,100,1003,1219,2274,13611,,,
13612,7,112.21648,39.993699,丁家窑乡,,140623,0349,140623203000,,,,,,,,,,2,100,1003,1219,2274,13612,,,
13613,7,112.32079,40.11033,杨千河乡,,140623,0349,140623204000,,,,,,,,,,2,100,1003,1219,2274,13613,,,
13614,7,112.46145,40.23729,李达窑乡,,140623,0349,140623205000,,,,,,,,,,2,100,1003,1219,2274,13614,,,
13615,7,112.457778,39.348671,山西朔州经济开发区街道,,140602,0349,140671400000,,,,,,,,,,2,100,1003,1219,2275,13615,,,
13616,7,113.094405,39.817305,云中镇,,140624,0349,140681100000,,,,,,,,,,2,100,1003,1219,2276,13616,,,
13617,7,112.863901,39.781156,吴家窑镇,,140624,0349,140681101000,,,,,,,,,,2,100,1003,1219,2276,13617,,,
13618,7,112.855632,39.662107,金沙滩镇,,140624,0349,140681102000,,,,,,,,,,2,100,1003,1219,2276,13618,,,
13619,7,113.173905,39.902361,毛家皂镇,,140624,0349,140681103000,,,,,,,,,,2,100,1003,1219,2276,13619,,,
13620,7,113.074857,39.812917,何家堡乡,,140624,0349,140681200000,,,,,,,,,,2,100,1003,1219,2276,13620,,,
13621,7,113.099958,39.827916,新家园乡,,140624,0349,140681201000,,,,,,,,,,2,100,1003,1219,2276,13621,,,
13622,7,113.114072,39.720666,亲和乡,,140624,0349,140681202000,,,,,,,,,,2,100,1003,1219,2276,13622,,,
13623,7,113.193519,39.804171,海北头乡,,140624,0349,140681203000,,,,,,,,,,2,100,1003,1219,2276,13623,,,
13624,7,113.301152,39.838952,马辛庄乡,,140624,0349,140681204000,,,,,,,,,,2,100,1003,1219,2276,13624,,,
13625,7,113.285442,39.742472,河头乡,,140624,0349,140681205000,,,,,,,,,,2,100,1003,1219,2276,13625,,,
13626,7,112.92967,39.671119,金沙滩农牧场,,140624,0349,140681500000,,,,,,,,,,2,100,1003,1219,2276,13626,,,
13627,7,112.94085,39.68212,金沙滩林场,,140624,0349,140681501000,,,,,,,,,,2,100,1003,1219,2276,13627,,,
13628,7,112.756091,37.694405,北关街道,,140702,0354,140702001000,,,,,,,,,,2,100,1003,1220,2277,13628,,,
13629,7,112.75253,37.694669,锦纶街道,,140702,0354,140702002000,,,,,,,,,,2,100,1003,1220,2277,13629,,,
13630,7,112.780463,37.687737,新华街道,,140702,0354,140702003000,,,,,,,,,,2,100,1003,1220,2277,13630,,,
13631,7,112.708241,37.697792,西南街道,,140702,0354,140702004000,,,,,,,,,,2,100,1003,1220,2277,13631,,,
13632,7,112.760458,37.594041,路西街道,,140702,0354,140702005000,,,,,,,,,,2,100,1003,1220,2277,13632,,,
13633,7,112.703565,37.677918,经纬街道,,140702,0354,140702006000,,,,,,,,,,2,100,1003,1220,2277,13633,,,
13634,7,112.737115,37.700767,安宁街道,,140702,0354,140702007000,,,,,,,,,,2,100,1003,1220,2277,13634,,,
13635,7,112.724009,37.682673,新建街道,,140702,0354,140702008000,,,,,,,,,,2,100,1003,1220,2277,13635,,,
13636,7,112.737531,37.689597,晋华街道,,140702,0354,140702009000,,,,,,,,,,2,100,1003,1220,2277,13636,,,
13637,7,112.718492,37.764733,乌金山镇,,140702,0354,140702100000,,,,,,,,,,2,100,1003,1220,2277,13637,,,
13638,7,112.677357,37.541488,东阳镇,,140702,0354,140702101000,,,,,,,,,,2,100,1003,1220,2277,13638,,,
13639,7,112.86854,37.814159,什贴镇,,140702,0354,140702102000,,,,,,,,,,2,100,1003,1220,2277,13639,,,
13640,7,112.883743,37.634455,长凝镇,,140702,0354,140702103000,,,,,,,,,,2,100,1003,1220,2277,13640,,,
13641,7,112.773236,37.573123,北田镇,,140702,0354,140702104000,,,,,,,,,,2,100,1003,1220,2277,13641,,,
13642,7,112.69687,37.591079,修文镇,,140702,0354,140702105000,,,,,,,,,,2,100,1003,1220,2277,13642,,,
13643,7,112.723318,37.683035,郭家堡乡,,140702,0354,140702200000,,,,,,,,,,2,100,1003,1220,2277,13643,,,
13644,7,112.660122,37.638745,张庆乡,,140702,0354,140702201000,,,,,,,,,,2,100,1003,1220,2277,13644,,,
13645,7,112.818404,37.618425,庄子乡,,140702,0354,140702202000,,,,,,,,,,2,100,1003,1220,2277,13645,,,
13646,7,112.90251,37.703574,东赵乡,,140702,0354,140702203000,,,,,,,,,,2,100,1003,1220,2277,13646,,,
13647,7,112.66393,37.73121,山西转型综合改革示范区晋中开发区,,140702,0354,140702401000,,,,,,,,,,2,100,1003,1220,2277,13647,,,
13648,7,112.708241,37.697792,榆次区使赵乡社会事务管理中心,,140702,0354,140702402000,,,,,,,,,,2,100,1003,1220,2277,13648,,,
13649,7,112.986322,37.077516,箕城镇,,140721,0354,140721100000,,,,,,,,,,2,100,1003,1220,2278,13649,,,
13650,7,112.975287,37.070788,云簇镇,,140721,0354,140721101000,,,,,,,,,,2,100,1003,1220,2278,13650,,,
13651,7,112.956898,36.93311,郝北镇,,140721,0354,140721102000,,,,,,,,,,2,100,1003,1220,2278,13651,,,
13652,7,112.9471,37.19986,社城镇,,140721,0354,140721103000,,,,,,,,,,2,100,1003,1220,2278,13652,,,
13653,7,112.784577,37.110654,河峪乡,,140721,0354,140721200000,,,,,,,,,,2,100,1003,1220,2278,13653,,,
13654,7,113.041227,37.197654,北寨乡,,140721,0354,140721201000,,,,,,,,,,2,100,1003,1220,2278,13654,,,
13655,7,112.943617,37.137735,西马乡,,140721,0354,140721202000,,,,,,,,,,2,100,1003,1220,2278,13655,,,
13656,7,113.095133,36.953353,岚峪乡,,140721,0354,140721203000,,,,,,,,,,2,100,1003,1220,2278,13656,,,
13657,7,113.099523,37.006798,讲堂乡,,140721,0354,140721204000,,,,,,,,,,2,100,1003,1220,2278,13657,,,
13658,7,112.975287,37.070788,城区,,140721,0354,140721400000,,,,,,,,,,2,100,1003,1220,2278,13658,,,
13659,7,113.373337,37.07664,辽阳镇,,140722,0354,140722100000,,,,,,,,,,2,100,1003,1220,2279,13659,,,
13660,7,113.466226,36.851857,桐峪镇,,140722,0354,140722101000,,,,,,,,,,2,100,1003,1220,2279,13660,,,
13661,7,113.519918,36.789841,麻田镇,,140722,0354,140722102000,,,,,,,,,,2,100,1003,1220,2279,13661,,,
13662,7,113.61209,36.98443,芹泉镇,,140722,0354,140722103000,,,,,,,,,,2,100,1003,1220,2279,13662,,,
13663,7,113.634719,37.081052,拐儿镇,,140722,0354,140722104000,,,,,,,,,,2,100,1003,1220,2279,13663,,,
13664,7,113.467099,37.211659,寒王乡,,140722,0354,140722200000,,,,,,,,,,2,100,1003,1220,2279,13664,,,
13665,7,113.305037,37.10711,石匣乡,,140722,0354,140722201000,,,,,,,,,,2,100,1003,1220,2279,13665,,,
13666,7,113.349239,36.991658,龙泉乡,,140722,0354,140722202000,,,,,,,,,,2,100,1003,1220,2279,13666,,,
13667,7,113.53795,36.981488,粟城乡,,140722,0354,140722203000,,,,,,,,,,2,100,1003,1220,2279,13667,,,
13668,7,113.754548,36.903378,羊角乡,,140722,0354,140722204000,,,,,,,,,,2,100,1003,1220,2279,13668,,,
13669,7,113.379372,37.082681,城区,,140722,0354,140722400000,,,,,,,,,,2,100,1003,1220,2279,13669,,,
13670,7,113.574729,37.331114,义兴镇,,140723,0354,140723100000,,,,,,,,,,2,100,1003,1220,2280,13670,,,
13671,7,113.61485,37.407881,李阳镇,,140723,0354,140723101000,,,,,,,,,,2,100,1003,1220,2280,13671,,,
13672,7,113.709926,37.198256,松烟镇,,140723,0354,140723102000,,,,,,,,,,2,100,1003,1220,2280,13672,,,
13673,7,113.869759,37.31669,青城镇,,140723,0354,140723103000,,,,,,,,,,2,100,1003,1220,2280,13673,,,
13674,7,113.17927,37.302869,横岭镇,,140723,0354,140723104000,,,,,,,,,,2,100,1003,1220,2280,13674,,,
13675,7,113.520753,37.264844,喂马乡,,140723,0354,140723200000,,,,,,,,,,2,100,1003,1220,2280,13675,,,
13676,7,113.655761,37.267709,平松乡,,140723,0354,140723201000,,,,,,,,,,2,100,1003,1220,2280,13676,,,
13677,7,113.715591,37.392623,牛川乡,,140723,0354,140723202000,,,,,,,,,,2,100,1003,1220,2280,13677,,,
13678,7,113.24228,37.5336,马坊乡,,140723,0354,140723203000,,,,,,,,,,2,100,1003,1220,2280,13678,,,
13679,7,113.216322,37.21587,阳光占乡,,140723,0354,140723204000,,,,,,,,,,2,100,1003,1220,2280,13679,,,
13680,7,113.570438,37.329664,城区社区,,140723,0354,140723400000,,,,,,,,,,2,100,1003,1220,2280,13680,,,
13681,7,113.705951,37.613789,乐平镇,,140724,0354,140724100000,,,,,,,,,,2,100,1003,1220,2281,13681,,,
13682,7,113.927609,37.462541,皋落镇,,140724,0354,140724101000,,,,,,,,,,2,100,1003,1220,2281,13682,,,
13683,7,113.94865,37.639189,冶头镇,,140724,0354,140724102000,,,,,,,,,,2,100,1003,1220,2281,13683,,,
13684,7,113.481872,37.641668,沾尚镇,,140724,0354,140724103000,,,,,,,,,,2,100,1003,1220,2281,13684,,,
13685,7,113.719424,37.571261,大寨镇,,140724,0354,140724104000,,,,,,,,,,2,100,1003,1220,2281,13685,,,
13686,7,113.709761,37.659441,李家庄乡,,140724,0354,140724200000,,,,,,,,,,2,100,1003,1220,2281,13686,,,
13687,7,113.84427,37.63443,界都乡,,140724,0354,140724201000,,,,,,,,,,2,100,1003,1220,2281,13687,,,
13688,7,113.699779,37.48858,三都乡,,140724,0354,140724202000,,,,,,,,,,2,100,1003,1220,2281,13688,,,
13689,7,113.805159,37.487251,赵壁乡,,140724,0354,140724203000,,,,,,,,,,2,100,1003,1220,2281,13689,,,
13690,7,114.030338,37.65245,孔氏乡,,140724,0354,140724204000,,,,,,,,,,2,100,1003,1220,2281,13690,,,
13691,7,113.878034,37.512939,闫庄乡,,140724,0354,140724205000,,,,,,,,,,2,100,1003,1220,2281,13691,,,
13692,7,113.50498,37.504881,西寨乡,,140724,0354,140724206000,,,,,,,,,,2,100,1003,1220,2281,13692,,,
13693,7,113.706875,37.61121,城区社区,,140724,0354,140724400000,,,,,,,,,,2,100,1003,1220,2281,13693,,,
13694,7,113.176893,37.888687,朝阳镇,,140725,0354,140725100000,,,,,,,,,,2,100,1003,1220,2282,13694,,,
13695,7,113.068763,37.910092,南燕竹镇,,140725,0354,140725101000,,,,,,,,,,2,100,1003,1220,2282,13695,,,
13696,7,113.118658,37.967944,宗艾镇,,140725,0354,140725102000,,,,,,,,,,2,100,1003,1220,2282,13696,,,
13697,7,112.91167,37.946052,平头镇,,140725,0354,140725103000,,,,,,,,,,2,100,1003,1220,2282,13697,,,
13698,7,113.25541,37.680417,松塔镇,,140725,0354,140725104000,,,,,,,,,,2,100,1003,1220,2282,13698,,,
13699,7,112.92361,37.70672,西洛镇,,140725,0354,140725105000,,,,,,,,,,2,100,1003,1220,2282,13699,,,
13700,7,113.281955,37.864089,尹灵芝镇,,140725,0354,140725106000,,,,,,,,,,2,100,1003,1220,2282,13700,,,
13701,7,113.064394,37.959619,平舒乡,,140725,0354,140725200000,,,,,,,,,,2,100,1003,1220,2282,13701,,,
13702,7,113.173641,38.013789,解愁乡,,140725,0354,140725201000,,,,,,,,,,2,100,1003,1220,2282,13702,,,
13703,7,113.201628,37.962537,温家庄乡,,140725,0354,140725202000,,,,,,,,,,2,100,1003,1220,2282,13703,,,
13704,7,113.206015,37.749277,景尚乡,,140725,0354,140725203000,,,,,,,,,,2,100,1003,1220,2282,13704,,,
13705,7,113.176434,37.895325,上湖乡,,140725,0354,140725204000,,,,,,,,,,2,100,1003,1220,2282,13705,,,
13706,7,113.122101,37.75546,羊头崖乡,,140725,0354,140725205000,,,,,,,,,,2,100,1003,1220,2282,13706,,,
13707,7,113.14759,37.827216,马首乡,,140725,0354,140725206000,,,,,,,,,,2,100,1003,1220,2282,13707,,,
13708,7,112.542269,37.421258,明星镇,,140726,0354,140726100000,,,,,,,,,,2,100,1003,1220,2283,13708,,,
13709,7,112.617399,37.482561,胡村镇,,140726,0354,140726101000,,,,,,,,,,2,100,1003,1220,2283,13709,,,
13710,7,112.790841,37.484579,范村镇,,140726,0354,140726102000,,,,,,,,,,2,100,1003,1220,2283,13710,,,
13711,7,112.573452,37.414995,侯城乡,,140726,0354,140726200000,,,,,,,,,,2,100,1003,1220,2283,13711,,,
13712,7,112.551357,37.421308,北汪乡,,140726,0354,140726201000,,,,,,,,,,2,100,1003,1220,2283,13712,,,
13713,7,112.546737,37.4604,水秀乡,,140726,0354,140726202000,,,,,,,,,,2,100,1003,1220,2283,13713,,,
13714,7,112.551357,37.421308,阳邑乡,,140726,0354,140726203000,,,,,,,,,,2,100,1003,1220,2283,13714,,,
13715,7,112.698629,37.471368,小白乡,,140726,0354,140726204000,,,,,,,,,,2,100,1003,1220,2283,13715,,,
13716,7,112.72066,37.529731,任村乡,,140726,0354,140726205000,,,,,,,,,,2,100,1003,1220,2283,13716,,,
13717,7,112.551357,37.421308,白塔区,,140726,0354,140726401000,,,,,,,,,,2,100,1003,1220,2283,13717,,,
13718,7,112.551357,37.421308,北城区,,140726,0354,140726402000,,,,,,,,,,2,100,1003,1220,2283,13718,,,
13719,7,112.551357,37.421308,南城区,,140726,0354,140726403000,,,,,,,,,,2,100,1003,1220,2283,13719,,,
13720,7,112.328387,37.36308,昭馀镇,,140727,0354,140727100000,,,,,,,,,,2,100,1003,1220,2284,13720,,,
13721,7,112.451401,37.387325,东观镇,,140727,0354,140727101000,,,,,,,,,,2,100,1003,1220,2284,13721,,,
13722,7,112.398351,37.316384,古县镇,,140727,0354,140727102000,,,,,,,,,,2,100,1003,1220,2284,13722,,,
13723,7,112.36063,37.415976,贾令镇,,140727,0354,140727103000,,,,,,,,,,2,100,1003,1220,2284,13723,,,
13724,7,112.279237,37.37072,城赵镇,,140727,0354,140727104000,,,,,,,,,,2,100,1003,1220,2284,13724,,,
13725,7,112.517802,37.171283,来远镇,,140727,0354,140727105000,,,,,,,,,,2,100,1003,1220,2284,13725,,,
13726,7,112.3779,37.364679,西六支乡,,140727,0354,140727200000,,,,,,,,,,2,100,1003,1220,2284,13726,,,
13727,7,112.466396,37.323545,峪口乡,,140727,0354,140727201000,,,,,,,,,,2,100,1003,1220,2284,13727,,,
13728,7,112.335297,37.358317,祁县经济开发区,,140727,0354,140727400000,,,,,,,,,,2,100,1003,1220,2284,13728,,,
13729,7,112.330878,37.370696,昌源城区,,140727,0354,140727401000,,,,,,,,,,2,100,1003,1220,2284,13729,,,
13730,7,112.335297,37.358317,丹枫城区,,140727,0354,140727402000,,,,,,,,,,2,100,1003,1220,2284,13730,,,
13731,7,112.335297,37.358317,麓台城区,,140727,0354,140727403000,,,,,,,,,,2,100,1003,1220,2284,13731,,,
13732,7,112.176273,37.189559,古城街道,,140728,0354,140728001000,,,,,,,,,,2,100,1003,1220,2285,13732,,,
13733,7,112.176273,37.189559,城东街道,,140728,0354,140728002000,,,,,,,,,,2,100,1003,1220,2285,13733,,,
13734,7,112.176273,37.189559,城西街道,,140728,0354,140728003000,,,,,,,,,,2,100,1003,1220,2285,13734,,,
13735,7,112.168074,37.203677,古陶镇,,140728,0354,140728100000,,,,,,,,,,2,100,1003,1220,2285,13735,,,
13736,7,112.190757,37.094233,段村镇,,140728,0354,140728101000,,,,,,,,,,2,100,1003,1220,2285,13736,,,
13737,7,112.286737,37.124704,东泉镇,,140728,0354,140728102000,,,,,,,,,,2,100,1003,1220,2285,13737,,,
13738,7,112.256123,37.280325,洪善镇,,140728,0354,140728103000,,,,,,,,,,2,100,1003,1220,2285,13738,,,
13739,7,112.059812,37.224894,宁固镇,,140728,0354,140728104000,,,,,,,,,,2,100,1003,1220,2285,13739,,,
13740,7,112.173981,37.229763,南政乡,,140728,0354,140728200000,,,,,,,,,,2,100,1003,1220,2285,13740,,,
13741,7,112.136289,37.209692,中都乡,,140728,0354,140728201000,,,,,,,,,,2,100,1003,1220,2285,13741,,,
13742,7,112.21709,37.159792,岳壁乡,,140728,0354,140728202000,,,,,,,,,,2,100,1003,1220,2285,13742,,,
13743,7,112.225711,37.101639,卜宜乡,,140728,0354,140728203000,,,,,,,,,,2,100,1003,1220,2285,13743,,,
13744,7,112.4112,37.013303,孟山乡,,140728,0354,140728204000,,,,,,,,,,2,100,1003,1220,2285,13744,,,
13745,7,112.261333,37.175385,朱坑乡,,140728,0354,140728205000,,,,,,,,,,2,100,1003,1220,2285,13745,,,
13746,7,112.289993,37.272757,襄垣乡,,140728,0354,140728206000,,,,,,,,,,2,100,1003,1220,2285,13746,,,
13747,7,112.08961,37.276539,杜家庄乡,,140728,0354,140728207000,,,,,,,,,,2,100,1003,1220,2285,13747,,,
13748,7,111.983376,37.236864,香乐乡,,140728,0354,140728208000,,,,,,,,,,2,100,1003,1220,2285,13748,,,
13749,7,111.790071,36.850397,翠峰镇,,140729,0354,140729100000,,,,,,,,,,2,100,1003,1220,2286,13749,,,
13750,7,111.874213,36.894785,静升镇,,140729,0354,140729101000,,,,,,,,,,2,100,1003,1220,2286,13750,,,
13751,7,111.778704,36.928039,两渡镇,,140729,0354,140729102000,,,,,,,,,,2,100,1003,1220,2286,13751,,,
13752,7,111.707781,36.81441,夏门镇,,140729,0354,140729103000,,,,,,,,,,2,100,1003,1220,2286,13752,,,
13753,7,111.678407,36.70684,南关镇,,140729,0354,140729104000,,,,,,,,,,2,100,1003,1220,2286,13753,,,
13754,7,111.570998,36.859047,段纯镇,,140729,0354,140729105000,,,,,,,,,,2,100,1003,1220,2286,13754,,,
13755,7,111.886164,36.872402,马和乡,,140729,0354,140729200000,,,,,,,,,,2,100,1003,1220,2286,13755,,,
13756,7,111.68857,36.92205,英武乡,,140729,0354,140729201000,,,,,,,,,,2,100,1003,1220,2286,13756,,,
13757,7,111.584259,36.749498,王禹乡,,140729,0354,140729202000,,,,,,,,,,2,100,1003,1220,2286,13757,,,
13758,7,111.599728,36.796621,坛镇乡,,140729,0354,140729203000,,,,,,,,,,2,100,1003,1220,2286,13758,,,
13759,7,111.480154,36.828194,梁家焉乡,,140729,0354,140729204000,,,,,,,,,,2,100,1003,1220,2286,13759,,,
13760,7,111.59848,36.933699,交口乡,,140729,0354,140729205000,,,,,,,,,,2,100,1003,1220,2286,13760,,,
13761,7,111.778685,36.84786,东城,,140729,0354,140729400000,,,,,,,,,,2,100,1003,1220,2286,13761,,,
13762,7,111.778685,36.84786,西城,,140729,0354,140729401000,,,,,,,,,,2,100,1003,1220,2286,13762,,,
13763,7,111.778685,36.84786,北城,,140729,0354,140729402000,,,,,,,,,,2,100,1003,1220,2286,13763,,,
13764,7,111.925348,37.031078,北关街道,,140781,0354,140781001000,,,,,,,,,,2,100,1003,1220,2287,13764,,,
13765,7,111.903863,37.023502,西关街道,,140781,0354,140781002000,,,,,,,,,,2,100,1003,1220,2287,13765,,,
13766,7,111.924911,37.016796,东南街道,,140781,0354,140781003000,,,,,,,,,,2,100,1003,1220,2287,13766,,,
13767,7,111.911515,37.021703,西南街道,,140781,0354,140781004000,,,,,,,,,,2,100,1003,1220,2287,13767,,,
13768,7,111.916712,37.026945,北坛街道,,140781,0354,140781005000,,,,,,,,,,2,100,1003,1220,2287,13768,,,
13769,7,111.994387,37.079,义安镇,,140781,0354,140781100000,,,,,,,,,,2,100,1003,1220,2287,13769,,,
13770,7,112.0727,37.130191,张兰镇,,140781,0354,140781101000,,,,,,,,,,2,100,1003,1220,2287,13770,,,
13771,7,112.033121,37.05725,连福镇,,140781,0354,140781102000,,,,,,,,,,2,100,1003,1220,2287,13771,,,
13772,7,112.020571,37.035141,洪山镇,,140781,0354,140781103000,,,,,,,,,,2,100,1003,1220,2287,13772,,,
13773,7,111.97446,36.975874,龙凤镇,,140781,0354,140781104000,,,,,,,,,,2,100,1003,1220,2287,13773,,,
13774,7,111.89827,37.00227,绵山镇,,140781,0354,140781105000,,,,,,,,,,2,100,1003,1220,2287,13774,,,
13775,7,111.84516,37.003563,义棠镇,,140781,0354,140781106000,,,,,,,,,,2,100,1003,1220,2287,13775,,,
13776,7,111.90312,37.029708,城关乡,,140781,0354,140781200000,,,,,,,,,,2,100,1003,1220,2287,13776,,,
13777,7,111.92347,37.047599,宋古乡,,140781,0354,140781201000,,,,,,,,,,2,100,1003,1220,2287,13777,,,
13778,7,111.97815,37.050285,三佳乡,,140781,0354,140781202000,,,,,,,,,,2,100,1003,1220,2287,13778,,,
13779,7,111.007021,35.0283,中城街道,,140802,0359,140802001000,,,,,,,,,,2,100,1003,1221,2288,13779,,,
13780,7,111.013471,35.020429,东城街道,,140802,0359,140802002000,,,,,,,,,,2,100,1003,1221,2288,13780,,,
13781,7,110.98557,35.0139,西城街道,,140802,0359,140802003000,,,,,,,,,,2,100,1003,1221,2288,13781,,,
13782,7,110.999303,35.009745,南城街道,,140802,0359,140802004000,,,,,,,,,,2,100,1003,1221,2288,13782,,,
13783,7,110.981697,35.03648,北城街道,,140802,0359,140802005000,,,,,,,,,,2,100,1003,1221,2288,13783,,,
13784,7,111.038111,35.067523,安邑街道,,140802,0359,140802006000,,,,,,,,,,2,100,1003,1221,2288,13784,,,
13785,7,110.953789,35.026359,大渠街道,,140802,0359,140802007000,,,,,,,,,,2,100,1003,1221,2288,13785,,,
13786,7,110.970554,35.078762,姚孟街道,,140802,0359,140802008000,,,,,,,,,,2,100,1003,1221,2288,13786,,,
13787,7,110.884696,34.907761,解州镇,,140802,0359,140802100000,,,,,,,,,,2,100,1003,1221,2288,13787,,,
13788,7,110.882124,34.991792,龙居镇,,140802,0359,140802101000,,,,,,,,,,2,100,1003,1221,2288,13788,,,
13789,7,110.935453,35.143641,北相镇,,140802,0359,140802102000,,,,,,,,,,2,100,1003,1221,2288,13789,,,
13790,7,110.878015,35.181539,泓芝驿镇,,140802,0359,140802103000,,,,,,,,,,2,100,1003,1221,2288,13790,,,
13791,7,110.984029,35.268491,三路里镇,,140802,0359,140802104000,,,,,,,,,,2,100,1003,1221,2288,13791,,,
13792,7,111.06751,35.130425,陶村镇,,140802,0359,140802105000,,,,,,,,,,2,100,1003,1221,2288,13792,,,
13793,7,111.137859,35.026198,东郭镇,,140802,0359,140802106000,,,,,,,,,,2,100,1003,1221,2288,13793,,,
13794,7,110.759491,34.893321,席张乡,,140802,0359,140802200000,,,,,,,,,,2,100,1003,1221,2288,13794,,,
13795,7,110.79591,34.99297,金井乡,,140802,0359,140802201000,,,,,,,,,,2,100,1003,1221,2288,13795,,,
13796,7,111.041325,35.198936,王范乡,,140802,0359,140802202000,,,,,,,,,,2,100,1003,1221,2288,13796,,,
13797,7,110.998364,35.179605,冯村乡,,140802,0359,140802203000,,,,,,,,,,2,100,1003,1221,2288,13797,,,
13798,7,110.959695,35.237874,上郭乡,,140802,0359,140802204000,,,,,,,,,,2,100,1003,1221,2288,13798,,,
13799,7,111.04393,35.277617,上王乡,,140802,0359,140802205000,,,,,,,,,,2,100,1003,1221,2288,13799,,,
13800,7,111.023102,35.048778,运城经济技术开发区,,140802,0359,140802404000,,,,,,,,,,2,100,1003,1221,2288,13800,,,
13801,7,110.769601,35.137174,猗氏镇,,140821,0359,140821100000,,,,,,,,,,2,100,1003,1221,2289,13801,,,
13802,7,110.685693,35.090437,嵋阳镇,,140821,0359,140821101000,,,,,,,,,,2,100,1003,1221,2289,13802,,,
13803,7,110.554522,35.095681,临晋镇,,140821,0359,140821102000,,,,,,,,,,2,100,1003,1221,2289,13803,,,
13804,7,110.535213,34.996469,七级镇,,140821,0359,140821103000,,,,,,,,,,2,100,1003,1221,2289,13804,,,
13805,7,110.413964,35.05558,东张镇,,140821,0359,140821104000,,,,,,,,,,2,100,1003,1221,2289,13805,,,
13806,7,110.518114,35.239701,孙吉镇,,140821,0359,140821105000,,,,,,,,,,2,100,1003,1221,2289,13806,,,
13807,7,110.83721,35.227615,三管镇,,140821,0359,140821106000,,,,,,,,,,2,100,1003,1221,2289,13807,,,
13808,7,110.795188,35.098612,牛杜镇,,140821,0359,140821107000,,,,,,,,,,2,100,1003,1221,2289,13808,,,
13809,7,110.568884,35.166665,耽子镇,,140821,0359,140821108000,,,,,,,,,,2,100,1003,1221,2289,13809,,,
13810,7,110.867649,35.089514,楚侯乡,,140821,0359,140821200000,,,,,,,,,,2,100,1003,1221,2289,13810,,,
13811,7,110.649494,35.035877,庙上乡,,140821,0359,140821201000,,,,,,,,,,2,100,1003,1221,2289,13811,,,
13812,7,110.441722,35.130273,角杯乡,,140821,0359,140821202000,,,,,,,,,,2,100,1003,1221,2289,13812,,,
13813,7,110.58684,35.207435,北辛乡,,140821,0359,140821203000,,,,,,,,,,2,100,1003,1221,2289,13813,,,
13814,7,110.737651,35.209187,北景乡,,140821,0359,140821204000,,,,,,,,,,2,100,1003,1221,2289,13814,,,
13815,7,110.763326,35.140481,临猗县城市社区,,140821,0359,140821402000,,,,,,,,,,2,100,1003,1221,2289,13815,,,
13816,7,110.836166,35.422772,解店镇,,140822,0359,140822100000,,,,,,,,,,2,100,1003,1221,2290,13816,,,
13817,7,110.709532,35.461504,通化镇,,140822,0359,140822101000,,,,,,,,,,2,100,1003,1221,2290,13817,,,
13818,7,110.913383,35.309536,汉薛镇,,140822,0359,140822102000,,,,,,,,,,2,100,1003,1221,2290,13818,,,
13819,7,110.552426,35.355511,荣河镇,,140822,0359,140822103000,,,,,,,,,,2,100,1003,1221,2290,13819,,,
13820,7,110.808611,35.361542,万泉乡,,140822,0359,140822200000,,,,,,,,,,2,100,1003,1221,2290,13820,,,
13821,7,110.811069,35.479262,里望乡,,140822,0359,140822201000,,,,,,,,,,2,100,1003,1221,2290,13821,,,
13822,7,110.898782,35.429301,西村乡,,140822,0359,140822202000,,,,,,,,,,2,100,1003,1221,2290,13822,,,
13823,7,110.720973,35.422595,南张乡,,140822,0359,140822203000,,,,,,,,,,2,100,1003,1221,2290,13823,,,
13824,7,110.741801,35.361171,高村乡,,140822,0359,140822204000,,,,,,,,,,2,100,1003,1221,2290,13824,,,
13825,7,110.875918,35.335561,皇甫乡,,140822,0359,140822205000,,,,,,,,,,2,100,1003,1221,2290,13825,,,
13826,7,110.659239,35.345235,贾村乡,,140822,0359,140822206000,,,,,,,,,,2,100,1003,1221,2290,13826,,,
13827,7,110.613356,35.267751,王显乡,,140822,0359,140822207000,,,,,,,,,,2,100,1003,1221,2290,13827,,,
13828,7,110.597048,35.398689,光华乡,,140822,0359,140822208000,,,,,,,,,,2,100,1003,1221,2290,13828,,,
13829,7,110.645402,35.436211,裴庄乡,,140822,0359,140822209000,,,,,,,,,,2,100,1003,1221,2290,13829,,,
13830,7,111.22114,35.351421,桐城镇,,140823,0359,140823100000,,,,,,,,,,2,100,1003,1221,2291,13830,,,
13831,7,111.171398,35.304638,郭家庄镇,,140823,0359,140823101000,,,,,,,,,,2,100,1003,1221,2291,13831,,,
13832,7,111.158315,35.444358,畖底镇,,140823,0359,140823102000,,,,,,,,,,2,100,1003,1221,2291,13832,,,
13833,7,111.210346,35.47026,薛店镇,,140823,0359,140823103000,,,,,,,,,,2,100,1003,1221,2291,13833,,,
13834,7,111.316884,35.427205,东镇镇,,140823,0359,140823104000,,,,,,,,,,2,100,1003,1221,2291,13834,,,
13835,7,111.331871,35.507638,礼元镇,,140823,0359,140823105000,,,,,,,,,,2,100,1003,1221,2291,13835,,,
13836,7,111.359106,35.33648,河底镇,,140823,0359,140823106000,,,,,,,,,,2,100,1003,1221,2291,13836,,,
13837,7,111.15141,35.36886,神柏乡,,140823,0359,140823200000,,,,,,,,,,2,100,1003,1221,2291,13837,,,
13838,7,111.102794,35.417384,阳隅乡,,140823,0359,140823201000,,,,,,,,,,2,100,1003,1221,2291,13838,,,
13839,7,111.355987,35.418404,侯村乡,,140823,0359,140823202000,,,,,,,,,,2,100,1003,1221,2291,13839,,,
13840,7,111.326555,35.295007,裴社乡,,140823,0359,140823203000,,,,,,,,,,2,100,1003,1221,2291,13840,,,
13841,7,111.402333,35.357273,后宫乡,,140823,0359,140823204000,,,,,,,,,,2,100,1003,1221,2291,13841,,,
13842,7,111.55278,35.258409,石门乡,,140823,0359,140823205000,,,,,,,,,,2,100,1003,1221,2291,13842,,,
13843,7,111.22468,35.352191,闻喜县社区,,140823,0359,140823400000,,,,,,,,,,2,100,1003,1221,2291,13843,,,
13844,7,110.984006,35.603616,稷峰镇,,140824,0359,140824100000,,,,,,,,,,2,100,1003,1221,2292,13844,,,
13845,7,111.012958,35.655551,西社镇,,140824,0359,140824101000,,,,,,,,,,2,100,1003,1221,2292,13845,,,
13846,7,110.883411,35.635759,化峪镇,,140824,0359,140824102000,,,,,,,,,,2,100,1003,1221,2292,13846,,,
13847,7,110.911244,35.502049,翟店镇,,140824,0359,140824103000,,,,,,,,,,2,100,1003,1221,2292,13847,,,
13848,7,111.023368,35.521509,清河镇,,140824,0359,140824104000,,,,,,,,,,2,100,1003,1221,2292,13848,,,
13849,7,110.884087,35.536274,蔡村乡,,140824,0359,140824200000,,,,,,,,,,2,100,1003,1221,2292,13849,,,
13850,7,110.97398,35.502312,太阳乡,,140824,0359,140824201000,,,,,,,,,,2,100,1003,1221,2292,13850,,,
13851,7,110.9792,35.60647,稷山县社区,,140824,0359,140824400000,,,,,,,,,,2,100,1003,1221,2292,13851,,,
13852,7,111.227389,35.61332,龙兴镇,,140825,0359,140825100000,,,,,,,,,,2,100,1003,1221,2293,13852,,,
13853,7,111.166226,35.676764,三泉镇,,140825,0359,140825101000,,,,,,,,,,2,100,1003,1221,2293,13853,,,
13854,7,111.162437,35.719424,泽掌镇,,140825,0359,140825102000,,,,,,,,,,2,100,1003,1221,2293,13854,,,
13855,7,111.112176,35.704077,北张镇,,140825,0359,140825103000,,,,,,,,,,2,100,1003,1221,2293,13855,,,
13856,7,111.143606,35.615577,古交镇,,140825,0359,140825104000,,,,,,,,,,2,100,1003,1221,2293,13856,,,
13857,7,111.131717,35.539302,万安镇,,140825,0359,140825105000,,,,,,,,,,2,100,1003,1221,2293,13857,,,
13858,7,111.121047,35.505826,阳王镇,,140825,0359,140825106000,,,,,,,,,,2,100,1003,1221,2293,13858,,,
13859,7,111.110954,35.661296,泉掌镇,,140825,0359,140825107000,,,,,,,,,,2,100,1003,1221,2293,13859,,,
13860,7,111.230547,35.575064,横桥乡,,140825,0359,140825200000,,,,,,,,,,2,100,1003,1221,2293,13860,,,
13861,7,111.224778,35.616288,新绛县社区,,140825,0359,140825400000,,,,,,,,,,2,100,1003,1221,2293,13861,,,
13862,7,111.224778,35.616288,新绛县经济技术开发区,,140825,0359,140825498000,,,,,,,,,,2,100,1003,1221,2293,13862,,,
13863,7,111.581079,35.491561,古绛镇,,140826,0359,140826100000,,,,,,,,,,2,100,1003,1221,2294,13863,,,
13864,7,111.45334,35.47564,横水镇,,140826,0359,140826101000,,,,,,,,,,2,100,1003,1221,2294,13864,,,
13865,7,111.63346,35.4717,陈村镇,,140826,0359,140826102000,,,,,,,,,,2,100,1003,1221,2294,13865,,,
13866,7,111.652103,35.504543,卫庄镇,,140826,0359,140826103000,,,,,,,,,,2,100,1003,1221,2294,13866,,,
13867,7,111.697584,35.527286,么里镇,,140826,0359,140826104000,,,,,,,,,,2,100,1003,1221,2294,13867,,,
13868,7,111.611964,35.598373,南樊镇,,140826,0359,140826105000,,,,,,,,,,2,100,1003,1221,2294,13868,,,
13869,7,111.68758,35.583389,安峪镇,,140826,0359,140826106000,,,,,,,,,,2,100,1003,1221,2294,13869,,,
13870,7,111.668164,35.634792,大交镇,,140826,0359,140826107000,,,,,,,,,,2,100,1003,1221,2294,13870,,,
13871,7,111.416276,35.509988,郝庄乡,,140826,0359,140826200000,,,,,,,,,,2,100,1003,1221,2294,13871,,,
13872,7,111.5203,35.438421,冷口乡,,140826,0359,140826201000,,,,,,,,,,2,100,1003,1221,2294,13872,,,
13873,7,111.662207,35.508801,山西绛县经济开发区,,140826,0359,140826402000,,,,,,,,,,2,100,1003,1221,2294,13873,,,
13874,7,111.672516,35.300768,新城镇,,140827,0359,140827100000,,,,,,,,,,2,100,1003,1221,2295,13874,,,
13875,7,111.885338,35.266056,历山镇,,140827,0359,140827101000,,,,,,,,,,2,100,1003,1221,2295,13875,,,
13876,7,111.884232,35.118688,古城镇,,140827,0359,140827102000,,,,,,,,,,2,100,1003,1221,2295,13876,,,
13877,7,111.796965,35.160816,王茅镇,,140827,0359,140827103000,,,,,,,,,,2,100,1003,1221,2295,13877,,,
13878,7,111.60984,35.204489,毛家湾镇,,140827,0359,140827104000,,,,,,,,,,2,100,1003,1221,2295,13878,,,
13879,7,112.011369,35.161611,蒲掌乡,,140827,0359,140827200000,,,,,,,,,,2,100,1003,1221,2295,13879,,,
13880,7,111.953585,35.162907,英言乡,,140827,0359,140827201000,,,,,,,,,,2,100,1003,1221,2295,13880,,,
13881,7,111.77837,35.09893,解峪乡,,140827,0359,140827202000,,,,,,,,,,2,100,1003,1221,2295,13881,,,
13882,7,111.81967,35.18581,华峰乡,,140827,0359,140827203000,,,,,,,,,,2,100,1003,1221,2295,13882,,,
13883,7,111.748839,35.209064,长直乡,,140827,0359,140827204000,,,,,,,,,,2,100,1003,1221,2295,13883,,,
13884,7,111.686698,35.260691,皋落乡,,140827,0359,140827205000,,,,,,,,,,2,100,1003,1221,2295,13884,,,
13885,7,111.222149,35.138828,瑶峰镇,,140828,0359,140828100000,,,,,,,,,,2,100,1003,1221,2296,13885,,,
13886,7,111.181734,35.073156,庙前镇,,140828,0359,140828101000,,,,,,,,,,2,100,1003,1221,2296,13886,,,
13887,7,111.13239,35.110526,裴介镇,,140828,0359,140828102000,,,,,,,,,,2,100,1003,1221,2296,13887,,,
13888,7,111.117765,35.239449,水头镇,,140828,0359,140828103000,,,,,,,,,,2,100,1003,1221,2296,13888,,,
13889,7,111.294147,35.267106,埝掌镇,,140828,0359,140828104000,,,,,,,,,,2,100,1003,1221,2296,13889,,,
13890,7,111.406806,35.085388,泗交镇,,140828,0359,140828105000,,,,,,,,,,2,100,1003,1221,2296,13890,,,
13891,7,111.231911,35.191243,尉郭乡,,140828,0359,140828200000,,,,,,,,,,2,100,1003,1221,2296,13891,,,
13892,7,111.163718,35.179883,禹王乡,,140828,0359,140828201000,,,,,,,,,,2,100,1003,1221,2296,13892,,,
13893,7,111.239789,35.253574,胡张乡,,140828,0359,140828202000,,,,,,,,,,2,100,1003,1221,2296,13893,,,
13894,7,111.295614,35.226703,南大里乡,,140828,0359,140828203000,,,,,,,,,,2,100,1003,1221,2296,13894,,,
13895,7,111.589875,34.968827,祁家河乡,,140828,0359,140828204000,,,,,,,,,,2,100,1003,1221,2296,13895,,,
13896,7,111.220376,34.838112,圣人涧镇,,140829,0359,140829100000,,,,,,,,,,2,100,1003,1221,2297,13896,,,
13897,7,111.013385,34.778491,常乐镇,,140829,0359,140829101000,,,,,,,,,,2,100,1003,1221,2297,13897,,,
13898,7,111.194659,34.975347,张店镇,,140829,0359,140829102000,,,,,,,,,,2,100,1003,1221,2297,13898,,,
13899,7,111.07851,34.829852,张村镇,,140829,0359,140829103000,,,,,,,,,,2,100,1003,1221,2297,13899,,,
13900,7,111.52713,34.89982,曹川镇,,140829,0359,140829104000,,,,,,,,,,2,100,1003,1221,2297,13900,,,
13901,7,111.194133,34.82926,三门镇,,140829,0359,140829105000,,,,,,,,,,2,100,1003,1221,2297,13901,,,
13902,7,110.948121,34.779699,洪池乡,,140829,0359,140829200000,,,,,,,,,,2,100,1003,1221,2297,13902,,,
13903,7,111.107297,34.874958,杜马乡,,140829,0359,140829201000,,,,,,,,,,2,100,1003,1221,2297,13903,,,
13904,7,111.173346,34.890098,部官乡,,140829,0359,140829202000,,,,,,,,,,2,100,1003,1221,2297,13904,,,
13905,7,111.427585,34.872378,坡底乡,,140829,0359,140829203000,,,,,,,,,,2,100,1003,1221,2297,13905,,,
13906,7,110.684466,34.701664,古魏镇,,140830,0359,140830100000,,,,,,,,,,2,100,1003,1221,2298,13906,,,
13907,7,110.312588,34.629201,风陵渡镇,,140830,0359,140830101000,,,,,,,,,,2,100,1003,1221,2298,13907,,,
13908,7,110.867721,34.75039,陌南镇,,140830,0359,140830102000,,,,,,,,,,2,100,1003,1221,2298,13908,,,
13909,7,110.78778,34.742317,西陌镇,,140830,0359,140830103000,,,,,,,,,,2,100,1003,1221,2298,13909,,,
13910,7,110.505255,34.623328,永乐镇,,140830,0359,140830104000,,,,,,,,,,2,100,1003,1221,2298,13910,,,
13911,7,110.55658,34.686541,大王镇,,140830,0359,140830105000,,,,,,,,,,2,100,1003,1221,2298,13911,,,
13912,7,110.431423,34.666974,阳城镇,,140830,0359,140830106000,,,,,,,,,,2,100,1003,1221,2298,13912,,,
13913,7,110.799781,34.716377,东垆乡,,140830,0359,140830200000,,,,,,,,,,2,100,1003,1221,2298,13913,,,
13914,7,110.722781,34.699643,南卫乡,,140830,0359,140830201000,,,,,,,,,,2,100,1003,1221,2298,13914,,,
13915,7,110.628714,34.691781,学张乡,,140830,0359,140830202000,,,,,,,,,,2,100,1003,1221,2298,13915,,,
13916,7,110.694369,34.69358,芮城县城镇社区,,140830,0359,140830401000,,,,,,,,,,2,100,1003,1221,2298,13916,,,
13917,7,110.315019,34.640933,山西风陵渡经济开发区,,140830,0359,140830402000,,,,,,,,,,2,100,1003,1221,2298,13917,,,
13918,7,110.444894,34.867397,城西街道,,140881,0359,140881001000,,,,,,,,,,2,100,1003,1221,2299,13918,,,
13919,7,110.444725,34.867387,城北街道,,140881,0359,140881002000,,,,,,,,,,2,100,1003,1221,2299,13919,,,
13920,7,110.460161,34.854377,城东街道,,140881,0359,140881003000,,,,,,,,,,2,100,1003,1221,2299,13920,,,
13921,7,110.629508,34.862821,虞乡镇,,140881,0359,140881100000,,,,,,,,,,2,100,1003,1221,2299,13921,,,
13922,7,110.727766,34.999565,卿头镇,,140881,0359,140881101000,,,,,,,,,,2,100,1003,1221,2299,13922,,,
13923,7,110.556082,34.947924,开张镇,,140881,0359,140881102000,,,,,,,,,,2,100,1003,1221,2299,13923,,,
13924,7,110.423166,34.946262,栲栳镇,,140881,0359,140881103000,,,,,,,,,,2,100,1003,1221,2299,13924,,,
13925,7,110.329116,34.834253,蒲州镇,,140881,0359,140881104000,,,,,,,,,,2,100,1003,1221,2299,13925,,,
13926,7,110.307989,34.768726,韩阳镇,,140881,0359,140881105000,,,,,,,,,,2,100,1003,1221,2299,13926,,,
13927,7,110.386622,34.99372,张营镇,,140881,0359,140881106000,,,,,,,,,,2,100,1003,1221,2299,13927,,,
13928,7,110.518411,34.902505,伍姓湖农场,,140881,0359,140881400000,,,,,,,,,,2,100,1003,1221,2299,13928,,,
13929,7,110.618774,34.901002,虞乡农场,,140881,0359,140881401000,,,,,,,,,,2,100,1003,1221,2299,13929,,,
13930,7,110.728085,34.92445,董村农场,,140881,0359,140881402000,,,,,,,,,,2,100,1003,1221,2299,13930,,,
13931,7,110.713365,35.5902,城区街道,,140882,0359,140882001000,,,,,,,,,,2,100,1003,1221,2300,13931,,,
13932,7,110.66926,35.631651,清涧街道,,140882,0359,140882002000,,,,,,,,,,2,100,1003,1221,2300,13932,,,
13933,7,110.710711,35.673907,樊村镇,,140882,0359,140882100000,,,,,,,,,,2,100,1003,1221,2300,13933,,,
13934,7,110.749947,35.670739,僧楼镇,,140882,0359,140882101000,,,,,,,,,,2,100,1003,1221,2300,13934,,,
13935,7,110.69937,35.510367,小梁乡,,140882,0359,140882200000,,,,,,,,,,2,100,1003,1221,2300,13935,,,
13936,7,110.781566,35.536561,柴家乡,,140882,0359,140882201000,,,,,,,,,,2,100,1003,1221,2300,13936,,,
13937,7,110.774565,35.619198,赵家庄乡,,140882,0359,140882202000,,,,,,,,,,2,100,1003,1221,2300,13937,,,
13938,7,110.63565,35.74103,下化乡,,140882,0359,140882203000,,,,,,,,,,2,100,1003,1221,2300,13938,,,
13939,7,110.669676,35.580149,阳村乡,,140882,0359,140882204000,,,,,,,,,,2,100,1003,1221,2300,13939,,,
13940,7,110.684742,35.653758,山西铝厂,,140882,0359,140882450000,,,,,,,,,,2,100,1003,1221,2300,13940,,,
13941,7,112.747631,38.40147,秀容街道,,140902,0350,140902001000,,,,,,,,,,2,100,1003,1222,2301,13941,,,
13942,7,112.712696,38.417739,长征街街道,,140902,0350,140902002000,,,,,,,,,,2,100,1003,1222,2301,13942,,,
13943,7,112.731008,38.408391,新建路街道,,140902,0350,140902003000,,,,,,,,,,2,100,1003,1222,2301,13943,,,
13944,7,112.749837,38.491986,播明镇,,140902,0350,140902100000,,,,,,,,,,2,100,1003,1222,2301,13944,,,
13945,7,112.60771,38.541592,奇村镇,,140902,0350,140902101000,,,,,,,,,,2,100,1003,1222,2301,13945,,,
13946,7,112.479234,38.376282,三交镇,,140902,0350,140902102000,,,,,,,,,,2,100,1003,1222,2301,13946,,,
13947,7,112.566914,38.303568,庄磨镇,,140902,0350,140902103000,,,,,,,,,,2,100,1003,1222,2301,13947,,,
13948,7,112.71826,38.309632,豆罗镇,,140902,0350,140902104000,,,,,,,,,,2,100,1003,1222,2301,13948,,,
13949,7,112.872901,38.385309,董村镇,,140902,0350,140902105000,,,,,,,,,,2,100,1003,1222,2301,13949,,,
13950,7,112.84381,38.520511,曹张乡,,140902,0350,140902200000,,,,,,,,,,2,100,1003,1222,2301,13950,,,
13951,7,112.741993,38.56669,高城乡,,140902,0350,140902201000,,,,,,,,,,2,100,1003,1222,2301,13951,,,
13952,7,112.704402,38.513223,秦城乡,,140902,0350,140902202000,,,,,,,,,,2,100,1003,1222,2301,13952,,,
13953,7,112.681182,38.438371,解原乡,,140902,0350,140902203000,,,,,,,,,,2,100,1003,1222,2301,13953,,,
13954,7,112.58857,38.45631,合索乡,,140902,0350,140902204000,,,,,,,,,,2,100,1003,1222,2301,13954,,,
13955,7,112.464771,38.49589,阳坡乡,,140902,0350,140902205000,,,,,,,,,,2,100,1003,1222,2301,13955,,,
13956,7,112.716609,38.362039,兰村乡,,140902,0350,140902206000,,,,,,,,,,2,100,1003,1222,2301,13956,,,
13957,7,112.809691,38.375639,紫岩乡,,140902,0350,140902207000,,,,,,,,,,2,100,1003,1222,2301,13957,,,
13958,7,112.786042,38.35434,西张乡,,140902,0350,140902208000,,,,,,,,,,2,100,1003,1222,2301,13958,,,
13959,7,112.798184,38.439875,东楼乡,,140902,0350,140902209000,,,,,,,,,,2,100,1003,1222,2301,13959,,,
13960,7,112.83948,38.457111,北义井乡,,140902,0350,140902210000,,,,,,,,,,2,100,1003,1222,2301,13960,,,
13961,7,112.971137,38.486254,晋昌镇,,140921,0350,140921100000,,,,,,,,,,2,100,1003,1222,2302,13961,,,
13962,7,113.104931,38.59224,河边镇,,140921,0350,140921101000,,,,,,,,,,2,100,1003,1222,2302,13962,,,
13963,7,113.026321,38.614651,宏道镇,,140921,0350,140921102000,,,,,,,,,,2,100,1003,1222,2302,13963,,,
13964,7,112.89924,38.469402,杨芳乡,,140921,0350,140921200000,,,,,,,,,,2,100,1003,1222,2302,13964,,,
13965,7,112.991204,38.430649,南王乡,,140921,0350,140921201000,,,,,,,,,,2,100,1003,1222,2302,13965,,,
13966,7,113.04202,38.53111,蒋村乡,,140921,0350,140921202000,,,,,,,,,,2,100,1003,1222,2302,13966,,,
13967,7,113.02116,38.532991,神山乡,,140921,0350,140921203000,,,,,,,,,,2,100,1003,1222,2302,13967,,,
13968,7,112.96749,38.584081,季庄乡,,140921,0350,140921204000,,,,,,,,,,2,100,1003,1222,2302,13968,,,
13969,7,112.875199,38.558904,受禄乡,,140921,0350,140921205000,,,,,,,,,,2,100,1003,1222,2302,13969,,,
13970,7,112.971137,38.486254,定襄县居民办事处,,140921,0350,140921400000,,,,,,,,,,2,100,1003,1222,2302,13970,,,
13971,7,113.250583,38.721533,台城镇,,140922,0350,140922100000,,,,,,,,,,2,100,1003,1222,2303,13971,,,
13972,7,113.575019,38.721989,耿镇镇,,140922,0350,140922102000,,,,,,,,,,2,100,1003,1222,2303,13972,,,
13973,7,113.372012,38.833434,豆村镇,,140922,0350,140922103000,,,,,,,,,,2,100,1003,1222,2303,13973,,,
13974,7,113.31085,38.59661,白家庄镇,,140922,0350,140922104000,,,,,,,,,,2,100,1003,1222,2303,13974,,,
13975,7,113.153421,38.642375,东冶镇,,140922,0350,140922105000,,,,,,,,,,2,100,1003,1222,2303,13975,,,
13976,7,113.262946,38.710066,沟南乡,,140922,0350,140922200000,,,,,,,,,,2,100,1003,1222,2303,13976,,,
13977,7,113.219213,38.783274,东雷乡,,140922,0350,140922201000,,,,,,,,,,2,100,1003,1222,2303,13977,,,
13978,7,113.502452,38.682698,高洪口乡,,140922,0350,140922202000,,,,,,,,,,2,100,1003,1222,2303,13978,,,
13979,7,113.698133,38.785977,门限石乡,,140922,0350,140922203000,,,,,,,,,,2,100,1003,1222,2303,13979,,,
13980,7,113.419742,38.562844,陈家庄乡,,140922,0350,140922204000,,,,,,,,,,2,100,1003,1222,2303,13980,,,
13981,7,113.131,38.620501,建安乡,,140922,0350,140922205000,,,,,,,,,,2,100,1003,1222,2303,13981,,,
13982,7,113.250939,38.582004,神西乡,,140922,0350,140922206000,,,,,,,,,,2,100,1003,1222,2303,13982,,,
13983,7,113.406478,38.801244,蒋坊乡,,140922,0350,140922207000,,,,,,,,,,2,100,1003,1222,2303,13983,,,
13984,7,113.514867,38.884889,灵境乡,,140922,0350,140922208000,,,,,,,,,,2,100,1003,1222,2303,13984,,,
13985,7,113.089193,38.725196,阳白乡,,140922,0350,140922209000,,,,,,,,,,2,100,1003,1222,2303,13985,,,
13986,7,113.370287,38.743783,茹村乡,,140922,0350,140922210000,,,,,,,,,,2,100,1003,1222,2303,13986,,,
13987,7,113.256114,38.722272,五台县居民办事处,,140922,0350,140922400000,,,,,,,,,,2,100,1003,1222,2303,13987,,,
13988,7,112.95622,39.05749,上馆镇,,140923,0350,140923100000,,,,,,,,,,2,100,1003,1222,2304,13988,,,
13989,7,112.882158,39.013668,阳明堡镇,,140923,0350,140923101000,,,,,,,,,,2,100,1003,1222,2304,13989,,,
13990,7,113.200971,39.134282,峨口镇,,140923,0350,140923102000,,,,,,,,,,2,100,1003,1222,2304,13990,,,
13991,7,113.133849,39.126677,聂营镇,,140923,0350,140923103000,,,,,,,,,,2,100,1003,1222,2304,13991,,,
13992,7,113.08706,39.132202,枣林镇,,140923,0350,140923104000,,,,,,,,,,2,100,1003,1222,2304,13992,,,
13993,7,113.178193,38.961257,滩上镇,,140923,0350,140923105000,,,,,,,,,,2,100,1003,1222,2304,13993,,,
13994,7,112.975898,39.029715,新高乡,,140923,0350,140923200000,,,,,,,,,,2,100,1003,1222,2304,13994,,,
13995,7,113.0488,39.056839,峪口乡,,140923,0350,140923201000,,,,,,,,,,2,100,1003,1222,2304,13995,,,
13996,7,113.02731,39.104561,上磨坊乡,,140923,0350,140923202000,,,,,,,,,,2,100,1003,1222,2304,13996,,,
13997,7,113.11133,39.198669,胡峪乡,,140923,0350,140923203000,,,,,,,,,,2,100,1003,1222,2304,13997,,,
13998,7,112.881906,39.083322,雁门关乡,,140923,0350,140923204000,,,,,,,,,,2,100,1003,1222,2304,13998,,,
13999,7,112.960282,39.066917,代县居民事务中心,,140923,0350,140923400000,,,,,,,,,,2,100,1003,1222,2304,13999,,,
14000,7,113.238918,39.188327,繁城镇,,140924,0350,140924100000,,,,,,,,,,2,100,1003,1222,2305,14000,,,
14001,7,113.567161,39.255524,砂河镇,,140924,0350,140924101000,,,,,,,,,,2,100,1003,1222,2305,14001,,,
14002,7,113.771225,39.29647,大营镇,,140924,0350,140924102000,,,,,,,,,,2,100,1003,1222,2305,14002,,,
14003,7,113.36462,39.21485,下茹越乡,,140924,0350,140924200000,,,,,,,,,,2,100,1003,1222,2305,14003,,,
14004,7,113.2758,39.170991,杏园乡,,140924,0350,140924201000,,,,,,,,,,2,100,1003,1222,2305,14004,,,
14005,7,113.41677,39.192249,光裕堡乡,,140924,0350,140924202000,,,,,,,,,,2,100,1003,1222,2305,14005,,,
14006,7,113.49007,39.238394,集义庄乡,,140924,0350,140924203000,,,,,,,,,,2,100,1003,1222,2305,14006,,,
14007,7,113.587648,39.223466,东山乡,,140924,0350,140924204000,,,,,,,,,,2,100,1003,1222,2305,14007,,,
14008,7,113.682629,39.293651,金山铺乡,,140924,0350,140924205000,,,,,,,,,,2,100,1003,1222,2305,14008,,,
14009,7,113.6754,39.363281,柏家庄乡,,140924,0350,140924206000,,,,,,,,,,2,100,1003,1222,2305,14009,,,
14010,7,113.87959,39.27435,横涧乡,,140924,0350,140924207000,,,,,,,,,,2,100,1003,1222,2305,14010,,,
14011,7,113.930603,39.118275,神堂堡乡,,140924,0350,140924208000,,,,,,,,,,2,100,1003,1222,2305,14011,,,
14012,7,113.34036,39.054895,岩头乡,,140924,0350,140924209000,,,,,,,,,,2,100,1003,1222,2305,14012,,,
