dataid,levelid,longitude,latitude,chinese_name,english_name,code1,code2,code3,code4,code5,alias1,alias2,alias3,alias4,alias5,area,population,continentid,countryid,provinceid,cityid,countyid,townid,villageid,buildingid,comments
37641,7,108.338104,22.838207,民生街道,,450102,0771,450102001000,,,,,,,,,,2,100,1019,1417,3972,37641,,,
37642,7,108.320158,22.822731,朝阳街道,,450102,0771,450102002000,,,,,,,,,,2,100,1019,1417,3972,37642,,,
37643,7,108.368871,22.854021,兴东街道,,450102,0771,450102003000,,,,,,,,,,2,100,1019,1417,3972,37643,,,
37644,7,108.418471,22.877257,三塘镇,,450102,0771,450102101000,,,,,,,,,,2,100,1019,1417,3972,37644,,,
37645,7,108.548954,22.939549,五塘镇,,450102,0771,450102102000,,,,,,,,,,2,100,1019,1417,3972,37645,,,
37646,7,108.368871,22.854021,昆仑镇,,450102,0771,450102104000,,,,,,,,,,2,100,1019,1417,3972,37646,,,
37647,7,108.352119,22.814255,新竹街道,,450103,0771,450103001000,,,,,,,,,,2,100,1019,1417,3973,37647,,,
37648,7,108.352393,22.79333,中山街道,,450103,0771,450103002000,,,,,,,,,,2,100,1019,1417,3973,37648,,,
37649,7,108.357966,22.833692,建政街道,,450103,0771,450103003000,,,,,,,,,,2,100,1019,1417,3973,37649,,,
37650,7,108.37302,22.82459,南湖街道,,450103,0771,450103004000,,,,,,,,,,2,100,1019,1417,3973,37650,,,
37651,7,108.338628,22.796419,津头街道,,450103,0771,450103005000,,,,,,,,,,2,100,1019,1417,3973,37651,,,
37652,7,108.643667,22.725924,刘圩镇,,450103,0771,450103100000,,,,,,,,,,2,100,1019,1417,3973,37652,,,
37653,7,108.794746,22.76661,南阳镇,,450103,0771,450103101000,,,,,,,,,,2,100,1019,1417,3973,37653,,,
37654,7,108.764251,22.852798,伶俐镇,,450103,0771,450103102000,,,,,,,,,,2,100,1019,1417,3973,37654,,,
37655,7,108.651389,22.828318,长塘镇,,450103,0771,450103103000,,,,,,,,,,2,100,1019,1417,3973,37655,,,
37656,7,108.44864,22.810838,仙葫经济开发区管理委员会,,450103,0771,450103400000,,,,,,,,,,2,100,1019,1417,3973,37656,,,
37657,7,108.365641,22.796502,青秀山管理委员会,,450103,0771,450103451000,,,,,,,,,,2,100,1019,1417,3973,37657,,,
37658,7,108.314803,22.79642,福建园街道,,450105,0771,450105001000,,,,,,,,,,2,100,1019,1417,3974,37658,,,
37659,7,108.277617,22.799986,江南街道,,450105,0771,450105002000,,,,,,,,,,2,100,1019,1417,3974,37659,,,
37660,7,108.247238,22.780873,沙井街道,,450105,0771,450105003000,,,,,,,,,,2,100,1019,1417,3974,37660,,,
37661,7,108.292058,22.777784,那洪街道,,450105,0771,450105004000,,,,,,,,,,2,100,1019,1417,3974,37661,,,
37662,7,108.305598,22.766988,金凯街道,,450105,0771,450105005000,,,,,,,,,,2,100,1019,1417,3974,37662,,,
37663,7,108.224283,22.64638,吴圩镇,,450105,0771,450105102000,,,,,,,,,,2,100,1019,1417,3974,37663,,,
37664,7,108.100099,22.544759,苏圩镇,,450105,0771,450105103000,,,,,,,,,,2,100,1019,1417,3974,37664,,,
37665,7,108.116441,22.443773,延安镇,,450105,0771,450105104000,,,,,,,,,,2,100,1019,1417,3974,37665,,,
37666,7,108.099375,22.774535,江西镇,,450105,0771,450105105000,,,,,,,,,,2,100,1019,1417,3974,37666,,,
37667,7,108.254322,22.770938,经济技术开发区,,450105,0771,450105450000,,,,,,,,,,2,100,1019,1417,3974,37667,,,
37668,7,108.233327,22.577779,明阳工业园区管委会,,450105,0771,450105451000,,,,,,,,,,2,100,1019,1417,3974,37668,,,
37669,7,108.301792,22.849172,衡阳街道,,450107,0771,450107001000,,,,,,,,,,2,100,1019,1417,3975,37669,,,
37670,7,108.31448,22.85768,北湖街道,,450107,0771,450107002000,,,,,,,,,,2,100,1019,1417,3975,37670,,,
37671,7,108.294209,22.831842,西乡塘街道,,450107,0771,450107003000,,,,,,,,,,2,100,1019,1417,3975,37671,,,
37672,7,108.296713,22.883025,安吉街道,,450107,0771,450107004000,,,,,,,,,,2,100,1019,1417,3975,37672,,,
37673,7,108.313011,22.819189,华强街道,,450107,0771,450107005000,,,,,,,,,,2,100,1019,1417,3975,37673,,,
37674,7,108.294145,22.811924,新阳街道,,450107,0771,450107006000,,,,,,,,,,2,100,1019,1417,3975,37674,,,
37675,7,108.252234,22.839339,上尧街道,,450107,0771,450107007000,,,,,,,,,,2,100,1019,1417,3975,37675,,,
37676,7,108.309332,22.878573,安宁街道,,450107,0771,450107008000,,,,,,,,,,2,100,1019,1417,3975,37676,,,
37677,7,108.187207,22.819582,石埠街道,,450107,0771,450107009000,,,,,,,,,,2,100,1019,1417,3975,37677,,,
37678,7,108.264849,22.868014,心圩街道,,450107,0771,450107010000,,,,,,,,,,2,100,1019,1417,3975,37678,,,
37679,7,108.049283,22.919592,金陵镇,,450107,0771,450107100000,,,,,,,,,,2,100,1019,1417,3975,37679,,,
37680,7,108.114631,22.995451,双定镇,,450107,0771,450107101000,,,,,,,,,,2,100,1019,1417,3975,37680,,,
37681,7,107.979936,22.922069,坛洛镇,,450107,0771,450107105000,,,,,,,,,,2,100,1019,1417,3975,37681,,,
37682,7,108.001823,22.996892,那龙矿务局,,450107,0771,450107450000,,,,,,,,,,2,100,1019,1417,3975,37682,,,
37683,7,108.267372,22.841755,高新技术开发区管委会,,450107,0771,450107454000,,,,,,,,,,2,100,1019,1417,3975,37683,,,
37684,7,108.31973,22.7577,大沙田街道,,450108,0771,450108001000,,,,,,,,,,2,100,1019,1417,3976,37684,,,
37685,7,108.334828,22.723236,玉洞街道,,450108,0771,450108002000,,,,,,,,,,2,100,1019,1417,3976,37685,,,
37686,7,108.416972,22.749297,良庆镇,,450108,0771,450108100000,,,,,,,,,,2,100,1019,1417,3976,37686,,,
37687,7,108.387872,22.62713,那马镇,,450108,0771,450108101000,,,,,,,,,,2,100,1019,1417,3976,37687,,,
37688,7,108.279564,22.450291,那陈镇,,450108,0771,450108102000,,,,,,,,,,2,100,1019,1417,3976,37688,,,
37689,7,108.383643,22.383007,大塘镇,,450108,0771,450108103000,,,,,,,,,,2,100,1019,1417,3976,37689,,,
37690,7,108.418485,22.303799,南晓镇,,450108,0771,450108104000,,,,,,,,,,2,100,1019,1417,3976,37690,,,
37691,7,108.332674,22.723765,良庆经济开发区管委会,,450108,0771,450108452000,,,,,,,,,,2,100,1019,1417,3976,37691,,,
37692,7,108.49468,22.748874,蒲庙镇,,450109,0771,450109100000,,,,,,,,,,2,100,1019,1417,3977,37692,,,
37693,7,108.632941,22.606593,那楼镇,,450109,0771,450109101000,,,,,,,,,,2,100,1019,1417,3977,37693,,,
37694,7,108.495882,22.620946,新江镇,,450109,0771,450109102000,,,,,,,,,,2,100,1019,1417,3977,37694,,,
37695,7,108.577058,22.466815,百济镇,,450109,0771,450109103000,,,,,,,,,,2,100,1019,1417,3977,37695,,,
37696,7,108.487369,22.75839,中和镇,,450109,0771,450109104000,,,,,,,,,,2,100,1019,1417,3977,37696,,,
37697,7,108.283657,23.164453,城厢镇,,450110,0771,450110100000,,,,,,,,,,2,100,1019,1417,3978,37697,,,
37698,7,108.439864,23.110504,太平镇,,450110,0771,450110102000,,,,,,,,,,2,100,1019,1417,3978,37698,,,
37699,7,108.301345,23.099928,双桥镇,,450110,0771,450110103000,,,,,,,,,,2,100,1019,1417,3978,37699,,,
37700,7,108.20971,23.107928,宁武镇,,450110,0771,450110104000,,,,,,,,,,2,100,1019,1417,3978,37700,,,
37701,7,108.025822,23.255043,锣圩镇,,450110,0771,450110105000,,,,,,,,,,2,100,1019,1417,3978,37701,,,
37702,7,108.094672,23.357707,仙湖镇,,450110,0771,450110106000,,,,,,,,,,2,100,1019,1417,3978,37702,,,
37703,7,108.207269,23.425694,府城镇,,450110,0771,450110107000,,,,,,,,,,2,100,1019,1417,3978,37703,,,
37704,7,108.401776,23.302434,陆斡镇,,450110,0771,450110108000,,,,,,,,,,2,100,1019,1417,3978,37704,,,
37705,7,108.373084,23.432817,两江镇,,450110,0771,450110109000,,,,,,,,,,2,100,1019,1417,3978,37705,,,
37706,7,108.41695,23.279731,罗波镇,,450110,0771,450110110000,,,,,,,,,,2,100,1019,1417,3978,37706,,,
37707,7,107.913118,23.385868,灵马镇,,450110,0771,450110111000,,,,,,,,,,2,100,1019,1417,3978,37707,,,
37708,7,108.226729,22.972094,甘圩镇,,450110,0771,450110112000,,,,,,,,,,2,100,1019,1417,3978,37708,,,
37709,7,108.504931,23.300957,马头镇,,450110,0771,450110113000,,,,,,,,,,2,100,1019,1417,3978,37709,,,
37710,7,108.159237,23.208451,南宁华侨投资区,,450110,0771,450110451000,,,,,,,,,,2,100,1019,1417,3978,37710,,,
37711,7,107.694989,23.174387,城厢镇,,450123,0771,450123100000,,,,,,,,,,2,100,1019,1417,3979,37711,,,
37712,7,107.669878,23.125724,南圩镇,,450123,0771,450123101000,,,,,,,,,,2,100,1019,1417,3979,37712,,,
37713,7,107.638843,23.268244,雁江镇,,450123,0771,450123102000,,,,,,,,,,2,100,1019,1417,3979,37713,,,
37714,7,107.867977,23.038431,那桐镇,,450123,0771,450123103000,,,,,,,,,,2,100,1019,1417,3979,37714,,,
37715,7,107.730496,23.066146,乔建镇,,450123,0771,450123104000,,,,,,,,,,2,100,1019,1417,3979,37715,,,
37716,7,107.968902,23.124184,丁当镇,,450123,0771,450123105000,,,,,,,,,,2,100,1019,1417,3979,37716,,,
37717,7,107.774596,22.983087,古潭乡,,450123,0771,450123201000,,,,,,,,,,2,100,1019,1417,3979,37717,,,
37718,7,107.470848,23.188988,都结乡,,450123,0771,450123203000,,,,,,,,,,2,100,1019,1417,3979,37718,,,
37719,7,107.451959,23.093333,布泉乡,,450123,0771,450123204000,,,,,,,,,,2,100,1019,1417,3979,37719,,,
37720,7,107.589835,22.948383,屏山乡,,450123,0771,450123205000,,,,,,,,,,2,100,1019,1417,3979,37720,,,
37721,7,107.887195,23.048647,隆安华侨管理区管理委员会,,450123,0771,450123450000,,,,,,,,,,2,100,1019,1417,3979,37721,,,
37722,7,108.15475,23.708873,白山镇,,450124,0771,450124100000,,,,,,,,,,2,100,1019,1417,3980,37722,,,
37723,7,108.148867,23.831327,百龙滩镇,,450124,0771,450124101000,,,,,,,,,,2,100,1019,1417,3980,37723,,,
37724,7,108.134415,23.521246,林圩镇,,450124,0771,450124102000,,,,,,,,,,2,100,1019,1417,3980,37724,,,
37725,7,108.319853,23.633061,古零镇,,450124,0771,450124103000,,,,,,,,,,2,100,1019,1417,3980,37725,,,
37726,7,108.43742,23.995598,金钗镇,,450124,0771,450124104000,,,,,,,,,,2,100,1019,1417,3980,37726,,,
37727,7,107.998851,23.555402,周鹿镇,,450124,0771,450124105000,,,,,,,,,,2,100,1019,1417,3980,37727,,,
37728,7,107.836455,23.547675,永州镇,,450124,0771,450124106000,,,,,,,,,,2,100,1019,1417,3980,37728,,,
37729,7,108.111004,23.637125,乔利乡,,450124,0771,450124200000,,,,,,,,,,2,100,1019,1417,3980,37729,,,
37730,7,108.43779,23.731955,加方乡,,450124,0771,450124201000,,,,,,,,,,2,100,1019,1417,3980,37730,,,
37731,7,108.305221,23.713102,古寨瑶族乡,,450124,0771,450124202000,,,,,,,,,,2,100,1019,1417,3980,37731,,,
37732,7,108.354457,23.868365,里当瑶族乡,,450124,0771,450124203000,,,,,,,,,,2,100,1019,1417,3980,37732,,,
37733,7,108.590928,23.434701,大丰镇,,450125,0771,450125100000,,,,,,,,,,2,100,1019,1417,3981,37733,,,
37734,7,108.619811,23.369243,明亮镇,,450125,0771,450125101000,,,,,,,,,,2,100,1019,1417,3981,37734,,,
37735,7,108.680171,23.260902,巷贤镇,,450125,0771,450125102000,,,,,,,,,,2,100,1019,1417,3981,37735,,,
37736,7,108.755763,23.407572,白圩镇,,450125,0771,450125103000,,,,,,,,,,2,100,1019,1417,3981,37736,,,
37737,7,108.725848,23.525386,三里镇,,450125,0771,450125104000,,,,,,,,,,2,100,1019,1417,3981,37737,,,
37738,7,108.693407,23.67434,乔贤镇,,450125,0771,450125105000,,,,,,,,,,2,100,1019,1417,3981,37738,,,
37739,7,108.783223,23.51424,西燕镇,,450125,0771,450125106000,,,,,,,,,,2,100,1019,1417,3981,37739,,,
37740,7,108.668812,23.425291,澄泰乡,,450125,0771,450125200000,,,,,,,,,,2,100,1019,1417,3981,37740,,,
37741,7,108.72776,23.675325,木山乡,,450125,0771,450125202000,,,,,,,,,,2,100,1019,1417,3981,37741,,,
37742,7,108.638908,23.669981,塘红乡,,450125,0771,450125203000,,,,,,,,,,2,100,1019,1417,3981,37742,,,
37743,7,108.425726,23.627863,镇圩瑶族乡,,450125,0771,450125205000,,,,,,,,,,2,100,1019,1417,3981,37743,,,
37744,7,108.795629,23.215889,宾州镇,,450126,0771,450126100000,,,,,,,,,,2,100,1019,1417,3982,37744,,,
37745,7,109.131868,23.201653,黎塘镇,,450126,0771,450126101000,,,,,,,,,,2,100,1019,1417,3982,37745,,,
37746,7,108.996242,22.977686,甘棠镇,,450126,0771,450126102000,,,,,,,,,,2,100,1019,1417,3982,37746,,,
37747,7,108.649657,23.166403,思陇镇,,450126,0771,450126103000,,,,,,,,,,2,100,1019,1417,3982,37747,,,
37748,7,108.757544,23.214454,新桥镇,,450126,0771,450126104000,,,,,,,,,,2,100,1019,1417,3982,37748,,,
37749,7,108.796272,23.330324,新圩镇,,450126,0771,450126105000,,,,,,,,,,2,100,1019,1417,3982,37749,,,
37750,7,108.887174,23.371922,邹圩镇,,450126,0771,450126106000,,,,,,,,,,2,100,1019,1417,3982,37750,,,
37751,7,108.927496,23.203214,大桥镇,,450126,0771,450126107000,,,,,,,,,,2,100,1019,1417,3982,37751,,,
37752,7,108.895473,23.14009,武陵镇,,450126,0771,450126108000,,,,,,,,,,2,100,1019,1417,3982,37752,,,
37753,7,108.943418,23.1331,中华镇,,450126,0771,450126109000,,,,,,,,,,2,100,1019,1417,3982,37753,,,
37754,7,108.9924,23.105714,古辣镇,,450126,0771,450126110000,,,,,,,,,,2,100,1019,1417,3982,37754,,,
37755,7,109.034061,23.016863,露圩镇,,450126,0771,450126111000,,,,,,,,,,2,100,1019,1417,3982,37755,,,
37756,7,109.00281,23.175011,王灵镇,,450126,0771,450126112000,,,,,,,,,,2,100,1019,1417,3982,37756,,,
37757,7,109.127465,23.278958,和吉镇,,450126,0771,450126113000,,,,,,,,,,2,100,1019,1417,3982,37757,,,
37758,7,109.02078,23.31386,洋桥镇,,450126,0771,450126114000,,,,,,,,,,2,100,1019,1417,3982,37758,,,
37759,7,108.796105,23.034899,陈平镇,,450126,0771,450126115000,,,,,,,,,,2,100,1019,1417,3982,37759,,,
37760,7,109.005709,23.348841,廖平农场,,450126,0771,450126451000,,,,,,,,,,2,100,1019,1417,3982,37760,,,
37761,7,109.278586,22.696963,横州镇,,450127,0771,450127100000,,,,,,,,,,2,100,1019,1417,3983,37761,,,
37762,7,109.464842,22.687043,百合镇,,450127,0771,450127101000,,,,,,,,,,2,100,1019,1417,3983,37762,,,
37763,7,109.328682,22.704405,那阳镇,,450127,0771,450127102000,,,,,,,,,,2,100,1019,1417,3983,37763,,,
37764,7,109.145828,22.604054,南乡镇,,450127,0771,450127103000,,,,,,,,,,2,100,1019,1417,3983,37764,,,
37765,7,108.96261,22.52165,新福镇,,450127,0771,450127104000,,,,,,,,,,2,100,1019,1417,3983,37765,,,
37766,7,109.154369,22.706968,莲塘镇,,450127,0771,450127105000,,,,,,,,,,2,100,1019,1417,3983,37766,,,
37767,7,109.038995,22.714969,平马镇,,450127,0771,450127106000,,,,,,,,,,2,100,1019,1417,3983,37767,,,
37768,7,108.924474,22.797985,峦城镇,,450127,0771,450127107000,,,,,,,,,,2,100,1019,1417,3983,37768,,,
37769,7,108.880792,22.875728,六景镇,,450127,0771,450127108000,,,,,,,,,,2,100,1019,1417,3983,37769,,,
37770,7,109.070892,22.883268,石塘镇,,450127,0771,450127110000,,,,,,,,,,2,100,1019,1417,3983,37770,,,
37771,7,109.129921,22.827027,陶圩镇,,450127,0771,450127112000,,,,,,,,,,2,100,1019,1417,3983,37771,,,
37772,7,109.237836,22.832776,校椅镇,,450127,0771,450127113000,,,,,,,,,,2,100,1019,1417,3983,37772,,,
37773,7,109.388589,22.903891,云表镇,,450127,0771,450127114000,,,,,,,,,,2,100,1019,1417,3983,37773,,,
37774,7,109.34073,22.815974,马岭镇,,450127,0771,450127115000,,,,,,,,,,2,100,1019,1417,3983,37774,,,
37775,7,109.261384,22.679932,马山镇,,450127,0771,450127118000,,,,,,,,,,2,100,1019,1417,3983,37775,,,
37776,7,109.261384,22.679932,平朗镇,,450127,0771,450127119000,,,,,,,,,,2,100,1019,1417,3983,37776,,,
37777,7,109.24912,23.029791,镇龙乡,,450127,0771,450127204000,,,,,,,,,,2,100,1019,1417,3983,37777,,,
37778,7,108.895079,22.86116,南宁六景工业园区管委会,,450127,0771,450127400000,,,,,,,,,,2,100,1019,1417,3983,37778,,,
37779,7,109.414101,24.311434,城中街道,,450202,0772,450202001000,,,,,,,,,,2,100,1019,1418,3984,37779,,,
37780,7,109.413522,24.31577,公园街道,,450202,0772,450202002000,,,,,,,,,,2,100,1019,1418,3984,37780,,,
37781,7,109.406591,24.312603,中南街道,,450202,0772,450202003000,,,,,,,,,,2,100,1019,1418,3984,37781,,,
37782,7,109.410736,24.315602,沿江街道,,450202,0772,450202004000,,,,,,,,,,2,100,1019,1418,3984,37782,,,
37783,7,109.427915,24.333656,潭中街道,,450202,0772,450202005000,,,,,,,,,,2,100,1019,1418,3984,37783,,,
37784,7,109.433627,24.359917,河东街道,,450202,0772,450202006000,,,,,,,,,,2,100,1019,1418,3984,37784,,,
37785,7,109.441134,24.325709,静兰街道,,450202,0772,450202007000,,,,,,,,,,2,100,1019,1418,3984,37785,,,
37786,7,109.410205,24.291827,天马街道,,450203,0772,450203001000,,,,,,,,,,2,100,1019,1418,3985,37786,,,
37787,7,109.424399,24.307462,驾鹤街道,,450203,0772,450203002000,,,,,,,,,,2,100,1019,1418,3985,37787,,,
37788,7,109.435496,24.301135,箭盘山街道,,450203,0772,450203003000,,,,,,,,,,2,100,1019,1418,3985,37788,,,
37789,7,109.433172,24.285266,五里亭街道,,450203,0772,450203004000,,,,,,,,,,2,100,1019,1418,3985,37789,,,
37790,7,109.419829,24.300594,荣军街道,,450203,0772,450203005000,,,,,,,,,,2,100,1019,1418,3985,37790,,,
37791,7,109.434504,24.278891,白莲街道,,450203,0772,450203006000,,,,,,,,,,2,100,1019,1418,3985,37791,,,
37792,7,109.4344,24.27894,麒麟街道,,450203,0772,450203007000,,,,,,,,,,2,100,1019,1418,3985,37792,,,
37793,7,109.488148,24.313222,阳和街道,,450203,0772,450203008000,,,,,,,,,,2,100,1019,1418,3985,37793,,,
37794,7,109.605512,24.402743,雒容镇,,450203,0772,450203100000,,,,,,,,,,2,100,1019,1418,3985,37794,,,
37795,7,109.513763,24.431706,洛埠镇,,450203,0772,450203101000,,,,,,,,,,2,100,1019,1418,3985,37795,,,
37796,7,109.452442,24.318517,白沙镇,,450203,0772,450203102000,,,,,,,,,,2,100,1019,1418,3985,37796,,,
37797,7,109.452442,24.318517,里雍镇,,450203,0772,450203103000,,,,,,,,,,2,100,1019,1418,3985,37797,,,
37798,7,109.379451,24.324723,河西街道,,450204,0772,450204001000,,,,,,,,,,2,100,1019,1418,3986,37798,,,
37799,7,109.372556,24.285351,南站街道,,450204,0772,450204002000,,,,,,,,,,2,100,1019,1418,3986,37799,,,
37800,7,109.372628,24.296669,鹅山街道,,450204,0772,450204003000,,,,,,,,,,2,100,1019,1418,3986,37800,,,
37801,7,109.389665,24.301345,柳南街道,,450204,0772,450204004000,,,,,,,,,,2,100,1019,1418,3986,37801,,,
37802,7,109.404103,24.298391,柳石街道,,450204,0772,450204005000,,,,,,,,,,2,100,1019,1418,3986,37802,,,
37803,7,109.394964,24.276168,银山街道,,450204,0772,450204006000,,,,,,,,,,2,100,1019,1418,3986,37803,,,
37804,7,109.367739,24.329184,潭西街道,,450204,0772,450204007000,,,,,,,,,,2,100,1019,1418,3986,37804,,,
37805,7,109.395021,24.279927,南环街道,,450204,0772,450204008000,,,,,,,,,,2,100,1019,1418,3986,37805,,,
37806,7,109.270197,24.362725,太阳村镇,,450204,0772,450204100000,,,,,,,,,,2,100,1019,1418,3986,37806,,,
37807,7,109.197883,24.413943,洛满镇,,450206,0772,450204101000,,,,,,,,,,2,100,1019,1418,3986,37807,,,
37808,7,109.122101,24.452149,流山镇,,450206,0772,450204102000,,,,,,,,,,2,100,1019,1418,3986,37808,,,
37809,7,109.408448,24.322772,解放街道,,450205,0772,450205001000,,,,,,,,,,2,100,1019,1418,3987,37809,,,
37810,7,109.406069,24.321383,雅儒街道,,450205,0772,450205002000,,,,,,,,,,2,100,1019,1418,3987,37810,,,
37811,7,109.407114,24.357708,胜利街道,,450205,0772,450205003000,,,,,,,,,,2,100,1019,1418,3987,37811,,,
37812,7,109.400288,24.368487,雀儿山街道,,450205,0772,450205004000,,,,,,,,,,2,100,1019,1418,3987,37812,,,
37813,7,109.402699,24.373485,钢城街道,,450205,0772,450205005000,,,,,,,,,,2,100,1019,1418,3987,37813,,,
37814,7,109.410549,24.345338,锦绣街道,,450205,0772,450205006000,,,,,,,,,,2,100,1019,1418,3987,37814,,,
37815,7,109.376866,24.373554,白露街道,,450205,0772,450205007000,,,,,,,,,,2,100,1019,1418,3987,37815,,,
37816,7,109.40205,24.362691,跃进街道,,450205,0772,450205008000,,,,,,,,,,2,100,1019,1418,3987,37816,,,
37817,7,109.40205,24.362691,柳长街道,,450205,0772,450205009000,,,,,,,,,,2,100,1019,1418,3987,37817,,,
37818,7,109.352351,24.513608,石碑坪镇,,450205,0772,450205100000,,,,,,,,,,2,100,1019,1418,3987,37818,,,
37819,7,109.378623,24.449286,沙塘镇,,450205,0772,450205101000,,,,,,,,,,2,100,1019,1418,3987,37819,,,
37820,7,109.409116,24.388672,长塘镇,,450205,0772,450205102000,,,,,,,,,,2,100,1019,1418,3987,37820,,,
37821,7,109.328635,24.259322,拉堡镇,,450206,0772,450206100000,,,,,,,,,,2,100,1019,1418,3988,37821,,,
37822,7,109.274612,24.146235,百朋镇,,450206,0772,450206102000,,,,,,,,,,2,100,1019,1418,3988,37822,,,
37823,7,109.241092,24.25754,成团镇,,450206,0772,450206103000,,,,,,,,,,2,100,1019,1418,3988,37823,,,
37824,7,109.170122,24.200258,三都镇,,450206,0772,450206106000,,,,,,,,,,2,100,1019,1418,3988,37824,,,
37825,7,109.016072,24.139049,里高镇,,450206,0772,450206107000,,,,,,,,,,2,100,1019,1418,3988,37825,,,
37826,7,109.334323,24.213536,进德镇,,450206,0772,450206108000,,,,,,,,,,2,100,1019,1418,3988,37826,,,
37827,7,109.407102,24.031764,穿山镇,,450206,0772,450206109000,,,,,,,,,,2,100,1019,1418,3988,37827,,,
37828,7,109.013894,24.302731,土博镇,,450206,0772,450206110000,,,,,,,,,,2,100,1019,1418,3988,37828,,,
37829,7,109.21699,24.655569,大埔镇,,450222,0772,450222100000,,,,,,,,,,2,100,1019,1418,3989,37829,,,
37830,7,109.180201,24.755747,龙头镇,,450222,0772,450222101000,,,,,,,,,,2,100,1019,1418,3989,37830,,,
37831,7,109.380685,24.708346,太平镇,,450222,0772,450222102000,,,,,,,,,,2,100,1019,1418,3989,37831,,,
37832,7,109.33294,24.60161,沙埔镇,,450222,0772,450222103000,,,,,,,,,,2,100,1019,1418,3989,37832,,,
37833,7,109.496202,24.554849,东泉镇,,450222,0772,450222104000,,,,,,,,,,2,100,1019,1418,3989,37833,,,
37834,7,109.261541,24.52887,凤山镇,,450222,0772,450222105000,,,,,,,,,,2,100,1019,1418,3989,37834,,,
37835,7,108.967765,24.534258,六塘镇,,450222,0772,450222106000,,,,,,,,,,2,100,1019,1418,3989,37835,,,
37836,7,108.973971,24.627492,冲脉镇,,450222,0772,450222107000,,,,,,,,,,2,100,1019,1418,3989,37836,,,
37837,7,109.096838,24.647473,寨隆镇,,450222,0772,450222108000,,,,,,,,,,2,100,1019,1418,3989,37837,,,
37838,7,109.24473,24.651518,马山镇,,450222,0772,450222109000,,,,,,,,,,2,100,1019,1418,3989,37838,,,
37839,7,109.049845,24.740536,古砦仫佬族乡,,450222,0772,450222200000,,,,,,,,,,2,100,1019,1418,3989,37839,,,
37840,7,109.30773,24.454052,社冲乡,,450222,0772,450222202000,,,,,,,,,,2,100,1019,1418,3989,37840,,,
37841,7,109.757417,24.4843,鹿寨镇,,450223,0772,450223100000,,,,,,,,,,2,100,1019,1418,3990,37841,,,
37842,7,109.698181,24.679054,中渡镇,,450223,0772,450223102000,,,,,,,,,,2,100,1019,1418,3990,37842,,,
37843,7,109.966618,24.498724,寨沙镇,,450223,0772,450223103000,,,,,,,,,,2,100,1019,1418,3990,37843,,,
37844,7,109.569247,24.661497,平山镇,,450223,0772,450223104000,,,,,,,,,,2,100,1019,1418,3990,37844,,,
37845,7,109.856466,24.669242,黄冕镇,,450223,0772,450223105000,,,,,,,,,,2,100,1019,1418,3990,37845,,,
37846,7,109.750638,24.472897,四排镇,,450223,0772,450223106000,,,,,,,,,,2,100,1019,1418,3990,37846,,,
37847,7,109.615092,24.257952,江口乡,,450223,0772,450223201000,,,,,,,,,,2,100,1019,1418,3990,37847,,,
37848,7,109.721364,24.258863,导江乡,,450223,0772,450223202000,,,,,,,,,,2,100,1019,1418,3990,37848,,,
37849,7,110.030208,24.561895,拉沟乡,,450223,0772,450223203000,,,,,,,,,,2,100,1019,1418,3990,37849,,,
37850,7,109.400183,25.223802,长安镇,,450224,0772,450224100000,,,,,,,,,,2,100,1019,1418,3991,37850,,,
37851,7,109.362641,25.121903,浮石镇,,450224,0772,450224101000,,,,,,,,,,2,100,1019,1418,3991,37851,,,
37852,7,109.530617,25.032553,泗顶镇,,450224,0772,450224102000,,,,,,,,,,2,100,1019,1418,3991,37852,,,
37853,7,109.633452,25.405505,板榄镇,,450224,0772,450224103000,,,,,,,,,,2,100,1019,1418,3991,37853,,,
37854,7,109.528182,25.281767,大将镇,,450224,0772,450224104000,,,,,,,,,,2,100,1019,1418,3991,37854,,,
37855,7,109.343051,24.83617,大良镇,,450224,0772,450224105000,,,,,,,,,,2,100,1019,1418,3991,37855,,,
37856,7,109.660499,25.268362,雅瑶乡,,450224,0772,450224200000,,,,,,,,,,2,100,1019,1418,3991,37856,,,
37857,7,109.525982,25.149327,大坡乡,,450224,0772,450224201000,,,,,,,,,,2,100,1019,1418,3991,37857,,,
37858,7,109.394556,24.962436,东起乡,,450224,0772,450224202000,,,,,,,,,,2,100,1019,1418,3991,37858,,,
37859,7,109.472544,24.908952,沙子乡,,450224,0772,450224203000,,,,,,,,,,2,100,1019,1418,3991,37859,,,
37860,7,109.56205,24.916762,桥板乡,,450224,0772,450224204000,,,,,,,,,,2,100,1019,1418,3991,37860,,,
37861,7,109.298165,24.833254,潭头乡,,450224,0772,450224205000,,,,,,,,,,2,100,1019,1418,3991,37861,,,
37862,7,109.258507,25.07886,融水镇,,450225,0772,450225100000,,,,,,,,,,2,100,1019,1418,3992,37862,,,
37863,7,109.158841,24.901271,和睦镇,,450225,0772,450225101000,,,,,,,,,,2,100,1019,1418,3992,37863,,,
37864,7,108.845123,25.246873,三防镇,,450225,0772,450225102000,,,,,,,,,,2,100,1019,1418,3992,37864,,,
37865,7,109.032053,25.248119,怀宝镇,,450225,0772,450225103000,,,,,,,,,,2,100,1019,1418,3992,37865,,,
37866,7,108.992038,25.502235,洞头镇,,450225,0772,450225104000,,,,,,,,,,2,100,1019,1418,3992,37866,,,
37867,7,109.447552,25.478918,大浪镇,,450225,0772,450225105000,,,,,,,,,,2,100,1019,1418,3992,37867,,,
37868,7,109.14798,24.999966,永乐镇,,450225,0772,450225106000,,,,,,,,,,2,100,1019,1418,3992,37868,,,
37869,7,109.204086,25.214956,四荣乡,,450225,0772,450225201000,,,,,,,,,,2,100,1019,1418,3992,37869,,,
37870,7,109.215591,25.278939,香粉乡,,450225,0772,450225202000,,,,,,,,,,2,100,1019,1418,3992,37870,,,
37871,7,109.066704,25.388467,安太乡,,450225,0772,450225203000,,,,,,,,,,2,100,1019,1418,3992,37871,,,
37872,7,108.791972,25.26901,汪洞乡,,450225,0772,450225205000,,,,,,,,,,2,100,1019,1418,3992,37872,,,
37873,7,108.703019,25.32962,同练瑶族乡,,450225,0772,450225206000,,,,,,,,,,2,100,1019,1418,3992,37873,,,
37874,7,108.85958,25.35927,滚贝侗族乡,,450225,0772,450225207000,,,,,,,,,,2,100,1019,1418,3992,37874,,,
37875,7,108.740908,25.556654,杆洞乡,,450225,0772,450225208000,,,,,,,,,,2,100,1019,1418,3992,37875,,,
37876,7,109.32593,25.33392,安陲乡,,450225,0772,450225209000,,,,,,,,,,2,100,1019,1418,3992,37876,,,
37877,7,109.271845,25.521777,白云乡,,450225,0772,450225211000,,,,,,,,,,2,100,1019,1418,3992,37877,,,
37878,7,109.214016,25.542208,红水乡,,450225,0772,450225212000,,,,,,,,,,2,100,1019,1418,3992,37878,,,
37879,7,109.17941,25.59092,拱洞乡,,450225,0772,450225213000,,,,,,,,,,2,100,1019,1418,3992,37879,,,
37880,7,109.091463,25.566343,良寨乡,,450225,0772,450225214000,,,,,,,,,,2,100,1019,1418,3992,37880,,,
37881,7,109.127636,25.698632,大年乡,,450225,0772,450225215000,,,,,,,,,,2,100,1019,1418,3992,37881,,,
37882,7,109.609064,25.782411,古宜镇,,450226,0772,450226100000,,,,,,,,,,2,100,1019,1418,3993,37882,,,
37883,7,109.687789,25.763185,斗江镇,,450226,0772,450226101000,,,,,,,,,,2,100,1019,1418,3993,37883,,,
37884,7,109.453426,25.378685,丹洲镇,,450226,0772,450226102000,,,,,,,,,,2,100,1019,1418,3993,37884,,,
37885,7,109.561386,25.882053,八江镇,,450226,0772,450226103000,,,,,,,,,,2,100,1019,1418,3993,37885,,,
37886,7,109.669787,25.972473,林溪镇,,450226,0772,450226104000,,,,,,,,,,2,100,1019,1418,3993,37886,,,
37887,7,109.475834,25.956157,独峒镇,,450226,0772,450226105000,,,,,,,,,,2,100,1019,1418,3993,37887,,,
37888,7,109.432309,25.779545,同乐苗族乡,,450226,0772,450226203000,,,,,,,,,,2,100,1019,1418,3993,37888,,,
37889,7,108.962834,25.709253,梅林乡,,450226,0772,450226204000,,,,,,,,,,2,100,1019,1418,3993,37889,,,
37890,7,109.176076,25.745181,富禄苗族乡,,450226,0772,450226205000,,,,,,,,,,2,100,1019,1418,3993,37890,,,
37891,7,109.353833,25.694871,洋溪乡,,450226,0772,450226206000,,,,,,,,,,2,100,1019,1418,3993,37891,,,
37892,7,109.40898,25.70215,良口乡,,450226,0772,450226207000,,,,,,,,,,2,100,1019,1418,3993,37892,,,
37893,7,109.47649,25.657165,老堡乡,,450226,0772,450226208000,,,,,,,,,,2,100,1019,1418,3993,37893,,,
37894,7,109.694859,25.664897,高基瑶族乡,,450226,0772,450226209000,,,,,,,,,,2,100,1019,1418,3993,37894,,,
37895,7,109.610456,25.570186,和平乡,,450226,0772,450226210000,,,,,,,,,,2,100,1019,1418,3993,37895,,,
37896,7,109.544033,25.765699,程村乡,,450226,0772,450226211000,,,,,,,,,,2,100,1019,1418,3993,37896,,,
37897,7,110.292839,25.278592,秀峰街道,,450302,0773,450302001000,,,,,,,,,,2,100,1019,1419,3994,37897,,,
37898,7,110.280027,25.279197,丽君街道,,450302,0773,450302002000,,,,,,,,,,2,100,1019,1419,3994,37898,,,
37899,7,110.264992,25.273691,甲山街道,,450302,0773,450302003000,,,,,,,,,,2,100,1019,1419,3994,37899,,,
37900,7,110.30167,25.284175,叠彩街道,,450303,0773,450303001000,,,,,,,,,,2,100,1019,1419,3995,37900,,,
37901,7,110.305906,25.320583,北门街道,,450303,0773,450303002000,,,,,,,,,,2,100,1019,1419,3995,37901,,,
37902,7,110.305847,25.325164,大河乡,,450303,0773,450303200000,,,,,,,,,,2,100,1019,1419,3995,37902,,,
37903,7,110.283708,25.264126,南门街道,,450304,0773,450304001000,,,,,,,,,,2,100,1019,1419,3996,37903,,,
37904,7,110.290516,25.268305,象山街道,,450304,0773,450304002000,,,,,,,,,,2,100,1019,1419,3996,37904,,,
37905,7,110.292966,25.233178,平山街道,,450304,0773,450304003000,,,,,,,,,,2,100,1019,1419,3996,37905,,,
37906,7,110.291905,25.18617,二塘乡,,450304,0773,450304200000,,,,,,,,,,2,100,1019,1419,3996,37906,,,
37907,7,110.31155,25.268287,七星区街道,,450305,0773,450305001000,,,,,,,,,,2,100,1019,1419,3997,37907,,,
37908,7,110.321354,25.284633,东江街道,,450305,0773,450305002000,,,,,,,,,,2,100,1019,1419,3997,37908,,,
37909,7,110.317826,25.252701,穿山街道,,450305,0773,450305003000,,,,,,,,,,2,100,1019,1419,3997,37909,,,
37910,7,110.317826,25.252701,漓东街道,,450305,0773,450305004000,,,,,,,,,,2,100,1019,1419,3997,37910,,,
37911,7,110.331503,25.266484,朝阳乡,,450305,0773,450305200000,,,,,,,,,,2,100,1019,1419,3997,37911,,,
37912,7,110.368889,25.215925,桂林华侨旅游经济区管理委员会,,450305,0773,450305400000,,,,,,,,,,2,100,1019,1419,3997,37912,,,
37913,7,110.296256,25.103897,良丰街道,,450311,0773,450311001000,,,,,,,,,,2,100,1019,1419,3998,37913,,,
37914,7,110.295226,25.107942,雁山镇,,450311,0773,450311100000,,,,,,,,,,2,100,1019,1419,3998,37914,,,
37915,7,110.29775,25.228542,柘木镇,,450304,0773,450311101000,,,,,,,,,,2,100,1019,1419,3998,37915,,,
37916,7,110.320761,25.033682,大埠乡,,450311,0773,450311200000,,,,,,,,,,2,100,1019,1419,3998,37916,,,
37917,7,110.450325,25.05732,草坪回族乡,,450311,0773,450311201000,,,,,,,,,,2,100,1019,1419,3998,37917,,,
37918,7,110.186572,25.279039,临桂镇,,450312,0773,450312100000,,,,,,,,,,2,100,1019,1419,3999,37918,,,
37919,7,110.291951,25.00527,六塘镇,,450312,0773,450312101000,,,,,,,,,,2,100,1019,1419,3999,37919,,,
37920,7,110.216462,25.066061,会仙镇,,450312,0773,450312102000,,,,,,,,,,2,100,1019,1419,3999,37920,,,
37921,7,110.024031,25.199234,两江镇,,450312,0773,450312103000,,,,,,,,,,2,100,1019,1419,3999,37921,,,
37922,7,110.069644,25.375593,五通镇,,450312,0773,450312104000,,,,,,,,,,2,100,1019,1419,3999,37922,,,
37923,7,110.132326,25.161661,四塘镇,,450312,0773,450312105000,,,,,,,,,,2,100,1019,1419,3999,37923,,,
37924,7,110.270031,24.951947,南边山镇,,450312,0773,450312106000,,,,,,,,,,2,100,1019,1419,3999,37924,,,
37925,7,110.08273,25.459072,中庸镇,,450312,0773,450312107000,,,,,,,,,,2,100,1019,1419,3999,37925,,,
37926,7,109.965778,25.235041,茶洞镇,,450312,0773,450312108000,,,,,,,,,,2,100,1019,1419,3999,37926,,,
37927,7,110.068646,25.534741,宛田瑶族乡,,450312,0773,450312204000,,,,,,,,,,2,100,1019,1419,3999,37927,,,
37928,7,109.925254,25.506198,黄沙瑶族乡,,450312,0773,450312205000,,,,,,,,,,2,100,1019,1419,3999,37928,,,
37929,7,110.495339,24.773759,阳朔镇,,450321,0773,450321100000,,,,,,,,,,2,100,1019,1419,4000,37929,,,
37930,7,110.42182,24.814294,白沙镇,,450321,0773,450321101000,,,,,,,,,,2,100,1019,1419,4000,37930,,,
37931,7,110.55836,24.786898,福利镇,,450321,0773,450321102000,,,,,,,,,,2,100,1019,1419,4000,37931,,,
37932,7,110.532504,24.917003,兴坪镇,,450321,0773,450321103000,,,,,,,,,,2,100,1019,1419,4000,37932,,,
37933,7,110.376005,24.911117,葡萄镇,,450321,0773,450321104000,,,,,,,,,,2,100,1019,1419,4000,37933,,,
37934,7,110.462437,24.710278,高田镇,,450321,0773,450321105000,,,,,,,,,,2,100,1019,1419,4000,37934,,,
37935,7,110.335391,24.790586,金宝乡,,450321,0773,450321200000,,,,,,,,,,2,100,1019,1419,4000,37935,,,
37936,7,110.598688,24.674434,普益乡,,450321,0773,450321201000,,,,,,,,,,2,100,1019,1419,4000,37936,,,
37937,7,110.452627,24.994167,杨堤乡,,450321,0773,450321202000,,,,,,,,,,2,100,1019,1419,4000,37937,,,
37938,7,110.325636,25.409747,灵川镇,,450323,0773,450323100000,,,,,,,,,,2,100,1019,1419,4001,37938,,,
37939,7,110.423377,25.185081,大圩镇,,450323,0773,450323101000,,,,,,,,,,2,100,1019,1419,4001,37939,,,
37940,7,110.304368,25.334804,定江镇,,450323,0773,450323102000,,,,,,,,,,2,100,1019,1419,4001,37940,,,
37941,7,110.390078,25.466151,三街镇,,450323,0773,450323103000,,,,,,,,,,2,100,1019,1419,4001,37941,,,
37942,7,110.289363,25.452804,潭下镇,,450323,0773,450323104000,,,,,,,,,,2,100,1019,1419,4001,37942,,,
37943,7,110.255986,25.527144,九屋镇,,450323,0773,450323106000,,,,,,,,,,2,100,1019,1419,4001,37943,,,
37944,7,110.475101,25.345059,灵田镇,,450323,0773,450323107000,,,,,,,,,,2,100,1019,1419,4001,37944,,,
37945,7,110.508451,25.196427,潮田乡,,450323,0773,450323200000,,,,,,,,,,2,100,1019,1419,4001,37945,,,
37946,7,110.580464,25.201001,大境瑶族乡,,450323,0773,450323201000,,,,,,,,,,2,100,1019,1419,4001,37946,,,
37947,7,110.565834,25.305769,海洋乡,,450323,0773,450323202000,,,,,,,,,,2,100,1019,1419,4001,37947,,,
37948,7,110.199983,25.606258,兰田瑶族乡,,450323,0773,450323206000,,,,,,,,,,2,100,1019,1419,4001,37948,,,
37949,7,110.161855,25.490295,公平乡,,450323,0773,450323207000,,,,,,,,,,2,100,1019,1419,4001,37949,,,
37950,7,111.06896,25.922846,全州镇,,450324,0773,450324100000,,,,,,,,,,2,100,1019,1419,4002,37950,,,
37951,7,111.22023,26.089581,黄沙河镇,,450324,0773,450324101000,,,,,,,,,,2,100,1019,1419,4002,37951,,,
37952,7,111.22465,26.173131,庙头镇,,450324,0773,450324102000,,,,,,,,,,2,100,1019,1419,4002,37952,,,
37953,7,111.17612,26.217909,文桥镇,,450324,0773,450324103000,,,,,,,,,,2,100,1019,1419,4002,37953,,,
37954,7,111.027225,26.202795,大西江镇,,450324,0773,450324104000,,,,,,,,,,2,100,1019,1419,4002,37954,,,
37955,7,110.998061,26.037169,龙水镇,,450324,0773,450324105000,,,,,,,,,,2,100,1019,1419,4002,37955,,,
37956,7,110.955634,25.935234,才湾镇,,450324,0773,450324106000,,,,,,,,,,2,100,1019,1419,4002,37956,,,
37957,7,110.860521,25.870955,绍水镇,,450324,0773,450324107000,,,,,,,,,,2,100,1019,1419,4002,37957,,,
37958,7,111.012667,25.735046,石塘镇,,450324,0773,450324108000,,,,,,,,,,2,100,1019,1419,4002,37958,,,
37959,7,110.799021,25.813225,咸水镇,,450324,0773,450324109000,,,,,,,,,,2,100,1019,1419,4002,37959,,,
37960,7,110.886047,25.76024,凤凰镇,,450324,0773,450324110000,,,,,,,,,,2,100,1019,1419,4002,37960,,,
37961,7,110.892877,25.673963,安和镇,,450324,0773,450324111000,,,,,,,,,,2,100,1019,1419,4002,37961,,,
37962,7,111.121554,25.738146,两河镇,,450324,0773,450324112000,,,,,,,,,,2,100,1019,1419,4002,37962,,,
37963,7,111.059535,25.867715,枧塘镇,,450324,0773,450324113000,,,,,,,,,,2,100,1019,1419,4002,37963,,,
37964,7,111.133642,26.025416,永岁镇,,450324,0773,450324114000,,,,,,,,,,2,100,1019,1419,4002,37964,,,
37965,7,110.84141,25.564583,蕉江瑶族乡,,450324,0773,450324204000,,,,,,,,,,2,100,1019,1419,4002,37965,,,
37966,7,111.168782,25.869026,白宝乡,,450324,0773,450324207000,,,,,,,,,,2,100,1019,1419,4002,37966,,,
37967,7,111.295724,25.821489,东山瑶族乡,,450324,0773,450324208000,,,,,,,,,,2,100,1019,1419,4002,37967,,,
37968,7,110.662799,25.654331,兴安镇,,450325,0773,450325100000,,,,,,,,,,2,100,1019,1419,4003,37968,,,
37969,7,110.682283,25.611647,湘漓镇,,450325,0773,450325101000,,,,,,,,,,2,100,1019,1419,4003,37969,,,
37970,7,110.756666,25.726606,界首镇,,450325,0773,450325102000,,,,,,,,,,2,100,1019,1419,4003,37970,,,
37971,7,110.591787,25.416074,高尚镇,,450325,0773,450325103000,,,,,,,,,,2,100,1019,1419,4003,37971,,,
37972,7,110.579449,25.62374,严关镇,,450325,0773,450325104000,,,,,,,,,,2,100,1019,1419,4003,37972,,,
37973,7,110.477842,25.560818,溶江镇,,450325,0773,450325105000,,,,,,,,,,2,100,1019,1419,4003,37973,,,
37974,7,110.803596,25.452738,漠川乡,,450325,0773,450325200000,,,,,,,,,,2,100,1019,1419,4003,37974,,,
37975,7,110.714956,25.442865,白石乡,,450325,0773,450325201000,,,,,,,,,,2,100,1019,1419,4003,37975,,,
37976,7,110.69322,25.542874,崔家乡,,450325,0773,450325202000,,,,,,,,,,2,100,1019,1419,4003,37976,,,
37977,7,110.476918,25.769065,华江瑶族乡,,450325,0773,450325203000,,,,,,,,,,2,100,1019,1419,4003,37977,,,
37978,7,110.001971,24.998707,永福镇,,450326,0773,450326100000,,,,,,,,,,2,100,1019,1419,4004,37978,,,
37979,7,110.101481,25.016414,罗锦镇,,450326,0773,450326101000,,,,,,,,,,2,100,1019,1419,4004,37979,,,
37980,7,109.771477,25.156072,百寿镇,,450326,0773,450326102000,,,,,,,,,,2,100,1019,1419,4004,37980,,,
37981,7,110.060246,25.099784,苏桥镇,,450326,0773,450326103000,,,,,,,,,,2,100,1019,1419,4004,37981,,,
37982,7,109.658302,24.943259,三皇镇,,450326,0773,450326104000,,,,,,,,,,2,100,1019,1419,4004,37982,,,
37983,7,110.073012,24.842191,堡里镇,,450326,0773,450326105000,,,,,,,,,,2,100,1019,1419,4004,37983,,,
37984,7,109.982789,24.917381,广福乡,,450326,0773,450326202000,,,,,,,,,,2,100,1019,1419,4004,37984,,,
37985,7,109.783572,24.915262,永安乡,,450326,0773,450326204000,,,,,,,,,,2,100,1019,1419,4004,37985,,,
37986,7,109.832313,25.244585,龙江乡,,450326,0773,450326205000,,,,,,,,,,2,100,1019,1419,4004,37986,,,
37987,7,111.160851,25.489383,灌阳镇,,450327,0773,450327100000,,,,,,,,,,2,100,1019,1419,4005,37987,,,
37988,7,111.048265,25.349524,黄关镇,,450327,0773,450327101000,,,,,,,,,,2,100,1019,1419,4005,37988,,,
37989,7,111.201797,25.67696,文市镇,,450327,0773,450327102000,,,,,,,,,,2,100,1019,1419,4005,37989,,,
37990,7,111.108499,25.410482,新街镇,,450327,0773,450327103000,,,,,,,,,,2,100,1019,1419,4005,37990,,,
37991,7,111.124618,25.601843,新圩镇,,450327,0773,450327104000,,,,,,,,,,2,100,1019,1419,4005,37991,,,
37992,7,111.160851,25.489383,水车镇,,450327,0773,450327105000,,,,,,,,,,2,100,1019,1419,4005,37992,,,
37993,7,110.856496,25.242434,洞井瑶族乡,,450327,0773,450327200000,,,,,,,,,,2,100,1019,1419,4005,37993,,,
37994,7,110.905882,25.25384,观音阁乡,,450327,0773,450327201000,,,,,,,,,,2,100,1019,1419,4005,37994,,,
37995,7,110.972593,25.388052,西山瑶族乡,,450327,0773,450327202000,,,,,,,,,,2,100,1019,1419,4005,37995,,,
37996,7,110.014881,25.804438,龙胜镇,,450328,0773,450328100000,,,,,,,,,,2,100,1019,1419,4006,37996,,,
37997,7,109.842508,25.847381,瓢里镇,,450328,0773,450328101000,,,,,,,,,,2,100,1019,1419,4006,37997,,,
37998,7,109.865313,25.726102,三门镇,,450328,0773,450328102000,,,,,,,,,,2,100,1019,1419,4006,37998,,,
37999,7,110.072266,25.732068,龙脊镇,,450328,0773,450328103000,,,,,,,,,,2,100,1019,1419,4006,37999,,,
38000,7,109.928203,26.049177,平等镇,,450328,0773,450328104000,,,,,,,,,,2,100,1019,1419,4006,38000,,,
38001,7,109.875669,25.912678,乐江镇,,450328,0773,450328105000,,,,,,,,,,2,100,1019,1419,4006,38001,,,
38002,7,110.093436,25.85593,泗水乡,,450328,0773,450328201000,,,,,,,,,,2,100,1019,1419,4006,38002,,,
38003,7,110.25303,25.914968,江底乡,,450328,0773,450328202000,,,,,,,,,,2,100,1019,1419,4006,38003,,,
38004,7,110.115564,25.927007,马堤乡,,450328,0773,450328203000,,,,,,,,,,2,100,1019,1419,4006,38004,,,
38005,7,110.093688,26.003932,伟江乡,,450328,0773,450328204000,,,,,,,,,,2,100,1019,1419,4006,38005,,,
38006,7,110.642255,26.031218,资源镇,,450329,0773,450329100000,,,,,,,,,,2,100,1019,1419,4007,38006,,,
38007,7,110.63194,25.94265,中峰镇,,450329,0773,450329101000,,,,,,,,,,2,100,1019,1419,4007,38007,,,
38008,7,110.728907,26.217766,梅溪镇,,450329,0773,450329102000,,,,,,,,,,2,100,1019,1419,4007,38008,,,
38009,7,110.644047,26.195183,瓜里乡,,450329,0773,450329202000,,,,,,,,,,2,100,1019,1419,4007,38009,,,
38010,7,110.468461,26.007936,车田苗族乡,,450329,0773,450329203000,,,,,,,,,,2,100,1019,1419,4007,38010,,,
38011,7,110.417743,25.945122,两水苗族乡,,450329,0773,450329204000,,,,,,,,,,2,100,1019,1419,4007,38011,,,
38012,7,110.341405,25.954714,河口瑶族乡,,450329,0773,450329205000,,,,,,,,,,2,100,1019,1419,4007,38012,,,
38013,7,110.643929,24.629302,平乐镇,,450330,0773,450330100000,,,,,,,,,,2,100,1019,1419,4008,38013,,,
38014,7,110.783748,24.660141,二塘镇,,450330,0773,450330101000,,,,,,,,,,2,100,1019,1419,4008,38014,,,
38015,7,110.699353,24.773091,沙子镇,,450330,0773,450330102000,,,,,,,,,,2,100,1019,1419,4008,38015,,,
38016,7,110.925916,24.580639,同安镇,,450330,0773,450330103000,,,,,,,,,,2,100,1019,1419,4008,38016,,,
38017,7,110.854758,24.588055,张家镇,,450330,0773,450330104000,,,,,,,,,,2,100,1019,1419,4008,38017,,,
38018,7,110.998163,24.456532,源头镇,,450330,0773,450330105000,,,,,,,,,,2,100,1019,1419,4008,38018,,,
38019,7,110.898117,24.498942,阳安乡,,450330,0773,450330200000,,,,,,,,,,2,100,1019,1419,4008,38019,,,
38020,7,110.845479,24.508364,青龙乡,,450330,0773,450330201000,,,,,,,,,,2,100,1019,1419,4008,38020,,,
38021,7,110.78031,24.52723,桥亭乡,,450330,0773,450330202000,,,,,,,,,,2,100,1019,1419,4008,38021,,,
38022,7,110.653594,24.537011,大发瑶族乡,,450330,0773,450330203000,,,,,,,,,,2,100,1019,1419,4008,38022,,,
38023,7,110.830191,24.82252,恭城镇,,450332,0773,450332100000,,,,,,,,,,2,100,1019,1419,4009,38023,,,
38024,7,110.902935,25.126434,栗木镇,,450332,0773,450332101000,,,,,,,,,,2,100,1019,1419,4009,38024,,,
38025,7,110.875218,24.728027,莲花镇,,450332,0773,450332102000,,,,,,,,,,2,100,1019,1419,4009,38025,,,
38026,7,110.82841,24.831682,嘉会镇,,450332,0773,450332103000,,,,,,,,,,2,100,1019,1419,4009,38026,,,
38027,7,110.82841,24.831682,西岭镇,,450332,0773,450332104000,,,,,,,,,,2,100,1019,1419,4009,38027,,,
38028,7,110.82841,24.831682,平安镇,,450332,0773,450332105000,,,,,,,,,,2,100,1019,1419,4009,38028,,,
38029,7,111.104847,24.75928,三江乡,,450332,0773,450332201000,,,,,,,,,,2,100,1019,1419,4009,38029,,,
38030,7,110.968648,25.180831,观音乡,,450332,0773,450332204000,,,,,,,,,,2,100,1019,1419,4009,38030,,,
38031,7,110.953161,25.075259,龙虎乡,,450332,0773,450332205000,,,,,,,,,,2,100,1019,1419,4009,38031,,,
38032,7,110.399386,24.484422,荔城镇,,450331,0773,450381100000,,,,,,,,,,2,100,1019,1419,4010,38032,,,
38033,7,110.515841,24.539659,东昌镇,,450331,0773,450381101000,,,,,,,,,,2,100,1019,1419,4010,38033,,,
38034,7,110.448812,24.47769,新坪镇,,450331,0773,450381102000,,,,,,,,,,2,100,1019,1419,4010,38034,,,
38035,7,110.397636,24.401594,杜莫镇,,450331,0773,450381103000,,,,,,,,,,2,100,1019,1419,4010,38035,,,
38036,7,110.322805,24.457471,青山镇,,450331,0773,450381104000,,,,,,,,,,2,100,1019,1419,4010,38036,,,
38037,7,110.249135,24.430037,修仁镇,,450331,0773,450381105000,,,,,,,,,,2,100,1019,1419,4010,38037,,,
38038,7,110.315986,24.515132,大塘镇,,450331,0773,450381106000,,,,,,,,,,2,100,1019,1419,4010,38038,,,
38039,7,110.319039,24.616525,花箦镇,,450331,0773,450381107000,,,,,,,,,,2,100,1019,1419,4010,38039,,,
38040,7,110.389011,24.615578,双江镇,,450331,0773,450381108000,,,,,,,,,,2,100,1019,1419,4010,38040,,,
38041,7,110.437488,24.610642,马岭镇,,450331,0773,450381109000,,,,,,,,,,2,100,1019,1419,4010,38041,,,
38042,7,110.337794,24.361405,龙怀乡,,450331,0773,450381200000,,,,,,,,,,2,100,1019,1419,4010,38042,,,
38043,7,110.24462,24.484931,茶城乡,,450331,0773,450381201000,,,,,,,,,,2,100,1019,1419,4010,38043,,,
38044,7,110.232885,24.530482,蒲芦瑶族乡,,450331,0773,450381202000,,,,,,,,,,2,100,1019,1419,4010,38044,,,
38045,7,111.302476,23.471914,角嘴街道,,450403,0774,450403005000,,,,,,,,,,2,100,1019,1420,4011,38045,,,
38046,7,111.301246,23.482109,东兴街道,,450403,0774,450403006000,,,,,,,,,,2,100,1019,1420,4011,38046,,,
38047,7,111.306956,23.484613,富民街道,,450403,0774,450403007000,,,,,,,,,,2,100,1019,1420,4011,38047,,,
38048,7,111.317989,23.472756,城南街道,,450403,0774,450403008000,,,,,,,,,,2,100,1019,1420,4011,38048,,,
38049,7,111.314064,23.48019,城北街道,,450403,0774,450403009000,,,,,,,,,,2,100,1019,1420,4011,38049,,,
38050,7,111.377175,23.477904,城东镇,,450403,0774,450403101000,,,,,,,,,,2,100,1019,1420,4011,38050,,,
38051,7,111.304907,23.472815,龙湖镇,,450403,0774,450403103000,,,,,,,,,,2,100,1019,1420,4011,38051,,,
38052,7,111.289289,23.593759,夏郢镇,,450403,0774,450403104000,,,,,,,,,,2,100,1019,1420,4011,38052,,,
38053,7,111.27944,23.484958,大塘街道,,450405,0774,450405001000,,,,,,,,,,2,100,1019,1420,4012,38053,,,
38054,7,111.267894,23.481572,兴龙街道,,450405,0774,450405002000,,,,,,,,,,2,100,1019,1420,4012,38054,,,
38055,7,111.274777,23.485695,红岭街道,,450405,0774,450405003000,,,,,,,,,,2,100,1019,1420,4012,38055,,,
38056,7,111.262814,23.465368,长洲镇,,450405,0774,450405101000,,,,,,,,,,2,100,1019,1420,4012,38056,,,
38057,7,111.136453,23.571615,倒水镇,,450405,0774,450405102000,,,,,,,,,,2,100,1019,1420,4012,38057,,,
38058,7,111.239969,23.406865,龙圩镇,,450406,0774,450406100000,,,,,,,,,,2,100,1019,1420,4013,38058,,,
38059,7,111.301288,23.273077,大坡镇,,450406,0774,450406101000,,,,,,,,,,2,100,1019,1420,4013,38059,,,
38060,7,111.311137,23.091649,广平镇,,450406,0774,450406102000,,,,,,,,,,2,100,1019,1420,4013,38060,,,
38061,7,111.184737,23.238918,新地镇,,450406,0774,450406103000,,,,,,,,,,2,100,1019,1420,4013,38061,,,
38062,7,111.544884,23.842402,石桥镇,,450421,0774,450421100000,,,,,,,,,,2,100,1019,1420,4014,38062,,,
38063,7,111.534489,23.938679,沙头镇,,450421,0774,450421101000,,,,,,,,,,2,100,1019,1420,4014,38063,,,
38064,7,111.511005,23.768379,梨埠镇,,450421,0774,450421102000,,,,,,,,,,2,100,1019,1420,4014,38064,,,
38065,7,110.999879,23.570844,岭脚镇,,450421,0774,450421105000,,,,,,,,,,2,100,1019,1420,4014,38065,,,
38066,7,111.047065,23.716759,京南镇,,450421,0774,450421108000,,,,,,,,,,2,100,1019,1420,4014,38066,,,
38067,7,111.135681,23.813897,狮寨镇,,450421,0774,450421109000,,,,,,,,,,2,100,1019,1420,4014,38067,,,
38068,7,111.356764,23.555098,旺甫镇,,450421,0774,450421110000,,,,,,,,,,2,100,1019,1420,4014,38068,,,
38069,7,111.380906,23.812374,六堡镇,,450421,0774,450421112000,,,,,,,,,,2,100,1019,1420,4014,38069,,,
38070,7,111.557422,23.648967,木双镇,,450421,0774,450421114000,,,,,,,,,,2,100,1019,1420,4014,38070,,,
38071,7,110.923443,23.3968,藤州镇,,450422,0774,450422100000,,,,,,,,,,2,100,1019,1420,4015,38071,,,
38072,7,111.045476,23.35235,塘步镇,,450422,0774,450422103000,,,,,,,,,,2,100,1019,1420,4015,38072,,,
38073,7,111.100975,23.261959,埌南镇,,450422,0774,450422104000,,,,,,,,,,2,100,1019,1420,4015,38073,,,
38074,7,111.005005,23.200943,同心镇,,450422,0774,450422105000,,,,,,,,,,2,100,1019,1420,4015,38074,,,
38075,7,110.821837,23.226815,金鸡镇,,450422,0774,450422106000,,,,,,,,,,2,100,1019,1420,4015,38075,,,
38076,7,110.749424,23.265825,新庆镇,,450422,0774,450422107000,,,,,,,,,,2,100,1019,1420,4015,38076,,,
38077,7,110.737811,23.167338,象棋镇,,450422,0774,450422108000,,,,,,,,,,2,100,1019,1420,4015,38077,,,
38078,7,110.647848,23.142448,岭景镇,,450422,0774,450422109000,,,,,,,,,,2,100,1019,1420,4015,38078,,,
38079,7,110.716636,23.379122,天平镇,,450422,0774,450422110000,,,,,,,,,,2,100,1019,1420,4015,38079,,,
38080,7,110.743876,23.466934,蒙江镇,,450422,0774,450422111000,,,,,,,,,,2,100,1019,1420,4015,38080,,,
38081,7,110.658059,23.536744,和平镇,,450422,0774,450422112000,,,,,,,,,,2,100,1019,1420,4015,38081,,,
38082,7,110.700231,23.653389,太平镇,,450422,0774,450422113000,,,,,,,,,,2,100,1019,1420,4015,38082,,,
38083,7,110.888939,23.654793,古龙镇,,450422,0774,450422114000,,,,,,,,,,2,100,1019,1420,4015,38083,,,
38084,7,110.650311,23.760241,东荣镇,,450422,0774,450422115000,,,,,,,,,,2,100,1019,1420,4015,38084,,,
38085,7,110.554258,23.889295,大黎镇,,450422,0774,450422116000,,,,,,,,,,2,100,1019,1420,4015,38085,,,
38086,7,110.754192,23.784568,平福乡,,450422,0774,450422200000,,,,,,,,,,2,100,1019,1420,4015,38086,,,
38087,7,110.40714,23.88283,宁康乡,,450422,0774,450422201000,,,,,,,,,,2,100,1019,1420,4015,38087,,,
38088,7,110.524047,24.200259,蒙山镇,,450423,0774,450423100000,,,,,,,,,,2,100,1019,1420,4016,38088,,,
38089,7,110.522728,24.190079,西河镇,,450423,0774,450423101000,,,,,,,,,,2,100,1019,1420,4016,38089,,,
38090,7,110.436965,24.263947,新圩镇,,450423,0774,450423102000,,,,,,,,,,2,100,1019,1420,4016,38090,,,
38091,7,110.510976,24.115813,文圩镇,,450423,0774,450423103000,,,,,,,,,,2,100,1019,1420,4016,38091,,,
38092,7,110.615373,24.070555,黄村镇,,450423,0774,450423104000,,,,,,,,,,2,100,1019,1420,4016,38092,,,
38093,7,110.676881,23.894968,陈塘镇,,450423,0774,450423105000,,,,,,,,,,2,100,1019,1420,4016,38093,,,
38094,7,110.621934,23.96898,汉豪乡,,450423,0774,450423200000,,,,,,,,,,2,100,1019,1420,4016,38094,,,
38095,7,110.519301,24.33934,长坪瑶族乡,,450423,0774,450423201000,,,,,,,,,,2,100,1019,1420,4016,38095,,,
38096,7,110.415363,24.077024,夏宜瑶族乡,,450423,0774,450423202000,,,,,,,,,,2,100,1019,1420,4016,38096,,,
38097,7,111.000376,22.916533,岑城镇,,450481,0774,450481100000,,,,,,,,,,2,100,1019,1420,4017,38097,,,
38098,7,110.903294,22.901634,马路镇,,450481,0774,450481102000,,,,,,,,,,2,100,1019,1420,4017,38098,,,
38099,7,110.830121,22.849145,南渡镇,,450481,0774,450481103000,,,,,,,,,,2,100,1019,1420,4017,38099,,,
38100,7,110.988558,22.680178,水汶镇,,450481,0774,450481105000,,,,,,,,,,2,100,1019,1420,4017,38100,,,
38101,7,111.005315,22.762366,大隆镇,,450481,0774,450481106000,,,,,,,,,,2,100,1019,1420,4017,38101,,,
38102,7,111.123599,22.795687,梨木镇,,450481,0774,450481107000,,,,,,,,,,2,100,1019,1420,4017,38102,,,
38103,7,111.197042,22.901331,大业镇,,450481,0774,450481108000,,,,,,,,,,2,100,1019,1420,4017,38103,,,
38104,7,111.287501,22.899857,筋竹镇,,450481,0774,450481109000,,,,,,,,,,2,100,1019,1420,4017,38104,,,
38105,7,111.239953,23.014877,诚谏镇,,450481,0774,450481110000,,,,,,,,,,2,100,1019,1420,4017,38105,,,
38106,7,111.090865,22.902531,归义镇,,450481,0774,450481111000,,,,,,,,,,2,100,1019,1420,4017,38106,,,
38107,7,111.054646,23.048767,糯垌镇,,450481,0774,450481112000,,,,,,,,,,2,100,1019,1420,4017,38107,,,
38108,7,111.09072,23.10809,安平镇,,450481,0774,450481113000,,,,,,,,,,2,100,1019,1420,4017,38108,,,
38109,7,110.922464,23.104308,三堡镇,,450481,0774,450481114000,,,,,,,,,,2,100,1019,1420,4017,38109,,,
38110,7,110.855464,23.011926,波塘镇,,450481,0774,450481115000,,,,,,,,,,2,100,1019,1420,4017,38110,,,
38111,7,109.11721,21.475005,中街街道,,450502,0779,450502001000,,,,,,,,,,2,100,1019,1421,4018,38111,,,
38112,7,109.143661,21.465219,东街街道,,450502,0779,450502002000,,,,,,,,,,2,100,1019,1421,4018,38112,,,
38113,7,109.113655,21.463935,西街街道,,450502,0779,450502003000,,,,,,,,,,2,100,1019,1421,4018,38113,,,
38114,7,109.106557,21.479681,海角街道,,450502,0779,450502004000,,,,,,,,,,2,100,1019,1421,4018,38114,,,
38115,7,109.080511,21.478086,地角街道,,450502,0779,450502005000,,,,,,,,,,2,100,1019,1421,4018,38115,,,
38116,7,109.157556,21.499336,高德街道,,450502,0779,450502006000,,,,,,,,,,2,100,1019,1421,4018,38116,,,
38117,7,109.139711,21.47243,驿马街道,,450502,0779,450502007000,,,,,,,,,,2,100,1019,1421,4018,38117,,,
38118,7,109.121313,21.03856,涠洲镇,,450502,0779,450502100000,,,,,,,,,,2,100,1019,1421,4018,38118,,,
38119,7,109.335499,21.567773,福成镇,,450503,0779,450503100000,,,,,,,,,,2,100,1019,1421,4019,38119,,,
38120,7,109.156697,21.418886,银滩镇,,450503,0779,450503101000,,,,,,,,,,2,100,1019,1421,4019,38120,,,
38121,7,109.212757,21.508745,平阳镇,,450503,0779,450503102000,,,,,,,,,,2,100,1019,1421,4019,38121,,,
38122,7,109.122824,21.425104,侨港镇,,450503,0779,450503103000,,,,,,,,,,2,100,1019,1421,4019,38122,,,
38123,7,109.44932,21.588904,南康镇,,450512,0779,450512100000,,,,,,,,,,2,100,1019,1421,4020,38123,,,
38124,7,109.449201,21.457885,营盘镇,,450512,0779,450512101000,,,,,,,,,,2,100,1019,1421,4020,38124,,,
38125,7,109.538606,21.581806,兴港镇,,450512,0779,450512102000,,,,,,,,,,2,100,1019,1421,4020,38125,,,
38126,7,109.200622,21.659891,廉州镇,,450521,0779,450521100000,,,,,,,,,,2,100,1019,1421,4021,38126,,,
38127,7,109.122865,21.648783,党江镇,,450521,0779,450521101000,,,,,,,,,,2,100,1019,1421,4021,38127,,,
38128,7,108.965278,21.632939,西场镇,,450521,0779,450521102000,,,,,,,,,,2,100,1019,1421,4021,38128,,,
38129,7,109.047999,21.678008,沙岗镇,,450521,0779,450521103000,,,,,,,,,,2,100,1019,1421,4021,38129,,,
38130,7,109.035087,21.768611,乌家镇,,450521,0779,450521104000,,,,,,,,,,2,100,1019,1421,4021,38130,,,
38131,7,109.48314,21.708131,闸口镇,,450521,0779,450521105000,,,,,,,,,,2,100,1019,1421,4021,38131,,,
38132,7,109.608246,21.785917,公馆镇,,450521,0779,450521106000,,,,,,,,,,2,100,1019,1421,4021,38132,,,
38133,7,109.689715,21.701047,白沙镇,,450521,0779,450521107000,,,,,,,,,,2,100,1019,1421,4021,38133,,,
38134,7,109.732747,21.611268,山口镇,,450521,0779,450521108000,,,,,,,,,,2,100,1019,1421,4021,38134,,,
38135,7,109.667908,21.517441,沙田镇,,450521,0779,450521109000,,,,,,,,,,2,100,1019,1421,4021,38135,,,
38136,7,109.235409,21.765946,石湾镇,,450521,0779,450521110000,,,,,,,,,,2,100,1019,1421,4021,38136,,,
38137,7,109.33633,21.747349,石康镇,,450521,0779,450521111000,,,,,,,,,,2,100,1019,1421,4021,38137,,,
38138,7,109.411819,21.820232,常乐镇,,450521,0779,450521112000,,,,,,,,,,2,100,1019,1421,4021,38138,,,
38139,7,109.133443,21.719604,星岛湖镇,,450521,0779,450521113000,,,,,,,,,,2,100,1019,1421,4021,38139,,,
38140,7,109.565951,21.848979,曲樟乡,,450521,0779,450521200000,,,,,,,,,,2,100,1019,1421,4021,38140,,,
38141,7,108.37143,21.644441,渔州坪街道,,450602,0770,450602001000,,,,,,,,,,2,100,1019,1422,4022,38141,,,
38142,7,108.35013,21.61287,白沙万街道,,450602,0770,450602002000,,,,,,,,,,2,100,1019,1422,4022,38142,,,
38143,7,108.389151,21.693314,沙潭江街道,,450602,0770,450602003000,,,,,,,,,,2,100,1019,1422,4022,38143,,,
38144,7,108.380144,21.643384,王府街道,,450602,0770,450602004000,,,,,,,,,,2,100,1019,1422,4022,38144,,,
38145,7,108.479063,21.575403,企沙镇,,450602,0770,450602100000,,,,,,,,,,2,100,1019,1422,4022,38145,,,
38146,7,108.491047,21.652153,光坡镇,,450602,0770,450602101000,,,,,,,,,,2,100,1019,1422,4022,38146,,,
38147,7,108.35916,21.75255,水营街道,,450603,0770,450603001000,,,,,,,,,,2,100,1019,1422,4023,38147,,,
38148,7,108.352862,21.769237,珠河街道,,450603,0770,450603002000,,,,,,,,,,2,100,1019,1422,4023,38148,,,
38149,7,108.353499,21.769212,文昌街道,,450603,0770,450603003000,,,,,,,,,,2,100,1019,1422,4023,38149,,,
38150,7,108.128588,21.863522,大菉镇,,450603,0770,450603101000,,,,,,,,,,2,100,1019,1422,4023,38150,,,
38151,7,108.248691,21.754192,华石镇,,450603,0770,450603102000,,,,,,,,,,2,100,1019,1422,4023,38151,,,
38152,7,108.117635,21.72201,那梭镇,,450603,0770,450603103000,,,,,,,,,,2,100,1019,1422,4023,38152,,,
38153,7,107.852382,21.682058,那良镇,,450603,0770,450603104000,,,,,,,,,,2,100,1019,1422,4023,38153,,,
38154,7,107.534027,21.61491,峒中镇,,450603,0770,450603105000,,,,,,,,,,2,100,1019,1422,4023,38154,,,
38155,7,108.278583,21.637959,江山镇,,450603,0770,450603106000,,,,,,,,,,2,100,1019,1422,4023,38155,,,
38156,7,108.457944,21.860864,茅岭镇,,450603,0770,450603107000,,,,,,,,,,2,100,1019,1422,4023,38156,,,
38157,7,107.951782,21.814618,扶隆镇,,450603,0770,450603108000,,,,,,,,,,2,100,1019,1422,4023,38157,,,
38158,7,108.344667,21.869632,滩营乡,,450603,0770,450603203000,,,,,,,,,,2,100,1019,1422,4023,38158,,,
38159,7,108.179081,21.925421,十万山瑶族乡,,450603,0770,450603209000,,,,,,,,,,2,100,1019,1422,4023,38159,,,
38160,7,108.353499,21.769212,小峰经济作物场,,450603,0770,450603450000,,,,,,,,,,2,100,1019,1422,4023,38160,,,
38161,7,107.977461,22.140115,思阳镇,,450621,0770,450621100000,,,,,,,,,,2,100,1019,1422,4024,38161,,,
38162,7,107.668329,22.127668,在妙镇,,450621,0770,450621101000,,,,,,,,,,2,100,1019,1422,4024,38162,,,
38163,7,107.828056,21.994166,华兰镇,,450621,0770,450621102000,,,,,,,,,,2,100,1019,1422,4024,38163,,,
38164,7,107.983626,22.153672,叫安镇,,450621,0770,450621103000,,,,,,,,,,2,100,1019,1422,4024,38164,,,
38165,7,107.718312,21.9152,南屏瑶族乡,,450621,0770,450621203000,,,,,,,,,,2,100,1019,1422,4024,38165,,,
38166,7,107.717973,22.011153,平福乡,,450621,0770,450621204000,,,,,,,,,,2,100,1019,1422,4024,38166,,,
38167,7,108.083536,22.248635,那琴乡,,450621,0770,450621205000,,,,,,,,,,2,100,1019,1422,4024,38167,,,
38168,7,108.185953,22.12594,公正乡,,450621,0770,450621206000,,,,,,,,,,2,100,1019,1422,4024,38168,,,
38169,7,107.970149,21.53971,东兴镇,,450681,0770,450681100000,,,,,,,,,,2,100,1019,1422,4025,38169,,,
38170,7,108.132878,21.587075,江平镇,,450681,0770,450681101000,,,,,,,,,,2,100,1019,1422,4025,38170,,,
38171,7,107.965669,21.652457,马路镇,,450681,0770,450681102000,,,,,,,,,,2,100,1019,1422,4025,38171,,,
38172,7,108.629062,21.964108,向阳街道,,450702,0777,450702001000,,,,,,,,,,2,100,1019,1423,4026,38172,,,
38173,7,108.640584,21.94989,水东街道,,450702,0777,450702002000,,,,,,,,,,2,100,1019,1423,4026,38173,,,
38174,7,108.61852,21.945797,文峰街道,,450702,0777,450702003000,,,,,,,,,,2,100,1019,1423,4026,38174,,,
38175,7,108.612037,21.959783,南珠街道,,450702,0777,450702004000,,,,,,,,,,2,100,1019,1423,4026,38175,,,
38176,7,108.65721,21.93886,尖山街道,,450702,0777,450702005000,,,,,,,,,,2,100,1019,1423,4026,38176,,,
38177,7,108.636279,21.949883,沙埠镇,,450702,0777,450702100000,,,,,,,,,,2,100,1019,1423,4026,38177,,,
38178,7,108.511464,21.913117,康熙岭镇,,450702,0777,450702101000,,,,,,,,,,2,100,1019,1423,4026,38178,,,
38179,7,108.52437,21.980402,黄屋屯镇,,450702,0777,450702102000,,,,,,,,,,2,100,1019,1423,4026,38179,,,
38180,7,108.647759,21.842187,大番坡镇,,450702,0777,450702104000,,,,,,,,,,2,100,1019,1423,4026,38180,,,
38181,7,108.544834,21.740838,龙门港镇,,450702,0777,450702105000,,,,,,,,,,2,100,1019,1423,4026,38181,,,
38182,7,108.728799,22.053387,久隆镇,,450702,0777,450702107000,,,,,,,,,,2,100,1019,1423,4026,38182,,,
38183,7,108.781397,21.830748,东场镇,,450702,0777,450702108000,,,,,,,,,,2,100,1019,1423,4026,38183,,,
38184,7,108.900062,21.869706,那丽镇,,450702,0777,450702109000,,,,,,,,,,2,100,1019,1423,4026,38184,,,
38185,7,108.938668,21.979169,那彭镇,,450702,0777,450702110000,,,,,,,,,,2,100,1019,1423,4026,38185,,,
38186,7,109.037914,21.93223,那思镇,,450702,0777,450702111000,,,,,,,,,,2,100,1019,1423,4026,38186,,,
38187,7,108.745939,21.641698,犀牛脚镇,,450702,0777,450702112000,,,,,,,,,,2,100,1019,1423,4026,38187,,,
38188,7,108.882442,21.935388,丽光华侨农场,,450702,0777,450702400000,,,,,,,,,,2,100,1019,1423,4026,38188,,,
38189,7,108.602447,21.72878,钦州港经济技术开发区,,450702,0777,450702401000,,,,,,,,,,2,100,1019,1423,4026,38189,,,
38190,7,108.758317,21.622137,三娘湾旅游管理区,,450702,0777,450702402000,,,,,,,,,,2,100,1019,1423,4026,38190,,,
38191,7,108.651623,21.689868,广西钦州保税港区,,450702,0777,450702403000,,,,,,,,,,2,100,1019,1423,4026,38191,,,
38192,7,108.687572,21.784204,中马钦州产业园区,,450702,0777,450702404000,,,,,,,,,,2,100,1019,1423,4026,38192,,,
38193,7,108.639511,22.000011,长田街道,,450703,0777,450703001000,,,,,,,,,,2,100,1019,1423,4027,38193,,,
38194,7,108.660134,21.965778,鸿亭街道,,450702,0777,450703002000,,,,,,,,,,2,100,1019,1423,4027,38194,,,
38195,7,108.61908,21.97076,子材街道,,450703,0777,450703003000,,,,,,,,,,2,100,1019,1423,4027,38195,,,
38196,7,108.631617,22.104804,大垌镇,,450703,0777,450703100000,,,,,,,,,,2,100,1019,1423,4027,38196,,,
38197,7,108.764432,22.158675,平吉镇,,450703,0777,450703101000,,,,,,,,,,2,100,1019,1423,4027,38197,,,
38198,7,108.825428,22.264273,青塘镇,,450703,0777,450703102000,,,,,,,,,,2,100,1019,1423,4027,38198,,,
38199,7,108.544732,22.265074,小董镇,,450703,0777,450703103000,,,,,,,,,,2,100,1019,1423,4027,38199,,,
38200,7,108.701103,22.295748,板城镇,,450703,0777,450703104000,,,,,,,,,,2,100,1019,1423,4027,38200,,,
38201,7,108.560267,22.163305,那蒙镇,,450703,0777,450703105000,,,,,,,,,,2,100,1019,1423,4027,38201,,,
38202,7,108.605465,22.302941,长滩镇,,450703,0777,450703106000,,,,,,,,,,2,100,1019,1423,4027,38202,,,
38203,7,108.59919,22.405859,新棠镇,,450703,0777,450703107000,,,,,,,,,,2,100,1019,1423,4027,38203,,,
38204,7,108.371996,21.989435,大直镇,,450703,0777,450703108000,,,,,,,,,,2,100,1019,1423,4027,38204,,,
38205,7,108.453549,22.125974,大寺镇,,450703,0777,450703109000,,,,,,,,,,2,100,1019,1423,4027,38205,,,
38206,7,108.326208,22.172973,贵台镇,,450703,0777,450703110000,,,,,,,,,,2,100,1019,1423,4027,38206,,,
38207,7,109.296504,22.425,灵城街道,,450721,0777,450721001000,,,,,,,,,,2,100,1019,1423,4028,38207,,,
38208,7,109.291007,22.416537,三海街道,,450721,0777,450721002000,,,,,,,,,,2,100,1019,1423,4028,38208,,,
38209,7,109.292775,22.379041,新圩镇,,450721,0777,450721101000,,,,,,,,,,2,100,1019,1423,4028,38209,,,
38210,7,109.313903,22.564039,丰塘镇,,450721,0777,450721102000,,,,,,,,,,2,100,1019,1423,4028,38210,,,
38211,7,109.436497,22.51079,平山镇,,450721,0777,450721103000,,,,,,,,,,2,100,1019,1423,4028,38211,,,
38212,7,109.50857,22.581958,石塘镇,,450721,0777,450721104000,,,,,,,,,,2,100,1019,1423,4028,38212,,,
38213,7,109.379772,22.439792,佛子镇,,450721,0777,450721105000,,,,,,,,,,2,100,1019,1423,4028,38213,,,
38214,7,109.213165,22.510369,平南镇,,450721,0777,450721106000,,,,,,,,,,2,100,1019,1423,4028,38214,,,
38215,7,109.084675,22.476778,烟墩镇,,450721,0777,450721107000,,,,,,,,,,2,100,1019,1423,4028,38215,,,
38216,7,109.205083,22.340005,檀圩镇,,450721,0777,450721108000,,,,,,,,,,2,100,1019,1423,4028,38216,,,
38217,7,109.109464,22.327021,那隆镇,,450721,0777,450721109000,,,,,,,,,,2,100,1019,1423,4028,38217,,,
38218,7,108.997071,22.299877,三隆镇,,450721,0777,450721110000,,,,,,,,,,2,100,1019,1423,4028,38218,,,
38219,7,108.950959,22.277446,陆屋镇,,450721,0777,450721111000,,,,,,,,,,2,100,1019,1423,4028,38219,,,
38220,7,108.941286,22.395678,旧州镇,,450721,0777,450721112000,,,,,,,,,,2,100,1019,1423,4028,38220,,,
38221,7,108.811828,22.430132,太平镇,,450721,0777,450721113000,,,,,,,,,,2,100,1019,1423,4028,38221,,,
38222,7,108.967301,22.51801,沙坪镇,,450721,0777,450721114000,,,,,,,,,,2,100,1019,1423,4028,38222,,,
38223,7,109.239885,22.162868,武利镇,,450721,0777,450721115000,,,,,,,,,,2,100,1019,1423,4028,38223,,,
38224,7,109.262708,22.01879,文利镇,,450721,0777,450721116000,,,,,,,,,,2,100,1019,1423,4028,38224,,,
38225,7,109.10983,22.10805,伯劳镇,,450721,0777,450721117000,,,,,,,,,,2,100,1019,1423,4028,38225,,,
38226,7,109.556953,22.271651,小江街道,,450722,0777,450722001000,,,,,,,,,,2,100,1019,1423,4029,38226,,,
38227,7,109.556953,22.271651,江城街道,,450722,0777,450722002000,,,,,,,,,,2,100,1019,1423,4029,38227,,,
38228,7,109.4823,21.904285,泉水镇,,450722,0777,450722101000,,,,,,,,,,2,100,1019,1423,4029,38228,,,
38229,7,109.593368,21.946992,石埇镇,,450722,0777,450722102000,,,,,,,,,,2,100,1019,1423,4029,38229,,,
38230,7,109.510964,21.979012,安石镇,,450722,0777,450722103000,,,,,,,,,,2,100,1019,1423,4029,38230,,,
38231,7,109.460437,22.007922,张黄镇,,450722,0777,450722104000,,,,,,,,,,2,100,1019,1423,4029,38231,,,
38232,7,109.332723,22.01897,大成镇,,450722,0777,450722105000,,,,,,,,,,2,100,1019,1423,4029,38232,,,
38233,7,109.286022,22.093274,白石水镇,,450722,0777,450722106000,,,,,,,,,,2,100,1019,1423,4029,38233,,,
38234,7,109.330411,22.224512,北通镇,,450722,0777,450722107000,,,,,,,,,,2,100,1019,1423,4029,38234,,,
38235,7,109.425035,22.330737,三合镇,,450722,0777,450722108000,,,,,,,,,,2,100,1019,1423,4029,38235,,,
38236,7,109.467238,22.181632,龙门镇,,450722,0777,450722109000,,,,,,,,,,2,100,1019,1423,4029,38236,,,
38237,7,109.559131,22.409894,福旺镇,,450722,0777,450722110000,,,,,,,,,,2,100,1019,1423,4029,38237,,,
38238,7,109.628532,22.568293,寨圩镇,,450722,0777,450722111000,,,,,,,,,,2,100,1019,1423,4029,38238,,,
38239,7,109.514211,22.595819,乐民镇,,450722,0777,450722112000,,,,,,,,,,2,100,1019,1423,4029,38239,,,
38240,7,109.79332,22.479822,六硍镇,,450722,0777,450722113000,,,,,,,,,,2,100,1019,1423,4029,38240,,,
38241,7,109.802677,22.345291,平睦镇,,450722,0777,450722114000,,,,,,,,,,2,100,1019,1423,4029,38241,,,
38242,7,109.681519,22.428857,官垌镇,,450722,0777,450722115000,,,,,,,,,,2,100,1019,1423,4029,38242,,,
38243,7,109.607851,23.091119,贵城街道,,450802,1755,450802001000,,,,,,,,,,2,100,1019,1424,4030,38243,,,
38244,7,109.57224,23.111531,港城街道,,450802,1755,450802002000,,,,,,,,,,2,100,1019,1424,4030,38244,,,
38245,7,109.742378,23.183705,大圩镇,,450802,1755,450802101000,,,,,,,,,,2,100,1019,1424,4030,38245,,,
38246,7,109.767206,23.253898,庆丰镇,,450802,1755,450802102000,,,,,,,,,,2,100,1019,1424,4030,38246,,,
38247,7,109.495297,23.120587,根竹镇,,450802,1755,450802103000,,,,,,,,,,2,100,1019,1424,4030,38247,,,
38248,7,109.793238,23.114179,武乐镇,,450802,1755,450802104000,,,,,,,,,,2,100,1019,1424,4030,38248,,,
38249,7,109.685571,23.29834,奇石乡,,450802,1755,450802200000,,,,,,,,,,2,100,1019,1424,4030,38249,,,
38250,7,109.622386,23.247163,中里乡,,450802,1755,450802201000,,,,,,,,,,2,100,1019,1424,4030,38250,,,
38251,7,109.599557,23.075573,江南街道,,450803,1755,450803001000,,,,,,,,,,2,100,1019,1424,4031,38251,,,
38252,7,109.691998,23.023508,八塘街道,,450803,1755,450803002000,,,,,,,,,,2,100,1019,1424,4031,38252,,,
38253,7,109.767429,22.950978,桥圩镇,,450803,1755,450803100000,,,,,,,,,,2,100,1019,1424,4031,38253,,,
38254,7,109.726293,22.841334,木格镇,,450803,1755,450803101000,,,,,,,,,,2,100,1019,1424,4031,38254,,,
38255,7,109.631845,22.776652,木梓镇,,450803,1755,450803102000,,,,,,,,,,2,100,1019,1424,4031,38255,,,
38256,7,109.797815,22.902119,湛江镇,,450803,1755,450803103000,,,,,,,,,,2,100,1019,1424,4031,38256,,,
38257,7,109.815138,23.070855,东津镇,,450803,1755,450803104000,,,,,,,,,,2,100,1019,1424,4031,38257,,,
38258,7,109.604844,22.99133,新塘镇,,450803,1755,450803106000,,,,,,,,,,2,100,1019,1424,4031,38258,,,
38259,7,109.599557,23.075573,瓦塘镇,,450803,1755,450803107000,,,,,,,,,,2,100,1019,1424,4031,38259,,,
38260,7,109.41245,23.133654,覃塘街道,,450804,1755,450804001000,,,,,,,,,,2,100,1019,1424,4032,38260,,,
38261,7,109.472308,23.295352,东龙镇,,450804,1755,450804101000,,,,,,,,,,2,100,1019,1424,4032,38261,,,
38262,7,109.397414,23.053739,三里镇,,450804,1755,450804102000,,,,,,,,,,2,100,1019,1424,4032,38262,,,
38263,7,109.320782,23.155878,黄练镇,,450804,1755,450804103000,,,,,,,,,,2,100,1019,1424,4032,38263,,,
38264,7,109.528332,22.952527,石卡镇,,450804,1755,450804104000,,,,,,,,,,2,100,1019,1424,4032,38264,,,
38265,7,109.400051,22.961677,五里镇,,450804,1755,450804105000,,,,,,,,,,2,100,1019,1424,4032,38265,,,
38266,7,109.324166,23.328889,樟木镇,,450804,1755,450804106000,,,,,,,,,,2,100,1019,1424,4032,38266,,,
38267,7,109.417645,23.244015,蒙公镇,,450804,1755,450804107000,,,,,,,,,,2,100,1019,1424,4032,38267,,,
38268,7,109.411066,23.294324,山北乡,,450804,1755,450804200000,,,,,,,,,,2,100,1019,1424,4032,38268,,,
38269,7,109.540271,22.880027,大岭乡,,450804,1755,450804204000,,,,,,,,,,2,100,1019,1424,4032,38269,,,
38270,7,110.392168,23.539127,平南街道,,450821,1755,450821001000,,,,,,,,,,2,100,1019,1424,4033,38270,,,
38271,7,110.392168,23.539127,上渡街道,,450821,1755,450821002000,,,,,,,,,,2,100,1019,1424,4033,38271,,,
38272,7,110.437576,23.056237,平山镇,,450821,1755,450821101000,,,,,,,,,,2,100,1019,1424,4033,38272,,,
38273,7,110.458632,23.152652,寺面镇,,450821,1755,450821102000,,,,,,,,,,2,100,1019,1424,4033,38273,,,
38274,7,110.359402,23.189921,六陈镇,,450821,1755,450821103000,,,,,,,,,,2,100,1019,1424,4033,38274,,,
38275,7,110.463123,23.308152,大新镇,,450821,1755,450821104000,,,,,,,,,,2,100,1019,1424,4033,38275,,,
38276,7,110.515133,23.382437,大安镇,,450821,1755,450821105000,,,,,,,,,,2,100,1019,1424,4033,38276,,,
38277,7,110.539669,23.417464,武林镇,,450821,1755,450821106000,,,,,,,,,,2,100,1019,1424,4033,38277,,,
38278,7,110.533363,23.20625,大坡镇,,450821,1755,450821107000,,,,,,,,,,2,100,1019,1424,4033,38278,,,
38279,7,110.598692,23.270946,大洲镇,,450821,1755,450821108000,,,,,,,,,,2,100,1019,1424,4033,38279,,,
38280,7,110.41499,23.409415,镇隆镇,,450821,1755,450821109000,,,,,,,,,,2,100,1019,1424,4033,38280,,,
38281,7,110.429935,23.603943,安怀镇,,450821,1755,450821112000,,,,,,,,,,2,100,1019,1424,4033,38281,,,
38282,7,110.527001,23.469116,丹竹镇,,450821,1755,450821113000,,,,,,,,,,2,100,1019,1424,4033,38282,,,
38283,7,110.365673,23.654097,官成镇,,450821,1755,450821114000,,,,,,,,,,2,100,1019,1424,4033,38283,,,
38284,7,110.310274,23.678102,思旺镇,,450821,1755,450821115000,,,,,,,,,,2,100,1019,1424,4033,38284,,,
38285,7,110.182619,23.746469,大鹏镇,,450821,1755,450821116000,,,,,,,,,,2,100,1019,1424,4033,38285,,,
38286,7,110.459298,23.796492,同和镇,,450821,1755,450821117000,,,,,,,,,,2,100,1019,1424,4033,38286,,,
38287,7,110.541583,23.568607,东华镇,,450821,1755,450821118000,,,,,,,,,,2,100,1019,1424,4033,38287,,,
38288,7,110.29978,23.575923,思界乡,,450821,1755,450821204000,,,,,,,,,,2,100,1019,1424,4033,38288,,,
38289,7,110.262384,23.839944,国安瑶族乡,,450821,1755,450821205000,,,,,,,,,,2,100,1019,1424,4033,38289,,,
38290,7,110.32527,23.92826,马练瑶族乡,,450821,1755,450821206000,,,,,,,,,,2,100,1019,1424,4033,38290,,,
38291,7,110.351956,23.42016,木乐镇,,450881,1755,450881101000,,,,,,,,,,2,100,1019,1424,4034,38291,,,
38292,7,110.304656,23.532024,木圭镇,,450881,1755,450881102000,,,,,,,,,,2,100,1019,1424,4034,38292,,,
38293,7,110.172259,23.462837,石咀镇,,450881,1755,450881103000,,,,,,,,,,2,100,1019,1424,4034,38293,,,
38294,7,110.249077,23.272092,油麻镇,,450881,1755,450881104000,,,,,,,,,,2,100,1019,1424,4034,38294,,,
38295,7,110.212254,23.376908,社坡镇,,450881,1755,450881105000,,,,,,,,,,2,100,1019,1424,4034,38295,,,
38296,7,110.293463,23.064505,罗秀镇,,450881,1755,450881106000,,,,,,,,,,2,100,1019,1424,4034,38296,,,
38297,7,110.165109,23.152635,麻垌镇,,450881,1755,450881107000,,,,,,,,,,2,100,1019,1424,4034,38297,,,
38298,7,110.098751,23.260238,社步镇,,450881,1755,450881108000,,,,,,,,,,2,100,1019,1424,4034,38298,,,
38299,7,110.011855,23.239649,下湾镇,,450881,1755,450881109000,,,,,,,,,,2,100,1019,1424,4034,38299,,,
38300,7,110.106834,23.071925,木根镇,,450881,1755,450881110000,,,,,,,,,,2,100,1019,1424,4034,38300,,,
38301,7,110.155132,22.936638,中沙镇,,450881,1755,450881111000,,,,,,,,,,2,100,1019,1424,4034,38301,,,
38302,7,110.008167,23.013787,大洋镇,,450881,1755,450881113000,,,,,,,,,,2,100,1019,1424,4034,38302,,,
38303,7,109.899648,23.108287,大湾镇,,450881,1755,450881114000,,,,,,,,,,2,100,1019,1424,4034,38303,,,
38304,7,109.929057,23.202002,白沙镇,,450881,1755,450881115000,,,,,,,,,,2,100,1019,1424,4034,38304,,,
38305,7,109.808162,23.314868,石龙镇,,450881,1755,450881116000,,,,,,,,,,2,100,1019,1424,4034,38305,,,
38306,7,109.994233,23.318762,蒙圩镇,,450881,1755,450881117000,,,,,,,,,,2,100,1019,1424,4034,38306,,,
38307,7,110.07951,23.39544,西山镇,,450881,1755,450881118000,,,,,,,,,,2,100,1019,1424,4034,38307,,,
38308,7,110.080231,23.490361,南木镇,,450881,1755,450881119000,,,,,,,,,,2,100,1019,1424,4034,38308,,,
38309,7,110.207935,23.593755,江口镇,,450881,1755,450881120000,,,,,,,,,,2,100,1019,1424,4034,38309,,,
38310,7,110.120916,23.583633,金田镇,,450881,1755,450881121000,,,,,,,,,,2,100,1019,1424,4034,38310,,,
38311,7,110.020973,23.638333,紫荆镇,,450881,1755,450881122000,,,,,,,,,,2,100,1019,1424,4034,38311,,,
38312,7,110.232077,23.454004,马皮乡,,450881,1755,450881200000,,,,,,,,,,2,100,1019,1424,4034,38312,,,
38313,7,110.134202,23.379886,寻旺乡,,450881,1755,450881202000,,,,,,,,,,2,100,1019,1424,4034,38313,,,
38314,7,110.079824,23.021557,罗播乡,,450881,1755,450881203000,,,,,,,,,,2,100,1019,1424,4034,38314,,,
38315,7,109.855229,23.244068,厚禄乡,,450881,1755,450881204000,,,,,,,,,,2,100,1019,1424,4034,38315,,,
38316,7,110.130662,23.643531,垌心乡,,450881,1755,450881206000,,,,,,,,,,2,100,1019,1424,4034,38316,,,
38317,7,110.16208,22.622154,玉城街道,,450902,0775,450902001000,,,,,,,,,,2,100,1019,1425,4035,38317,,,
38318,7,110.156074,22.618767,南江街道,,450902,0775,450902002000,,,,,,,,,,2,100,1019,1425,4035,38318,,,
38319,7,110.132317,22.634361,城西街道,,450902,0775,450902003000,,,,,,,,,,2,100,1019,1425,4035,38319,,,
38320,7,110.148248,22.646827,城北街道,,450902,0775,450902004000,,,,,,,,,,2,100,1019,1425,4035,38320,,,
38321,7,110.171691,22.652776,名山街道,,450902,0775,450902005000,,,,,,,,,,2,100,1019,1425,4035,38321,,,
38322,7,110.145779,22.718979,大塘镇,,450902,0775,450902100000,,,,,,,,,,2,100,1019,1425,4035,38322,,,
38323,7,110.24401,22.665623,茂林镇,,450902,0775,450902105000,,,,,,,,,,2,100,1019,1425,4035,38323,,,
38324,7,110.084116,22.649633,仁东镇,,450902,0775,450902106000,,,,,,,,,,2,100,1019,1425,4035,38324,,,
38325,7,110.050034,22.64729,仁厚镇,,450902,0775,450902113000,,,,,,,,,,2,100,1019,1425,4035,38325,,,
38326,7,110.051421,22.57995,福绵镇,,450903,0775,450903107000,,,,,,,,,,2,100,1019,1425,4036,38326,,,
38327,7,109.993423,22.573299,成均镇,,450903,0775,450903108000,,,,,,,,,,2,100,1019,1425,4036,38327,,,
38328,7,110.012206,22.522601,樟木镇,,450903,0775,450903109000,,,,,,,,,,2,100,1019,1425,4036,38328,,,
38329,7,110.10384,22.518423,新桥镇,,450903,0775,450903110000,,,,,,,,,,2,100,1019,1425,4036,38329,,,
38330,7,110.052835,22.379447,沙田镇,,450903,0775,450903111000,,,,,,,,,,2,100,1019,1425,4036,38330,,,
38331,7,110.08325,22.468528,石和镇,,450903,0775,450903112000,,,,,,,,,,2,100,1019,1425,4036,38331,,,
38332,7,110.556343,22.85671,容州镇,,450921,0775,450921100000,,,,,,,,,,2,100,1019,1425,4037,38332,,,
38333,7,110.657989,22.702756,杨梅镇,,450921,0775,450921102000,,,,,,,,,,2,100,1019,1425,4037,38333,,,
38334,7,110.58827,22.64747,灵山镇,,450921,0775,450921103000,,,,,,,,,,2,100,1019,1425,4037,38334,,,
38335,7,110.747332,22.79246,六王镇,,450921,0775,450921104000,,,,,,,,,,2,100,1019,1425,4037,38335,,,
38336,7,110.730874,22.581681,黎村镇,,450921,0775,450921105000,,,,,,,,,,2,100,1019,1425,4037,38336,,,
38337,7,110.79134,22.59988,杨村镇,,450921,0775,450921106000,,,,,,,,,,2,100,1019,1425,4037,38337,,,
38338,7,110.579121,22.985404,县底镇,,450921,0775,450921107000,,,,,,,,,,2,100,1019,1425,4037,38338,,,
38339,7,110.668698,23.058934,自良镇,,450921,0775,450921108000,,,,,,,,,,2,100,1019,1425,4037,38339,,,
38340,7,110.463643,22.984868,松山镇,,450921,0775,450921109000,,,,,,,,,,2,100,1019,1425,4037,38340,,,
38341,7,110.440314,23.051769,罗江镇,,450921,0775,450921110000,,,,,,,,,,2,100,1019,1425,4037,38341,,,
38342,7,110.346397,22.989437,石头镇,,450921,0775,450921111000,,,,,,,,,,2,100,1019,1425,4037,38342,,,
38343,7,110.584396,22.788705,石寨镇,,450921,0775,450921112000,,,,,,,,,,2,100,1019,1425,4037,38343,,,
38344,7,110.595059,22.882446,十里镇,,450921,0775,450921113000,,,,,,,,,,2,100,1019,1425,4037,38344,,,
38345,7,110.448161,22.792707,容西镇,,450981,0775,450921114000,,,,,,,,,,2,100,1019,1425,4037,38345,,,
38346,7,110.711651,22.998735,浪水镇,,450921,0775,450921115000,,,,,,,,,,2,100,1019,1425,4037,38346,,,
38347,7,110.26103,22.301149,温泉镇,,450922,0775,450922101000,,,,,,,,,,2,100,1019,1425,4038,38347,,,
38348,7,110.258583,22.403582,米场镇,,450922,0775,450922102000,,,,,,,,,,2,100,1019,1425,4038,38348,,,
38349,7,110.221992,22.490441,马坡镇,,450922,0775,450922103000,,,,,,,,,,2,100,1019,1425,4038,38349,,,
38350,7,110.231264,22.558879,珊罗镇,,450922,0775,450922104000,,,,,,,,,,2,100,1019,1425,4038,38350,,,
38351,7,110.27967,22.540801,平乐镇,,450922,0775,450922105000,,,,,,,,,,2,100,1019,1425,4038,38351,,,
38352,7,110.38517,22.32937,沙坡镇,,450922,0775,450922106000,,,,,,,,,,2,100,1019,1425,4038,38352,,,
38353,7,110.232947,22.246641,大桥镇,,450922,0775,450922107000,,,,,,,,,,2,100,1019,1425,4038,38353,,,
38354,7,110.236843,22.162665,乌石镇,,450922,0775,450922108000,,,,,,,,,,2,100,1019,1425,4038,38354,,,
38355,7,110.227251,22.042523,良田镇,,450922,0775,450922109000,,,,,,,,,,2,100,1019,1425,4038,38355,,,
38356,7,110.34602,22.03323,清湖镇,,450922,0775,450922110000,,,,,,,,,,2,100,1019,1425,4038,38356,,,
38357,7,110.346175,21.937557,古城镇,,450922,0775,450922111000,,,,,,,,,,2,100,1019,1425,4038,38357,,,
38358,7,110.183553,22.357595,沙湖镇,,450922,0775,450922112000,,,,,,,,,,2,100,1019,1425,4038,38358,,,
38359,7,110.155365,22.210945,横山镇,,450922,0775,450922113000,,,,,,,,,,2,100,1019,1425,4038,38359,,,
38360,7,110.22325,22.104488,滩面镇,,450922,0775,450922114000,,,,,,,,,,2,100,1019,1425,4038,38360,,,
38361,7,109.988998,22.268771,博白镇,,450923,0775,450923100000,,,,,,,,,,2,100,1019,1425,4039,38361,,,
38362,7,109.881433,22.407488,双凤镇,,450923,0775,450923102000,,,,,,,,,,2,100,1019,1425,4039,38362,,,
38363,7,109.790166,22.133687,顿谷镇,,450923,0775,450923105000,,,,,,,,,,2,100,1019,1425,4039,38363,,,
38364,7,109.833281,22.260821,水鸣镇,,450923,0775,450923106000,,,,,,,,,,2,100,1019,1425,4039,38364,,,
38365,7,109.673291,22.230744,那林镇,,450923,0775,450923107000,,,,,,,,,,2,100,1019,1425,4039,38365,,,
38366,7,109.625469,22.156699,江宁镇,,450923,0775,450923108000,,,,,,,,,,2,100,1019,1425,4039,38366,,,
38367,7,110.0313,22.181273,三滩镇,,450923,0775,450923109000,,,,,,,,,,2,100,1019,1425,4039,38367,,,
38368,7,110.096045,22.139271,黄凌镇,,450923,0775,450923110000,,,,,,,,,,2,100,1019,1425,4039,38368,,,
38369,7,109.946557,22.196593,亚山镇,,450923,0775,450923111000,,,,,,,,,,2,100,1019,1425,4039,38369,,,
38370,7,109.901238,22.103724,旺茂镇,,450923,0775,450923112000,,,,,,,,,,2,100,1019,1425,4039,38370,,,
38371,7,109.822815,22.004153,东平镇,,450923,0775,450923114000,,,,,,,,,,2,100,1019,1425,4039,38371,,,
38372,7,109.716544,22.061356,沙河镇,,450923,0775,450923115000,,,,,,,,,,2,100,1019,1425,4039,38372,,,
38373,7,109.656919,21.992912,菱角镇,,450923,0775,450923116000,,,,,,,,,,2,100,1019,1425,4039,38373,,,
38374,7,109.93111,21.96767,新田镇,,450923,0775,450923117000,,,,,,,,,,2,100,1019,1425,4039,38374,,,
38375,7,110.007047,22.043853,凤山镇,,450923,0775,450923118000,,,,,,,,,,2,100,1019,1425,4039,38375,,,
38376,7,110.133025,22.0205,宁潭镇,,450923,0775,450923119000,,,,,,,,,,2,100,1019,1425,4039,38376,,,
38377,7,110.205825,21.942684,文地镇,,450923,0775,450923120000,,,,,,,,,,2,100,1019,1425,4039,38377,,,
38378,7,110.078718,21.898672,英桥镇,,450923,0775,450923121000,,,,,,,,,,2,100,1019,1425,4039,38378,,,
38379,7,109.921943,21.850074,那卜镇,,450923,0775,450923122000,,,,,,,,,,2,100,1019,1425,4039,38379,,,
38380,7,109.942957,21.889862,大垌镇,,450923,0775,450923123000,,,,,,,,,,2,100,1019,1425,4039,38380,,,
38381,7,109.912129,21.77731,沙陂镇,,450923,0775,450923124000,,,,,,,,,,2,100,1019,1425,4039,38381,,,
38382,7,109.825928,21.795522,双旺镇,,450923,0775,450923125000,,,,,,,,,,2,100,1019,1425,4039,38382,,,
38383,7,109.759862,21.889728,松旺镇,,450923,0775,450923126000,,,,,,,,,,2,100,1019,1425,4039,38383,,,
38384,7,109.751857,21.737337,龙潭镇,,450923,0775,450923127000,,,,,,,,,,2,100,1019,1425,4039,38384,,,
38385,7,109.81854,21.663409,大坝镇,,450923,0775,450923128000,,,,,,,,,,2,100,1019,1425,4039,38385,,,
38386,7,109.766595,22.309806,永安镇,,450923,0775,450923129000,,,,,,,,,,2,100,1019,1425,4039,38386,,,
38387,7,110.058833,22.291043,径口镇,,450923,0775,450923130000,,,,,,,,,,2,100,1019,1425,4039,38387,,,
38388,7,109.932529,22.319319,浪平镇,,450923,0775,450923131000,,,,,,,,,,2,100,1019,1425,4039,38388,,,
38389,7,109.875693,22.7418,石南镇,,450924,0775,450924100000,,,,,,,,,,2,100,1019,1425,4040,38389,,,
38390,7,109.956706,22.677244,大平山镇,,450924,0775,450924101000,,,,,,,,,,2,100,1019,1425,4040,38390,,,
38391,7,109.8329,22.720068,葵阳镇,,450924,0775,450924102000,,,,,,,,,,2,100,1019,1425,4040,38391,,,
38392,7,109.74425,22.599892,城隍镇,,450924,0775,450924103000,,,,,,,,,,2,100,1019,1425,4040,38392,,,
38393,7,109.876941,22.820837,山心镇,,450924,0775,450924104000,,,,,,,,,,2,100,1019,1425,4040,38393,,,
38394,7,109.86642,22.919627,沙塘镇,,450924,0775,450924105000,,,,,,,,,,2,100,1019,1425,4040,38394,,,
38395,7,109.966906,22.90683,蒲塘镇,,450924,0775,450924106000,,,,,,,,,,2,100,1019,1425,4040,38395,,,
38396,7,110.088336,22.935802,北市镇,,450924,0775,450924107000,,,,,,,,,,2,100,1019,1425,4040,38396,,,
38397,7,110.024974,22.726576,龙安镇,,450924,0775,450924108000,,,,,,,,,,2,100,1019,1425,4040,38397,,,
38398,7,109.881665,22.98155,高峰镇,,450924,0775,450924109000,,,,,,,,,,2,100,1019,1425,4040,38398,,,
38399,7,110.07639,22.818382,小平山镇,,450924,0775,450924110000,,,,,,,,,,2,100,1019,1425,4040,38399,,,
38400,7,110.08242,22.768881,卖酒镇,,450924,0775,450924111000,,,,,,,,,,2,100,1019,1425,4040,38400,,,
38401,7,109.992519,22.866118,洛阳镇,,450924,0775,450924112000,,,,,,,,,,2,100,1019,1425,4040,38401,,,
38402,7,110.352775,22.707469,陵城街道,,450981,0775,450981001000,,,,,,,,,,2,100,1019,1425,4041,38402,,,
38403,7,110.344548,22.702697,城南街道,,450981,0775,450981002000,,,,,,,,,,2,100,1019,1425,4041,38403,,,
38404,7,110.345487,22.704863,城北街道,,450981,0775,450981003000,,,,,,,,,,2,100,1019,1425,4041,38404,,,
38405,7,110.345821,22.705474,北流镇,,450981,0775,450981100000,,,,,,,,,,2,100,1019,1425,4041,38405,,,
38406,7,110.456342,22.68842,新荣镇,,450981,0775,450981101000,,,,,,,,,,2,100,1019,1425,4041,38406,,,
38407,7,110.435232,22.73434,民安镇,,450981,0775,450981102000,,,,,,,,,,2,100,1019,1425,4041,38407,,,
38408,7,110.425771,22.818049,山围镇,,450981,0775,450981103000,,,,,,,,,,2,100,1019,1425,4041,38408,,,
38409,7,110.359137,22.786474,民乐镇,,450981,0775,450981104000,,,,,,,,,,2,100,1019,1425,4041,38409,,,
38410,7,110.283699,22.75301,西埌镇,,450981,0775,450981105000,,,,,,,,,,2,100,1019,1425,4041,38410,,,
38411,7,110.23553,22.739558,新圩镇,,450981,0775,450981106000,,,,,,,,,,2,100,1019,1425,4041,38411,,,
38412,7,110.153581,22.729238,大里镇,,450981,0775,450981107000,,,,,,,,,,2,100,1019,1425,4041,38412,,,
38413,7,110.274905,22.589777,塘岸镇,,450981,0775,450981108000,,,,,,,,,,2,100,1019,1425,4041,38413,,,
38414,7,110.388962,22.593221,清水口镇,,450981,0775,450981109000,,,,,,,,,,2,100,1019,1425,4041,38414,,,
38415,7,110.457488,22.529197,隆盛镇,,450981,0775,450981110000,,,,,,,,,,2,100,1019,1425,4041,38415,,,
38416,7,110.482238,22.57471,大坡外镇,,450981,0775,450981111000,,,,,,,,,,2,100,1019,1425,4041,38416,,,
38417,7,110.429286,22.444894,六麻镇,,450981,0775,450981112000,,,,,,,,,,2,100,1019,1425,4041,38417,,,
38418,7,110.52537,22.470936,新丰镇,,450981,0775,450981113000,,,,,,,,,,2,100,1019,1425,4041,38418,,,
38419,7,110.595375,22.411637,沙垌镇,,450981,0775,450981114000,,,,,,,,,,2,100,1019,1425,4041,38419,,,
38420,7,110.529185,22.383007,平政镇,,450981,0775,450981115000,,,,,,,,,,2,100,1019,1425,4041,38420,,,
38421,7,110.680793,22.333356,白马镇,,450981,0775,450981116000,,,,,,,,,,2,100,1019,1425,4041,38421,,,
38422,7,110.71155,22.29489,大伦镇,,450981,0775,450981117000,,,,,,,,,,2,100,1019,1425,4041,38422,,,
38423,7,110.674944,22.397608,扶新镇,,450981,0775,450981118000,,,,,,,,,,2,100,1019,1425,4041,38423,,,
38424,7,110.533426,22.256592,六靖镇,,450981,0775,450981119000,,,,,,,,,,2,100,1019,1425,4041,38424,,,
38425,7,110.455395,22.251196,石窝镇,,450981,0775,450981120000,,,,,,,,,,2,100,1019,1425,4041,38425,,,
38426,7,110.608231,22.229909,清湾镇,,450981,0775,450981121000,,,,,,,,,,2,100,1019,1425,4041,38426,,,
38427,7,106.625929,23.902552,百城街道,,451002,0776,451002001000,,,,,,,,,,2,100,1019,1426,4042,38427,,,
38428,7,106.621501,23.882972,龙景街道,,451002,0776,451002002000,,,,,,,,,,2,100,1019,1426,4042,38428,,,
38429,7,106.460838,23.909388,阳圩镇,,451002,0776,451002101000,,,,,,,,,,2,100,1019,1426,4042,38429,,,
38430,7,106.72879,23.810436,四塘镇,,451002,0776,451002102000,,,,,,,,,,2,100,1019,1426,4042,38430,,,
38431,7,106.809799,24.114124,龙川镇,,451002,0776,451002103000,,,,,,,,,,2,100,1019,1426,4042,38431,,,
38432,7,106.611094,23.980251,永乐镇,,451002,0776,451002104000,,,,,,,,,,2,100,1019,1426,4042,38432,,,
38433,7,106.345753,24.18403,汪甸瑶族乡,,451002,0776,451002202000,,,,,,,,,,2,100,1019,1426,4042,38433,,,
38434,7,106.365162,23.788957,大楞乡,,451002,0776,451002203000,,,,,,,,,,2,100,1019,1426,4042,38434,,,
38435,7,106.150896,23.622053,泮水乡,,451002,0776,451002204000,,,,,,,,,,2,100,1019,1426,4042,38435,,,
38436,7,106.916749,23.736451,田州镇,,451021,0776,451003100000,,,,,,,,,,2,100,1019,1426,4043,38436,,,
38437,7,106.830993,23.72503,那坡镇,,451021,0776,451003101000,,,,,,,,,,2,100,1019,1426,4043,38437,,,
38438,7,106.704389,23.63611,坡洪镇,,451021,0776,451003102000,,,,,,,,,,2,100,1019,1426,4043,38438,,,
38439,7,106.946243,23.664649,那满镇,,451021,0776,451003103000,,,,,,,,,,2,100,1019,1426,4043,38439,,,
38440,7,106.986648,23.677496,百育镇,,451021,0776,451003104000,,,,,,,,,,2,100,1019,1426,4043,38440,,,
38441,7,107.099137,23.964544,玉凤镇,,451021,0776,451003105000,,,,,,,,,,2,100,1019,1426,4043,38441,,,
38442,7,106.849425,23.773283,头塘镇,,451021,0776,451003106000,,,,,,,,,,2,100,1019,1426,4043,38442,,,
38443,7,106.830789,23.554958,五村镇,,451021,0776,451003107000,,,,,,,,,,2,100,1019,1426,4043,38443,,,
38444,7,106.570395,23.669923,洞靖镇,,451021,0776,451003108000,,,,,,,,,,2,100,1019,1426,4043,38444,,,
38445,7,106.546401,23.533913,巴别乡,,451021,0776,451003204000,,,,,,,,,,2,100,1019,1426,4043,38445,,,
38446,7,107.125634,23.602759,平马镇,,451022,0776,451022100000,,,,,,,,,,2,100,1019,1426,4044,38446,,,
38447,7,107.053838,23.618343,祥周镇,,451022,0776,451022101000,,,,,,,,,,2,100,1019,1426,4044,38447,,,
38448,7,107.212415,23.588718,林逢镇,,451022,0776,451022103000,,,,,,,,,,2,100,1019,1426,4044,38448,,,
38449,7,107.344228,23.498495,思林镇,,451022,0776,451022105000,,,,,,,,,,2,100,1019,1426,4044,38449,,,
38450,7,107.145042,23.417904,印茶镇,,451022,0776,451022106000,,,,,,,,,,2,100,1019,1426,4044,38450,,,
38451,7,107.128919,23.327912,江城镇,,451022,0776,451022107000,,,,,,,,,,2,100,1019,1426,4044,38451,,,
38452,7,107.304817,23.790123,朔良镇,,451022,0776,451022108000,,,,,,,,,,2,100,1019,1426,4044,38452,,,
38453,7,107.212486,23.920584,义圩镇,,451022,0776,451022109000,,,,,,,,,,2,100,1019,1426,4044,38453,,,
38454,7,107.149901,23.850382,那拔镇,,451022,0776,451022110000,,,,,,,,,,2,100,1019,1426,4044,38454,,,
38455,7,107.019765,23.468072,作登瑶族乡,,451022,0776,451022201000,,,,,,,,,,2,100,1019,1426,4044,38455,,,
38456,7,107.601766,23.320823,马头镇,,451023,0776,451023100000,,,,,,,,,,2,100,1019,1426,4045,38456,,,
38457,7,107.536998,23.300793,新安镇,,451023,0776,451023101000,,,,,,,,,,2,100,1019,1426,4045,38457,,,
38458,7,107.422459,23.413964,果化镇,,451023,0776,451023102000,,,,,,,,,,2,100,1019,1426,4045,38458,,,
38459,7,107.520354,23.491368,太平镇,,451023,0776,451023103000,,,,,,,,,,2,100,1019,1426,4045,38459,,,
38460,7,107.71119,23.43885,坡造镇,,451023,0776,451023104000,,,,,,,,,,2,100,1019,1426,4045,38460,,,
38461,7,107.58981,23.329376,四塘镇,,451023,0776,451023105000,,,,,,,,,,2,100,1019,1426,4045,38461,,,
38462,7,107.685847,23.566277,旧城镇,,451023,0776,451023106000,,,,,,,,,,2,100,1019,1426,4045,38462,,,
38463,7,107.632959,23.739171,榜圩镇,,451023,0776,451023107000,,,,,,,,,,2,100,1019,1426,4045,38463,,,
38464,7,107.689286,23.715876,凤梧镇,,451023,0776,451023108000,,,,,,,,,,2,100,1019,1426,4045,38464,,,
38465,7,107.503586,23.650671,海城乡,,451023,0776,451023200000,,,,,,,,,,2,100,1019,1426,4045,38465,,,
38466,7,107.520021,23.824623,黎明乡,,451023,0776,451023202000,,,,,,,,,,2,100,1019,1426,4045,38466,,,
38467,7,107.422008,23.76224,同老乡,,451023,0776,451023203000,,,,,,,,,,2,100,1019,1426,4045,38467,,,
38468,7,107.58981,23.329376,平果铝,,451023,0776,451023450000,,,,,,,,,,2,100,1019,1426,4045,38468,,,
38469,7,106.63506,23.32915,城关镇,,451024,0776,451024100000,,,,,,,,,,2,100,1019,1426,4046,38469,,,
38470,7,106.757316,23.406746,足荣镇,,451024,0776,451024101000,,,,,,,,,,2,100,1019,1426,4046,38470,,,
38471,7,106.850795,23.457192,隆桑镇,,451024,0776,451024102000,,,,,,,,,,2,100,1019,1426,4046,38471,,,
38472,7,106.31577,23.417333,敬德镇,,451024,0776,451024103000,,,,,,,,,,2,100,1019,1426,4046,38472,,,
38473,7,106.563034,23.371571,马隘镇,,451024,0776,451024104000,,,,,,,,,,2,100,1019,1426,4046,38473,,,
38474,7,106.350259,23.627701,东凌镇,,451024,0776,451024105000,,,,,,,,,,2,100,1019,1426,4046,38474,,,
38475,7,106.717469,23.42406,那甲镇,,451024,0776,451024106000,,,,,,,,,,2,100,1019,1426,4046,38475,,,
38476,7,106.491013,23.292151,都安乡,,451024,0776,451024200000,,,,,,,,,,2,100,1019,1426,4046,38476,,,
38477,7,106.88885,23.323478,荣华乡,,451024,0776,451024203000,,,,,,,,,,2,100,1019,1426,4046,38477,,,
38478,7,106.66842,23.175825,燕峒乡,,451024,0776,451024204000,,,,,,,,,,2,100,1019,1426,4046,38478,,,
38479,7,106.759848,23.175319,龙光乡,,451024,0776,451024205000,,,,,,,,,,2,100,1019,1426,4046,38479,,,
38480,7,106.461144,23.46965,巴头乡,,451024,0776,451024206000,,,,,,,,,,2,100,1019,1426,4046,38480,,,
38481,7,106.637767,23.330814,德保铝业,,451024,0776,451024450000,,,,,,,,,,2,100,1019,1426,4046,38481,,,
38482,7,105.840411,23.405336,城厢镇,,451026,0776,451026100000,,,,,,,,,,2,100,1019,1426,4047,38482,,,
38483,7,105.996729,22.941855,平孟镇,,451026,0776,451026101000,,,,,,,,,,2,100,1019,1426,4047,38483,,,
38484,7,106.003543,23.374202,龙合镇,,451026,0776,451026102000,,,,,,,,,,2,100,1019,1426,4047,38484,,,
38485,7,105.915236,23.330805,坡荷乡,,451026,0776,451026200000,,,,,,,,,,2,100,1019,1426,4047,38485,,,
38486,7,105.844546,23.28098,德隆乡,,451026,0776,451026203000,,,,,,,,,,2,100,1019,1426,4047,38486,,,
38487,7,105.86122,23.095449,百合乡,,451026,0776,451026204000,,,,,,,,,,2,100,1019,1426,4047,38487,,,
38488,7,105.814838,23.054734,百南乡,,451026,0776,451026205000,,,,,,,,,,2,100,1019,1426,4047,38488,,,
38489,7,105.663981,23.143579,百省乡,,451026,0776,451026207000,,,,,,,,,,2,100,1019,1426,4047,38489,,,
38490,7,105.618603,23.306524,百都乡,,451026,0776,451026208000,,,,,,,,,,2,100,1019,1426,4047,38490,,,
38491,7,106.571084,24.343547,泗城镇,,451027,0776,451027100000,,,,,,,,,,2,100,1019,1426,4048,38491,,,
38492,7,106.814009,24.390485,逻楼镇,,451027,0776,451027101000,,,,,,,,,,2,100,1019,1426,4048,38492,,,
38493,7,106.664373,24.503806,加尤镇,,451027,0776,451027102000,,,,,,,,,,2,100,1019,1426,4048,38493,,,
38494,7,106.637705,24.289123,下甲镇,,451027,0776,451027103000,,,,,,,,,,2,100,1019,1426,4048,38494,,,
38495,7,106.598374,24.163381,伶站瑶族乡,,451027,0776,451027201000,,,,,,,,,,2,100,1019,1426,4048,38495,,,
38496,7,106.50459,24.239921,朝里瑶族乡,,451027,0776,451027202000,,,,,,,,,,2,100,1019,1426,4048,38496,,,
38497,7,106.82374,24.24747,沙里瑶族乡,,451027,0776,451027203000,,,,,,,,,,2,100,1019,1426,4048,38497,,,
38498,7,106.533917,24.505963,玉洪瑶族乡,,451027,0776,451027205000,,,,,,,,,,2,100,1019,1426,4048,38498,,,
38499,7,106.560108,24.786709,同乐镇,,451028,0776,451028100000,,,,,,,,,,2,100,1019,1426,4049,38499,,,
38500,7,106.481857,24.610419,甘田镇,,451028,0776,451028101000,,,,,,,,,,2,100,1019,1426,4049,38500,,,
38501,7,106.598155,24.658236,新化镇,,451028,0776,451028102000,,,,,,,,,,2,100,1019,1426,4049,38501,,,
38502,7,106.383731,24.851108,花坪镇,,451028,0776,451028103000,,,,,,,,,,2,100,1019,1426,4049,38502,,,
38503,7,106.430527,24.677735,逻沙乡,,451028,0776,451028201000,,,,,,,,,,2,100,1019,1426,4049,38503,,,
38504,7,106.663313,25.0159,逻西乡,,451028,0776,451028203000,,,,,,,,,,2,100,1019,1426,4049,38504,,,
38505,7,106.540858,24.929425,幼平乡,,451028,0776,451028204000,,,,,,,,,,2,100,1019,1426,4049,38505,,,
38506,7,106.229827,24.829725,雅长乡,,451028,0776,451028205000,,,,,,,,,,2,100,1019,1426,4049,38506,,,
38507,7,106.233408,24.290392,乐里镇,,451029,0776,451029100000,,,,,,,,,,2,100,1019,1426,4050,38507,,,
38508,7,105.804417,24.653277,旧州镇,,451029,0776,451029101000,,,,,,,,,,2,100,1019,1426,4050,38508,,,
38509,7,105.677099,24.308628,定安镇,,451029,0776,451029102000,,,,,,,,,,2,100,1019,1426,4050,38509,,,
38510,7,106.119992,24.076507,六隆镇,,451029,0776,451029103000,,,,,,,,,,2,100,1019,1426,4050,38510,,,
38511,7,106.361788,24.477001,浪平镇,,451029,0776,451029104000,,,,,,,,,,2,100,1019,1426,4050,38511,,,
38512,7,106.088758,24.423453,潞城瑶族乡,,451029,0776,451029200000,,,,,,,,,,2,100,1019,1426,4050,38512,,,
38513,7,106.338042,24.301024,利周瑶族乡,,451029,0776,451029201000,,,,,,,,,,2,100,1019,1426,4050,38513,,,
38514,7,105.6795,24.532309,平塘乡,,451029,0776,451029202000,,,,,,,,,,2,100,1019,1426,4050,38514,,,
38515,7,105.977891,24.14984,八桂瑶族乡,,451029,0776,451029204000,,,,,,,,,,2,100,1019,1426,4050,38515,,,
38516,7,105.855149,24.350296,八渡瑶族乡,,451029,0776,451029205000,,,,,,,,,,2,100,1019,1426,4050,38516,,,
38517,7,105.803583,24.122317,那比乡,,451029,0776,451029206000,,,,,,,,,,2,100,1019,1426,4050,38517,,,
38518,7,105.675508,24.215655,高龙乡,,451029,0776,451029207000,,,,,,,,,,2,100,1019,1426,4050,38518,,,
38519,7,106.139031,24.725994,百乐乡,,451029,0776,451029208000,,,,,,,,,,2,100,1019,1426,4050,38519,,,
38520,7,105.76668,24.445691,者苗乡,,451029,0776,451029209000,,,,,,,,,,2,100,1019,1426,4050,38520,,,
38521,7,105.097122,24.489077,八达镇,,451030,0776,451030100000,,,,,,,,,,2,100,1019,1426,4051,38521,,,
38522,7,104.710694,24.493002,古障镇,,451030,0776,451030101000,,,,,,,,,,2,100,1019,1426,4051,38522,,,
38523,7,105.448774,24.351347,那劳镇,,451030,0776,451030102000,,,,,,,,,,2,100,1019,1426,4051,38523,,,
38524,7,104.616714,24.598379,马蚌镇,,451030,0776,451030103000,,,,,,,,,,2,100,1019,1426,4051,38524,,,
38525,7,105.19507,24.438779,普合苗族乡,,451030,0776,451030203000,,,,,,,,,,2,100,1019,1426,4051,38525,,,
38526,7,105.283643,24.20084,西平乡,,451030,0776,451030204000,,,,,,,,,,2,100,1019,1426,4051,38526,,,
38527,7,105.352453,24.151947,那佐苗族乡,,451030,0776,451030206000,,,,,,,,,,2,100,1019,1426,4051,38527,,,
38528,7,105.44264,24.270809,足别瑶族苗族乡,,451030,0776,451030208000,,,,,,,,,,2,100,1019,1426,4051,38528,,,
38529,7,105.335855,24.78215,新州镇,,451031,0776,451031100000,,,,,,,,,,2,100,1019,1426,4052,38529,,,
38530,7,105.25192,24.96131,桠杈镇,,451031,0776,451031101000,,,,,,,,,,2,100,1019,1426,4052,38530,,,
38531,7,105.098154,24.918706,天生桥镇,,451031,0776,451031102000,,,,,,,,,,2,100,1019,1426,4052,38531,,,
38532,7,105.499458,24.806311,平班镇,,451031,0776,451031103000,,,,,,,,,,2,100,1019,1426,4052,38532,,,
38533,7,105.34404,24.770896,德峨镇,,451031,0776,451031104000,,,,,,,,,,2,100,1019,1426,4052,38533,,,
38534,7,105.574595,24.584783,隆或镇,,451031,0776,451031105000,,,,,,,,,,2,100,1019,1426,4052,38534,,,
38535,7,105.61675,24.735868,沙梨乡,,451031,0776,451031200000,,,,,,,,,,2,100,1019,1426,4052,38535,,,
38536,7,105.373238,24.883588,者保乡,,451031,0776,451031203000,,,,,,,,,,2,100,1019,1426,4052,38536,,,
38537,7,105.266598,24.784258,者浪乡,,451031,0776,451031204000,,,,,,,,,,2,100,1019,1426,4052,38537,,,
38538,7,105.034505,24.782395,革步乡,,451031,0776,451031205000,,,,,,,,,,2,100,1019,1426,4052,38538,,,
38539,7,104.874048,24.663362,金钟山乡,,451031,0776,451031206000,,,,,,,,,,2,100,1019,1426,4052,38539,,,
38540,7,105.110848,24.650032,猪场乡,,451031,0776,451031208000,,,,,,,,,,2,100,1019,1426,4052,38540,,,
38541,7,105.306115,24.51789,蛇场乡,,451031,0776,451031210000,,,,,,,,,,2,100,1019,1426,4052,38541,,,
38542,7,105.41022,24.576241,克长乡,,451031,0776,451031211000,,,,,,,,,,2,100,1019,1426,4052,38542,,,
38543,7,105.439102,24.501775,岩茶乡,,451031,0776,451031213000,,,,,,,,,,2,100,1019,1426,4052,38543,,,
38544,7,105.557866,24.428055,介廷乡,,451031,0776,451031215000,,,,,,,,,,2,100,1019,1426,4052,38544,,,
38545,7,106.414619,23.127767,新靖镇,,451081,0776,451081100000,,,,,,,,,,2,100,1019,1426,4053,38545,,,
38546,7,106.501225,23.040975,化峒镇,,451081,0776,451081101000,,,,,,,,,,2,100,1019,1426,4053,38546,,,
38547,7,106.706644,22.961264,湖润镇,,451081,0776,451081102000,,,,,,,,,,2,100,1019,1426,4053,38547,,,
38548,7,106.019851,23.2564,安德镇,,451081,0776,451081103000,,,,,,,,,,2,100,1019,1426,4053,38548,,,
38549,7,106.178813,23.23643,龙临镇,,451081,0776,451081104000,,,,,,,,,,2,100,1019,1426,4053,38549,,,
38550,7,106.320556,23.307651,渠洋镇,,451081,0776,451081105000,,,,,,,,,,2,100,1019,1426,4053,38550,,,
38551,7,106.538717,22.95626,岳圩镇,,451081,0776,451081106000,,,,,,,,,,2,100,1019,1426,4053,38551,,,
38552,7,106.329111,22.885166,龙邦镇,,451081,0776,451081107000,,,,,,,,,,2,100,1019,1426,4053,38552,,,
38553,7,106.304423,23.13394,禄峒镇,,451081,0776,451081108000,,,,,,,,,,2,100,1019,1426,4053,38553,,,
38554,7,106.509583,23.175136,武平镇,,451081,0776,451081109000,,,,,,,,,,2,100,1019,1426,4053,38554,,,
38555,7,106.410904,23.117192,地州镇,,451081,0776,451081110000,,,,,,,,,,2,100,1019,1426,4053,38555,,,
38556,7,106.584909,23.090564,同德乡,,451081,0776,451081200000,,,,,,,,,,2,100,1019,1426,4053,38556,,,
38557,7,106.434265,22.936511,壬庄乡,,451081,0776,451081201000,,,,,,,,,,2,100,1019,1426,4053,38557,,,
38558,7,106.274852,22.964833,安宁乡,,451081,0776,451081202000,,,,,,,,,,2,100,1019,1426,4053,38558,,,
38559,7,106.041274,23.106277,南坡乡,,451081,0776,451081206000,,,,,,,,,,2,100,1019,1426,4053,38559,,,
38560,7,106.112411,23.065127,吞盘乡,,451081,0776,451081207000,,,,,,,,,,2,100,1019,1426,4053,38560,,,
38561,7,106.127873,23.316038,果乐乡,,451081,0776,451081209000,,,,,,,,,,2,100,1019,1426,4053,38561,,,
38562,7,106.261655,23.285789,新甲乡,,451081,0776,451081211000,,,,,,,,,,2,100,1019,1426,4053,38562,,,
38563,7,106.139992,23.427431,魁圩乡,,451081,0776,451081215000,,,,,,,,,,2,100,1019,1426,4053,38563,,,
38564,7,111.543487,24.41302,八步街道,,451102,1774,451102001000,,,,,,,,,,2,100,1019,1427,4054,38564,,,
38565,7,111.558909,24.410754,城东街道,,451102,1774,451102002000,,,,,,,,,,2,100,1019,1427,4054,38565,,,
38566,7,111.544239,24.40411,江南街道,,451102,1774,451102003000,,,,,,,,,,2,100,1019,1427,4054,38566,,,
38567,7,111.661146,24.32888,贺街镇,,451102,1774,451102101000,,,,,,,,,,2,100,1019,1427,4054,38567,,,
38568,7,111.691203,24.218541,步头镇,,451102,1774,451102102000,,,,,,,,,,2,100,1019,1427,4054,38568,,,
38569,7,111.630405,24.407326,莲塘镇,,451102,1774,451102103000,,,,,,,,,,2,100,1019,1427,4054,38569,,,
38570,7,111.896441,24.544058,大宁镇,,451102,1774,451102104000,,,,,,,,,,2,100,1019,1427,4054,38570,,,
38571,7,111.97391,24.375105,南乡镇,,451102,1774,451102105000,,,,,,,,,,2,100,1019,1427,4054,38571,,,
38572,7,111.811127,24.669281,桂岭镇,,451102,1774,451102106000,,,,,,,,,,2,100,1019,1427,4054,38572,,,
38573,7,111.713837,24.773294,开山镇,,451102,1774,451102107000,,,,,,,,,,2,100,1019,1427,4054,38573,,,
38574,7,111.651417,24.59946,里松镇,,451102,1774,451102109000,,,,,,,,,,2,100,1019,1427,4054,38574,,,
38575,7,111.725092,23.990497,信都镇,,451102,1774,451102114000,,,,,,,,,,2,100,1019,1427,4054,38575,,,
38576,7,111.937509,23.98389,灵峰镇,,451102,1774,451102115000,,,,,,,,,,2,100,1019,1427,4054,38576,,,
38577,7,111.67055,24.001904,仁义镇,,451102,1774,451102116000,,,,,,,,,,2,100,1019,1427,4054,38577,,,
38578,7,111.770319,23.889356,铺门镇,,451102,1774,451102117000,,,,,,,,,,2,100,1019,1427,4054,38578,,,
38579,7,111.771564,24.434518,黄洞瑶族乡,,451102,1774,451102200000,,,,,,,,,,2,100,1019,1427,4054,38579,,,
38580,7,111.492779,24.464521,西湾街道,,451103,1774,451103001000,,,,,,,,,,2,100,1019,1427,4055,38580,,,
38581,7,111.545211,24.441247,黄田镇,,451103,1774,451103101000,,,,,,,,,,2,100,1019,1427,4055,38581,,,
38582,7,111.550602,24.361461,鹅塘镇,,451103,1774,451103102000,,,,,,,,,,2,100,1019,1427,4055,38582,,,
38583,7,111.443621,24.315162,沙田镇,,451103,1774,451103103000,,,,,,,,,,2,100,1019,1427,4055,38583,,,
38584,7,111.32502,24.234123,公会镇,,451103,1774,451103104000,,,,,,,,,,2,100,1019,1427,4055,38584,,,
38585,7,111.367458,23.910661,水口镇,,451103,1774,451103105000,,,,,,,,,,2,100,1019,1427,4055,38585,,,
38586,7,111.420294,24.57848,望高镇,,451103,1774,451103106000,,,,,,,,,,2,100,1019,1427,4055,38586,,,
38587,7,111.394223,24.478041,羊头镇,,451103,1774,451103107000,,,,,,,,,,2,100,1019,1427,4055,38587,,,
38588,7,111.359811,24.017023,大平瑶族乡,,451103,1774,451103201000,,,,,,,,,,2,100,1019,1427,4055,38588,,,
38589,7,110.80725,24.170661,昭平镇,,451121,1774,451121100000,,,,,,,,,,2,100,1019,1427,4056,38589,,,
38590,7,110.742263,24.221801,文竹镇,,451121,1774,451121101000,,,,,,,,,,2,100,1019,1427,4056,38590,,,
38591,7,111.199751,24.248456,黄姚镇,,451121,1774,451121102000,,,,,,,,,,2,100,1019,1427,4056,38591,,,
38592,7,111.143755,24.004302,富罗镇,,451121,1774,451121103000,,,,,,,,,,2,100,1019,1427,4056,38592,,,
38593,7,111.029203,24.005913,北陀镇,,451121,1774,451121104000,,,,,,,,,,2,100,1019,1427,4056,38593,,,
38594,7,111.040642,23.877509,马江镇,,451121,1774,451121105000,,,,,,,,,,2,100,1019,1427,4056,38594,,,
38595,7,110.854395,24.003868,五将镇,,451121,1774,451121107000,,,,,,,,,,2,100,1019,1427,4056,38595,,,
38596,7,110.811287,24.16948,走马镇,,451121,1774,451121108000,,,,,,,,,,2,100,1019,1427,4056,38596,,,
38597,7,111.269683,24.145523,樟木林镇,,451121,1774,451121109000,,,,,,,,,,2,100,1019,1427,4056,38597,,,
38598,7,110.668885,24.25522,仙回瑶族乡,,451121,1774,451121201000,,,,,,,,,,2,100,1019,1427,4056,38598,,,
38599,7,111.306641,24.234484,凤凰乡,,451121,1774,451121206000,,,,,,,,,,2,100,1019,1427,4056,38599,,,
38600,7,110.987364,23.802949,木格乡,,451121,1774,451121208000,,,,,,,,,,2,100,1019,1427,4056,38600,,,
38601,7,111.313749,24.531979,钟山镇,,451122,1774,451122100000,,,,,,,,,,2,100,1019,1427,4057,38601,,,
38602,7,111.292618,24.440952,回龙镇,,451122,1774,451122104000,,,,,,,,,,2,100,1019,1427,4057,38602,,,
38603,7,111.324738,24.414174,石龙镇,,451122,1774,451122105000,,,,,,,,,,2,100,1019,1427,4057,38603,,,
38604,7,111.365337,24.372515,凤翔镇,,451122,1774,451122106000,,,,,,,,,,2,100,1019,1427,4057,38604,,,
38605,7,111.362596,24.327358,珊瑚镇,,451122,1774,451122107000,,,,,,,,,,2,100,1019,1427,4057,38605,,,
38606,7,111.216739,24.373493,同古镇,,451122,1774,451122108000,,,,,,,,,,2,100,1019,1427,4057,38606,,,
38607,7,111.193584,24.481241,公安镇,,451122,1774,451122109000,,,,,,,,,,2,100,1019,1427,4057,38607,,,
38608,7,111.057834,24.392567,清塘镇,,451122,1774,451122111000,,,,,,,,,,2,100,1019,1427,4057,38608,,,
38609,7,111.136064,24.465344,燕塘镇,,451122,1774,451122112000,,,,,,,,,,2,100,1019,1427,4057,38609,,,
38610,7,111.175771,24.586093,红花镇,,451122,1774,451122113000,,,,,,,,,,2,100,1019,1427,4057,38610,,,
38611,7,111.12816,24.54247,花山瑶族乡,,451122,1774,451122200000,,,,,,,,,,2,100,1019,1427,4057,38611,,,
38612,7,111.171281,24.661071,两安瑶族乡,,451122,1774,451122201000,,,,,,,,,,2,100,1019,1427,4057,38612,,,
38613,7,111.299307,24.809075,富阳镇,,451123,1774,451123100000,,,,,,,,,,2,100,1019,1427,4058,38613,,,
38614,7,111.400034,24.64829,白沙镇,,451123,1774,451123101000,,,,,,,,,,2,100,1019,1427,4058,38614,,,
38615,7,111.351932,24.758686,莲山镇,,451123,1774,451123102000,,,,,,,,,,2,100,1019,1427,4058,38615,,,
38616,7,111.328872,24.806095,古城镇,,451123,1774,451123103000,,,,,,,,,,2,100,1019,1427,4058,38616,,,
38617,7,111.37801,24.87633,福利镇,,451123,1774,451123104000,,,,,,,,,,2,100,1019,1427,4058,38617,,,
38618,7,111.327216,25.057294,麦岭镇,,451123,1774,451123105000,,,,,,,,,,2,100,1019,1427,4058,38618,,,
38619,7,111.279888,24.946975,葛坡镇,,451123,1774,451123106000,,,,,,,,,,2,100,1019,1427,4058,38619,,,
38620,7,111.251863,24.937399,城北镇,,451123,1774,451123107000,,,,,,,,,,2,100,1019,1427,4058,38620,,,
38621,7,111.170359,25.018761,朝东镇,,451123,1774,451123108000,,,,,,,,,,2,100,1019,1427,4058,38621,,,
38622,7,111.419781,24.830676,新华乡,,451123,1774,451123200000,,,,,,,,,,2,100,1019,1427,4058,38622,,,
38623,7,111.393944,24.95061,石家乡,,451123,1774,451123201000,,,,,,,,,,2,100,1019,1427,4058,38623,,,
38624,7,111.247294,24.733394,柳家乡,,451123,1774,451123203000,,,,,,,,,,2,100,1019,1427,4058,38624,,,
38625,7,108.056854,24.693363,金城江街道,,451202,0778,451202001000,,,,,,,,,,2,100,1019,1428,4059,38625,,,
38626,7,108.159477,24.70924,东江镇,,451202,0778,451202101000,,,,,,,,,,2,100,1019,1428,4059,38626,,,
38627,7,108.032821,24.671673,六圩镇,,451202,0778,451202102000,,,,,,,,,,2,100,1019,1428,4059,38627,,,
38628,7,107.922668,24.745926,六甲镇,,451202,0778,451202103000,,,,,,,,,,2,100,1019,1428,4059,38628,,,
38629,7,107.845995,24.695441,河池镇,,451202,0778,451202104000,,,,,,,,,,2,100,1019,1428,4059,38629,,,
38630,7,107.870906,24.841082,拔贡镇,,451202,0778,451202105000,,,,,,,,,,2,100,1019,1428,4059,38630,,,
38631,7,107.764651,24.530672,九圩镇,,451202,0778,451202106000,,,,,,,,,,2,100,1019,1428,4059,38631,,,
38632,7,107.893101,24.560136,五圩镇,,451202,0778,451202107000,,,,,,,,,,2,100,1019,1428,4059,38632,,,
38633,7,108.130106,24.582305,白土乡,,451202,0778,451202200000,,,,,,,,,,2,100,1019,1428,4059,38633,,,
38634,7,107.78065,24.826959,侧岭乡,,451202,0778,451202203000,,,,,,,,,,2,100,1019,1428,4059,38634,,,
38635,7,107.83754,24.436549,保平乡,,451202,0778,451202204000,,,,,,,,,,2,100,1019,1428,4059,38635,,,
38636,7,107.608709,24.71886,长老乡,,451202,0778,451202205000,,,,,,,,,,2,100,1019,1428,4059,38636,,,
38637,7,108.660892,24.494088,庆远镇,,451203,0778,451203100000,,,,,,,,,,2,100,1019,1428,4060,38637,,,
38638,7,108.954104,24.467752,三岔镇,,451203,0778,451203101000,,,,,,,,,,2,100,1019,1428,4060,38638,,,
38639,7,108.785815,24.467583,洛西镇,,451203,0778,451203102000,,,,,,,,,,2,100,1019,1428,4060,38639,,,
38640,7,108.473355,24.567184,怀远镇,,451203,0778,451203103000,,,,,,,,,,2,100,1019,1428,4060,38640,,,
38641,7,108.338909,24.698133,德胜镇,,451203,0778,451203104000,,,,,,,,,,2,100,1019,1428,4060,38641,,,
38642,7,108.618034,24.313092,石别镇,,451203,0778,451203105000,,,,,,,,,,2,100,1019,1428,4060,38642,,,
38643,7,108.474484,24.299785,北山镇,,451203,0778,451203106000,,,,,,,,,,2,100,1019,1428,4060,38643,,,
38644,7,108.674059,24.540033,刘三姐镇,,451203,0778,451203107000,,,,,,,,,,2,100,1019,1428,4060,38644,,,
38645,7,108.862726,24.476382,洛东镇,,451203,0778,451203108000,,,,,,,,,,2,100,1019,1428,4060,38645,,,
38646,7,108.659293,24.674183,祥贝乡,,451203,0778,451203200000,,,,,,,,,,2,100,1019,1428,4060,38646,,,
38647,7,108.908381,24.372463,屏南乡,,451203,0778,451203203000,,,,,,,,,,2,100,1019,1428,4060,38647,,,
38648,7,108.607047,24.194063,福龙瑶族乡,,451203,0778,451203207000,,,,,,,,,,2,100,1019,1428,4060,38648,,,
38649,7,108.403823,24.406016,北牙瑶族乡,,451203,0778,451203208000,,,,,,,,,,2,100,1019,1428,4060,38649,,,
38650,7,108.422463,24.461113,同德乡,,451203,0778,451203210000,,,,,,,,,,2,100,1019,1428,4060,38650,,,
38651,7,108.448733,24.664937,安马乡,,451203,0778,451203211000,,,,,,,,,,2,100,1019,1428,4060,38651,,,
38652,7,108.131632,24.451717,龙头乡,,451203,0778,451203213000,,,,,,,,,,2,100,1019,1428,4060,38652,,,
38653,7,107.575301,25.027379,城关镇,,451221,0778,451221100000,,,,,,,,,,2,100,1019,1428,4061,38653,,,
38654,7,107.578561,24.822201,大厂镇,,451221,0778,451221101000,,,,,,,,,,2,100,1019,1428,4061,38654,,,
38655,7,107.652253,24.849669,车河镇,,451221,0778,451221102000,,,,,,,,,,2,100,1019,1428,4061,38655,,,
38656,7,107.515981,25.148494,芒场镇,,451221,0778,451221103000,,,,,,,,,,2,100,1019,1428,4061,38656,,,
38657,7,107.40446,25.296109,六寨镇,,451221,0778,451221104000,,,,,,,,,,2,100,1019,1428,4061,38657,,,
