dataid,levelid,longitude,latitude,chinese_name,english_name,code1,code2,code3,code4,code5,alias1,alias2,alias3,alias4,alias5,area,population,continentid,countryid,provinceid,cityid,countyid,townid,villageid,buildingid,comments
10641,7,114.514005,38.051387,建北街道,,130102,0311,130102001000,,,,,,,,,,2,100,1002,1203,2033,10641,,,
10642,7,114.517235,38.044668,青园街道,,130102,0311,130102002000,,,,,,,,,,2,100,1002,1203,2033,10642,,,
10643,7,114.52378,38.049301,广安街道,,130102,0311,130102003000,,,,,,,,,,2,100,1002,1203,2033,10643,,,
10644,7,114.53666,38.05545,育才街道,,130102,0311,130102004000,,,,,,,,,,2,100,1002,1203,2033,10644,,,
10645,7,114.553188,38.051006,跃进街道,,130102,0311,130102005000,,,,,,,,,,2,100,1002,1203,2033,10645,,,
10646,7,114.54454,38.042938,河东街道,,130102,0311,130102007000,,,,,,,,,,2,100,1002,1203,2033,10646,,,
10647,7,114.521684,38.075892,长丰街道,,130102,0311,130102010000,,,,,,,,,,2,100,1002,1203,2033,10647,,,
10648,7,114.574751,38.05032,谈固街道,,130102,0311,130102011000,,,,,,,,,,2,100,1002,1203,2033,10648,,,
10649,7,114.504796,38.04376,中山东路街道,,130102,0311,130102012000,,,,,,,,,,2,100,1002,1203,2033,10649,,,
10650,7,114.501066,38.050718,阜康街道,,130102,0311,130102013000,,,,,,,,,,2,100,1002,1203,2033,10650,,,
10651,7,114.507816,38.052423,建安街道,,130102,0311,130102014000,,,,,,,,,,2,100,1002,1203,2033,10651,,,
10652,7,114.490887,38.037726,胜利北街道,,130104,0311,130102015000,,,,,,,,,,2,100,1002,1203,2033,10652,,,
10653,7,114.603521,38.075327,西兆通镇,,130102,0311,130102100000,,,,,,,,,,2,100,1002,1203,2033,10653,,,
10654,7,114.645657,38.062428,南村镇,,130102,0311,130102101000,,,,,,,,,,2,100,1002,1203,2033,10654,,,
10655,7,114.540413,38.077652,高营镇,,130102,0311,130102102000,,,,,,,,,,2,100,1002,1203,2033,10655,,,
10656,7,114.519723,38.07976,桃园镇,,130102,0311,130102103000,,,,,,,,,,2,100,1002,1203,2033,10656,,,
10657,7,114.470224,38.030352,东里街道,,130104,0311,130104001000,,,,,,,,,,2,100,1002,1203,2034,10657,,,
10658,7,114.481796,38.042896,中山街道,,130104,0311,130104002000,,,,,,,,,,2,100,1002,1203,2034,10658,,,
10659,7,114.480384,38.031907,南长街道,,130104,0311,130104004000,,,,,,,,,,2,100,1002,1203,2034,10659,,,
10660,7,114.470273,38.042337,维明街道,,130104,0311,130104005000,,,,,,,,,,2,100,1002,1203,2034,10660,,,
10661,7,114.449096,38.035364,友谊街道,,130104,0311,130104007000,,,,,,,,,,2,100,1002,1203,2034,10661,,,
10662,7,114.451413,38.002049,红旗街道,,130104,0311,130104008000,,,,,,,,,,2,100,1002,1203,2034,10662,,,
10663,7,114.474828,38.012237,新石街道,,130104,0311,130104009000,,,,,,,,,,2,100,1002,1203,2034,10663,,,
10664,7,114.418365,38.029294,苑东街道,,130104,0311,130104010000,,,,,,,,,,2,100,1002,1203,2034,10664,,,
10665,7,114.456836,38.038156,西里街道,,130104,0311,130104011000,,,,,,,,,,2,100,1002,1203,2034,10665,,,
10666,7,114.45967,38.012591,振头街道,,130104,0311,130104012000,,,,,,,,,,2,100,1002,1203,2034,10666,,,
10667,7,114.461154,38.004043,留营街道,,130104,0311,130104013000,,,,,,,,,,2,100,1002,1203,2034,10667,,,
10668,7,114.408753,38.051225,长兴街道,,130104,0311,130104014000,,,,,,,,,,2,100,1002,1203,2034,10668,,,
10669,7,114.489405,38.027239,彭后街道,,130104,0311,130104015000,,,,,,,,,,2,100,1002,1203,2034,10669,,,
10670,7,114.503968,38.021785,东风街道,,130104,0311,130104016000,,,,,,,,,,2,100,1002,1203,2034,10670,,,
10671,7,114.498774,38.038816,东华街道,,130104,0311,130104017000,,,,,,,,,,2,100,1002,1203,2034,10671,,,
10672,7,114.461154,38.004043,休门街道,,130104,0311,130104018000,,,,,,,,,,2,100,1002,1203,2034,10672,,,
10673,7,114.492801,38.009365,汇通街道,,130104,0311,130104019000,,,,,,,,,,2,100,1002,1203,2034,10673,,,
10674,7,114.471119,38.048168,革新街街道,,130105,0311,130105001000,,,,,,,,,,2,100,1002,1203,2035,10674,,,
10675,7,114.482287,38.047999,新华路街道,,130105,0311,130105003000,,,,,,,,,,2,100,1002,1203,2035,10675,,,
10676,7,114.481288,38.054017,宁安街道,,130105,0311,130105004000,,,,,,,,,,2,100,1002,1203,2035,10676,,,
10677,7,114.473836,38.053693,东焦街道,,130105,0311,130105005000,,,,,,,,,,2,100,1002,1203,2035,10677,,,
10678,7,114.456311,38.051103,西苑街道,,130105,0311,130105006000,,,,,,,,,,2,100,1002,1203,2035,10678,,,
10679,7,114.46449,38.05483,合作路街道,,130105,0311,130105007000,,,,,,,,,,2,100,1002,1203,2035,10679,,,
10680,7,114.449002,38.076919,联盟街道,,130105,0311,130105008000,,,,,,,,,,2,100,1002,1203,2035,10680,,,
10681,7,114.481424,38.076719,石岗街道,,130105,0311,130105009000,,,,,,,,,,2,100,1002,1203,2035,10681,,,
10682,7,114.452631,38.086258,天苑街道,,130105,0311,130105011000,,,,,,,,,,2,100,1002,1203,2035,10682,,,
10683,7,114.438068,38.064018,北苑街道,,130105,0311,130105012000,,,,,,,,,,2,100,1002,1203,2035,10683,,,
10684,7,114.464214,38.094527,赵陵铺路街道,,130105,0311,130105013000,,,,,,,,,,2,100,1002,1203,2035,10684,,,
10685,7,114.448199,38.080055,西三庄街道,,130105,0311,130105014000,,,,,,,,,,2,100,1002,1203,2035,10685,,,
10686,7,114.463347,38.05106,大郭街道,,130105,0311,130105015000,,,,,,,,,,2,100,1002,1203,2035,10686,,,
10687,7,114.463347,38.05106,杜北街道,,130105,0311,130105016000,,,,,,,,,,2,100,1002,1203,2035,10687,,,
10688,7,114.494907,38.094056,赵佗路街道,,130102,0311,130105017000,,,,,,,,,,2,100,1002,1203,2035,10688,,,
10689,7,114.063573,38.067885,矿市街道,,130107,0311,130107001000,,,,,,,,,,2,100,1002,1203,2036,10689,,,
10690,7,114.514859,38.042306,四微街道,,130100,0311,130107002000,,,,,,,,,,2,100,1002,1203,2036,10690,,,
10691,7,114.045809,38.103168,贾庄镇,,130107,0311,130107100000,,,,,,,,,,2,100,1002,1203,2036,10691,,,
10692,7,114.051986,38.046196,凤山镇,,130107,0311,130107101000,,,,,,,,,,2,100,1002,1203,2036,10692,,,
10693,7,114.067363,38.065398,横涧乡,,130107,0311,130107200000,,,,,,,,,,2,100,1002,1203,2036,10693,,,
10694,7,114.531362,38.006453,裕兴街道,,130108,0311,130108001000,,,,,,,,,,2,100,1002,1203,2037,10694,,,
10695,7,114.565944,38.01133,裕强街道,,130108,0311,130108002000,,,,,,,,,,2,100,1002,1203,2037,10695,,,
10696,7,114.537698,38.030108,东苑街道,,130108,0311,130108003000,,,,,,,,,,2,100,1002,1203,2037,10696,,,
10697,7,114.50169,37.99591,建通街道,,130108,0311,130108004000,,,,,,,,,,2,100,1002,1203,2037,10697,,,
10698,7,114.537796,38.0286,槐底街道,,130108,0311,130108005000,,,,,,,,,,2,100,1002,1203,2037,10698,,,
10699,7,114.515035,38.02229,裕华路街道,,130108,0311,130108006000,,,,,,,,,,2,100,1002,1203,2037,10699,,,
10700,7,114.577691,38.034776,裕东街道,,130108,0311,130108007000,,,,,,,,,,2,100,1002,1203,2037,10700,,,
10701,7,114.533306,38.008243,裕翔街道,,130108,0311,130108008000,,,,,,,,,,2,100,1002,1203,2037,10701,,,
10702,7,114.548494,38.015563,建华南街道,,130108,0311,130108009000,,,,,,,,,,2,100,1002,1203,2037,10702,,,
10703,7,114.55141,37.977812,方村镇,,130108,0311,130108101000,,,,,,,,,,2,100,1002,1203,2037,10703,,,
10704,7,114.844453,38.037063,廉州镇,,130109,0311,130109100000,,,,,,,,,,2,100,1002,1203,2038,10704,,,
10705,7,114.90817,38.035619,兴安镇,,130109,0311,130109101000,,,,,,,,,,2,100,1002,1203,2038,10705,,,
10706,7,114.94273,37.876421,贾市庄镇,,130109,0311,130109102000,,,,,,,,,,2,100,1002,1203,2038,10706,,,
10707,7,114.81606,37.95668,南营镇,,130109,0311,130109103000,,,,,,,,,,2,100,1002,1203,2038,10707,,,
10708,7,114.82644,37.888821,梅花镇,,130109,0311,130109104000,,,,,,,,,,2,100,1002,1203,2038,10708,,,
10709,7,114.695862,38.043979,岗上镇,,130109,0311,130109105000,,,,,,,,,,2,100,1002,1203,2038,10709,,,
10710,7,114.772912,38.102348,南董镇,,130109,0311,130109107000,,,,,,,,,,2,100,1002,1203,2038,10710,,,
10711,7,114.741966,38.154362,张家庄镇,,130109,0311,130109108000,,,,,,,,,,2,100,1002,1203,2038,10711,,,
10712,7,114.779768,38.181175,南孟镇,,130109,0311,130109109000,,,,,,,,,,2,100,1002,1203,2038,10712,,,
10713,7,114.750703,38.246835,增村镇,,130109,0311,130109110000,,,,,,,,,,2,100,1002,1203,2038,10713,,,
10714,7,114.93395,37.9378,常安镇,,130109,0311,130109111000,,,,,,,,,,2,100,1002,1203,2038,10714,,,
10715,7,114.80075,38.269529,西关镇,,130109,0311,130109112000,,,,,,,,,,2,100,1002,1203,2038,10715,,,
10716,7,114.73832,38.111119,九门回族乡,,130109,0311,130109200000,,,,,,,,,,2,100,1002,1203,2038,10716,,,
10717,7,114.677446,38.042027,石家庄经济技术开发区,,130109,0311,130109500000,,,,,,,,,,2,100,1002,1203,2038,10717,,,
10718,7,114.322047,38.088041,获鹿镇,,130110,0311,130110100000,,,,,,,,,,2,100,1002,1203,2039,10718,,,
10719,7,114.382205,37.967422,铜冶镇,,130110,0311,130110101000,,,,,,,,,,2,100,1002,1203,2039,10719,,,
10720,7,114.456702,37.942173,寺家庄镇,,130110,0311,130110102000,,,,,,,,,,2,100,1002,1203,2039,10720,,,
10721,7,114.382611,38.036814,上庄镇,,130110,0311,130110103000,,,,,,,,,,2,100,1002,1203,2039,10721,,,
10722,7,114.335324,38.197479,李村镇,,130110,0311,130110104000,,,,,,,,,,2,100,1002,1203,2039,10722,,,
10723,7,114.284439,38.192756,宜安镇,,130110,0311,130110105000,,,,,,,,,,2,100,1002,1203,2039,10723,,,
10724,7,114.32282,38.240246,黄壁庄镇,,130110,0311,130110106000,,,,,,,,,,2,100,1002,1203,2039,10724,,,
10725,7,114.397004,38.135288,大河镇,,130110,0311,130110107000,,,,,,,,,,2,100,1002,1203,2039,10725,,,
10726,7,114.408181,37.920303,山尹村镇,,130110,0311,130110108000,,,,,,,,,,2,100,1002,1203,2039,10726,,,
10727,7,114.278726,38.114444,石井乡,,130110,0311,130110200000,,,,,,,,,,2,100,1002,1203,2039,10727,,,
10728,7,114.275059,38.071659,白鹿泉乡,,130110,0311,130110201000,,,,,,,,,,2,100,1002,1203,2039,10728,,,
10729,7,114.321551,37.938484,上寨乡,,130110,0311,130110202000,,,,,,,,,,2,100,1002,1203,2039,10729,,,
10730,7,114.313724,38.085958,河北鹿泉经济开发区,,130110,0311,130110500000,,,,,,,,,,2,100,1002,1203,2039,10730,,,
10731,7,114.658341,37.885001,栾城镇,,130111,0311,130111100000,,,,,,,,,,2,100,1002,1203,2040,10731,,,
10732,7,114.598653,37.942007,冶河镇,,130111,0311,130111103000,,,,,,,,,,2,100,1002,1203,2040,10732,,,
10733,7,114.511338,37.899254,窦妪镇,,130111,0311,130111104000,,,,,,,,,,2,100,1002,1203,2040,10733,,,
10734,7,114.580564,37.95657,楼底镇,,130111,0311,130111105000,,,,,,,,,,2,100,1002,1203,2040,10734,,,
10735,7,114.7384,37.852719,南高乡,,130111,0311,130111200000,,,,,,,,,,2,100,1002,1203,2040,10735,,,
10736,7,114.73158,37.887269,柳林屯乡,,130111,0311,130111201000,,,,,,,,,,2,100,1002,1203,2040,10736,,,
10737,7,114.584351,37.832193,西营乡,,130111,0311,130111202000,,,,,,,,,,2,100,1002,1203,2040,10737,,,
10738,7,114.152182,38.023649,微水镇,,130121,0311,130121100000,,,,,,,,,,2,100,1002,1203,2041,10738,,,
10739,7,114.203688,38.061782,上安镇,,130121,0311,130121101000,,,,,,,,,,2,100,1002,1203,2041,10739,,,
10740,7,114.023509,37.992385,天长镇,,130121,0311,130121102000,,,,,,,,,,2,100,1002,1203,2041,10740,,,
10741,7,114.09417,37.994811,秀林镇,,130121,0311,130121103000,,,,,,,,,,2,100,1002,1203,2041,10741,,,
10742,7,113.939722,37.993836,南峪镇,,130121,0311,130121104000,,,,,,,,,,2,100,1002,1203,2041,10742,,,
10743,7,114.155389,38.109831,威州镇,,130121,0311,130121105000,,,,,,,,,,2,100,1002,1203,2041,10743,,,
10744,7,114.029839,38.119745,小作镇,,130121,0311,130121106000,,,,,,,,,,2,100,1002,1203,2041,10744,,,
10745,7,114.084547,37.910294,南障城镇,,130121,0311,130121107000,,,,,,,,,,2,100,1002,1203,2041,10745,,,
10746,7,114.138243,37.844837,苍岩山镇,,130121,0311,130121108000,,,,,,,,,,2,100,1002,1203,2041,10746,,,
10747,7,114.084541,37.79956,测鱼镇,,130121,0311,130121109000,,,,,,,,,,2,100,1002,1203,2041,10747,,,
10748,7,114.265211,37.962336,吴家窑乡,,130121,0311,130121200000,,,,,,,,,,2,100,1002,1203,2041,10748,,,
10749,7,114.084301,38.062203,北正乡,,130121,0311,130121201000,,,,,,,,,,2,100,1002,1203,2041,10749,,,
10750,7,114.03894,37.941504,于家乡,,130121,0311,130121202000,,,,,,,,,,2,100,1002,1203,2041,10750,,,
10751,7,114.14388,38.147009,孙庄乡,,130121,0311,130121203000,,,,,,,,,,2,100,1002,1203,2041,10751,,,
10752,7,114.063339,38.180002,南陉乡,,130121,0311,130121204000,,,,,,,,,,2,100,1002,1203,2041,10752,,,
10753,7,113.907981,38.093128,辛庄乡,,130121,0311,130121205000,,,,,,,,,,2,100,1002,1203,2041,10753,,,
10754,7,114.16575,37.934751,南王庄乡,,130121,0311,130121206000,,,,,,,,,,2,100,1002,1203,2041,10754,,,
10755,7,114.656699,38.154094,诸福屯街道,,130123,0311,130123001000,,,,,,,,,,2,100,1002,1203,2042,10755,,,
10756,7,114.60634,38.166469,三里屯街道,,130123,0311,130123002000,,,,,,,,,,2,100,1002,1203,2042,10756,,,
10757,7,114.582855,38.152671,正定镇,,130123,0311,130123100000,,,,,,,,,,2,100,1002,1203,2042,10757,,,
10758,7,114.681233,38.263698,新城铺镇,,130123,0311,130123102000,,,,,,,,,,2,100,1002,1203,2042,10758,,,
10759,7,114.629803,38.222972,新安镇,,130123,0311,130123103000,,,,,,,,,,2,100,1002,1203,2042,10759,,,
10760,7,114.65448,38.19833,南牛乡,,130123,0311,130123200000,,,,,,,,,,2,100,1002,1203,2042,10760,,,
10761,7,114.55032,38.2664,南楼乡,,130123,0311,130123201000,,,,,,,,,,2,100,1002,1203,2042,10761,,,
10762,7,114.645804,38.264192,西平乐乡,,130123,0311,130123202000,,,,,,,,,,2,100,1002,1203,2042,10762,,,
10763,7,114.50664,38.192297,北早现乡,,130123,0311,130123203000,,,,,,,,,,2,100,1002,1203,2042,10763,,,
10764,7,114.48579,38.2362,曲阳桥乡,,130123,0311,130123204000,,,,,,,,,,2,100,1002,1203,2042,10764,,,
10765,7,114.551981,38.441794,龙州镇,,130125,0311,130125100000,,,,,,,,,,2,100,1002,1203,2043,10765,,,
10766,7,114.568943,38.51869,南桥镇,,130125,0311,130125101000,,,,,,,,,,2,100,1002,1203,2043,10766,,,
10767,7,114.459235,38.485535,上碑镇,,130125,0311,130125102000,,,,,,,,,,2,100,1002,1203,2043,10767,,,
10768,7,114.387969,38.6105,口头镇,,130125,0311,130125103000,,,,,,,,,,2,100,1002,1203,2043,10768,,,
10769,7,114.600138,38.453095,独羊岗乡,,130125,0311,130125200000,,,,,,,,,,2,100,1002,1203,2043,10769,,,
10770,7,114.493894,38.396115,安香乡,,130125,0311,130125201000,,,,,,,,,,2,100,1002,1203,2043,10770,,,
10771,7,114.582693,38.408911,只里乡,,130125,0311,130125202000,,,,,,,,,,2,100,1002,1203,2043,10771,,,
10772,7,114.531648,38.433069,市同乡,,130125,0311,130125203000,,,,,,,,,,2,100,1002,1203,2043,10772,,,
10773,7,114.45279,38.436078,翟营乡,,130125,0311,130125204000,,,,,,,,,,2,100,1002,1203,2043,10773,,,
10774,7,114.367897,38.530028,城寨乡,,130125,0311,130125205000,,,,,,,,,,2,100,1002,1203,2043,10774,,,
10775,7,114.471509,38.529951,上方乡,,130125,0311,130125206000,,,,,,,,,,2,100,1002,1203,2043,10775,,,
10776,7,114.51778,38.532371,玉亭乡,,130125,0311,130125207000,,,,,,,,,,2,100,1002,1203,2043,10776,,,
10777,7,114.506303,38.627868,北河乡,,130125,0311,130125208000,,,,,,,,,,2,100,1002,1203,2043,10777,,,
10778,7,114.278143,38.582375,上闫庄乡,,130125,0311,130125209000,,,,,,,,,,2,100,1002,1203,2043,10778,,,
10779,7,114.364102,38.645164,九口子乡,,130125,0311,130125210000,,,,,,,,,,2,100,1002,1203,2043,10779,,,
10780,7,114.552737,38.438411,开发区,,130125,0311,130125400000,,,,,,,,,,2,100,1002,1203,2043,10780,,,
10781,7,114.394589,38.307233,灵寿镇,,130126,0311,130126100000,,,,,,,,,,2,100,1002,1203,2044,10781,,,
10782,7,114.353175,38.383059,青同镇,,130126,0311,130126101000,,,,,,,,,,2,100,1002,1203,2044,10782,,,
10783,7,114.210844,38.396542,塔上镇,,130126,0311,130126102000,,,,,,,,,,2,100,1002,1203,2044,10783,,,
10784,7,114.11134,38.568911,陈庄镇,,130126,0311,130126103000,,,,,,,,,,2,100,1002,1203,2044,10784,,,
10785,7,114.32911,38.451983,慈峪镇,,130126,0311,130126104000,,,,,,,,,,2,100,1002,1203,2044,10785,,,
10786,7,114.246341,38.55875,岔头镇,,130126,0311,130126105000,,,,,,,,,,2,100,1002,1203,2044,10786,,,
10787,7,114.43731,38.282911,三圣院乡,,130126,0311,130126200000,,,,,,,,,,2,100,1002,1203,2044,10787,,,
10788,7,114.445846,38.349739,北洼乡,,130126,0311,130126201000,,,,,,,,,,2,100,1002,1203,2044,10788,,,
10789,7,114.304982,38.275037,牛城乡,,130126,0311,130126202000,,,,,,,,,,2,100,1002,1203,2044,10789,,,
10790,7,114.327561,38.32498,狗台乡,,130126,0311,130126203000,,,,,,,,,,2,100,1002,1203,2044,10790,,,
10791,7,114.393599,38.371267,南寨乡,,130126,0311,130126204000,,,,,,,,,,2,100,1002,1203,2044,10791,,,
10792,7,114.37614,38.30611,南燕川乡,,130126,0311,130126205000,,,,,,,,,,2,100,1002,1203,2044,10792,,,
10793,7,114.302546,38.51382,北谭庄乡,,130126,0311,130126206000,,,,,,,,,,2,100,1002,1203,2044,10793,,,
10794,7,114.040348,38.569555,寨头乡,,130126,0311,130126207000,,,,,,,,,,2,100,1002,1203,2044,10794,,,
10795,7,113.938686,38.652004,南营乡,,130126,0311,130126208000,,,,,,,,,,2,100,1002,1203,2044,10795,,,
10796,7,114.614412,37.607441,高邑镇,,130127,0311,130127100000,,,,,,,,,,2,100,1002,1203,2045,10796,,,
10797,7,114.66113,37.60223,大营镇,,130127,0311,130127101000,,,,,,,,,,2,100,1002,1203,2045,10797,,,
10798,7,114.548219,37.60537,富村镇,,130127,0311,130127102000,,,,,,,,,,2,100,1002,1203,2045,10798,,,
10799,7,114.53821,37.627872,万城镇,,130127,0311,130127103000,,,,,,,,,,2,100,1002,1203,2045,10799,,,
10800,7,114.59361,37.663,中韩乡,,130127,0311,130127201000,,,,,,,,,,2,100,1002,1203,2045,10800,,,
10801,7,115.209799,38.18376,深泽镇,,130128,0311,130128100000,,,,,,,,,,2,100,1002,1203,2046,10801,,,
10802,7,115.32722,38.153869,铁杆镇,,130128,0311,130128101000,,,,,,,,,,2,100,1002,1203,2046,10802,,,
10803,7,115.20091,38.184072,赵八镇,,130128,0311,130128102000,,,,,,,,,,2,100,1002,1203,2046,10803,,,
10804,7,115.24038,38.263981,白庄乡,,130128,0311,130128200000,,,,,,,,,,2,100,1002,1203,2046,10804,,,
10805,7,115.18101,38.207181,留村乡,,130128,0311,130128201000,,,,,,,,,,2,100,1002,1203,2046,10805,,,
10806,7,115.201699,38.152555,桥头乡,,130128,0311,130128203000,,,,,,,,,,2,100,1002,1203,2046,10806,,,
10807,7,114.383689,37.659655,赞皇镇,,130129,0311,130129100000,,,,,,,,,,2,100,1002,1203,2047,10807,,,
10808,7,114.32281,37.533097,院头镇,,130129,0311,130129101000,,,,,,,,,,2,100,1002,1203,2047,10808,,,
10809,7,114.491771,37.631405,南邢郭镇,,130129,0311,130129102000,,,,,,,,,,2,100,1002,1203,2047,10809,,,
10810,7,114.171211,37.563927,嶂石岩镇,,130129,0311,130129103000,,,,,,,,,,2,100,1002,1203,2047,10810,,,
10811,7,114.395009,37.673682,西龙门乡,,130129,0311,130129200000,,,,,,,,,,2,100,1002,1203,2047,10811,,,
10812,7,114.406323,37.619225,南清河乡,,130129,0311,130129202000,,,,,,,,,,2,100,1002,1203,2047,10812,,,
10813,7,114.372249,37.578602,西阳泽乡,,130129,0311,130129203000,,,,,,,,,,2,100,1002,1203,2047,10813,,,
10814,7,114.274846,37.632905,土门乡,,130129,0311,130129204000,,,,,,,,,,2,100,1002,1203,2047,10814,,,
10815,7,114.1963,37.596629,黄北坪乡,,130129,0311,130129205000,,,,,,,,,,2,100,1002,1203,2047,10815,,,
10816,7,114.248141,37.700999,许亭乡,,130129,0311,130129207000,,,,,,,,,,2,100,1002,1203,2047,10816,,,
10817,7,114.33358,37.74427,张楞乡,,130129,0311,130129208000,,,,,,,,,,2,100,1002,1203,2047,10817,,,
10818,7,114.982273,38.179469,无极镇,,130130,0311,130130100000,,,,,,,,,,2,100,1002,1203,2048,10818,,,
10819,7,115.039286,38.180288,七汲镇,,130130,0311,130130101000,,,,,,,,,,2,100,1002,1203,2048,10819,,,
10820,7,114.95813,38.12678,张段固镇,,130130,0311,130130102000,,,,,,,,,,2,100,1002,1203,2048,10820,,,
10821,7,114.822049,38.156561,北苏镇,,130130,0311,130130103000,,,,,,,,,,2,100,1002,1203,2048,10821,,,
10822,7,114.871311,38.210859,郭庄镇,,130130,0311,130130104000,,,,,,,,,,2,100,1002,1203,2048,10822,,,
10823,7,115.020096,38.246227,大陈镇,,130130,0311,130130105000,,,,,,,,,,2,100,1002,1203,2048,10823,,,
10824,7,114.880259,38.12529,高头回族乡,,130130,0311,130130200000,,,,,,,,,,2,100,1002,1203,2048,10824,,,
10825,7,114.891564,38.098005,郝庄乡,,130130,0311,130130201000,,,,,,,,,,2,100,1002,1203,2048,10825,,,
10826,7,114.908822,38.174362,东侯坊乡,,130130,0311,130130202000,,,,,,,,,,2,100,1002,1203,2048,10826,,,
10827,7,114.926498,38.240395,里城道乡,,130130,0311,130130203000,,,,,,,,,,2,100,1002,1203,2048,10827,,,
10828,7,115.09391,38.234477,南流乡,,130130,0311,130130204000,,,,,,,,,,2,100,1002,1203,2048,10828,,,
10829,7,114.203076,38.246534,平山镇,,130131,0311,130131100000,,,,,,,,,,2,100,1002,1203,2049,10829,,,
10830,7,114.097,38.26682,东回舍镇,,130131,0311,130131101000,,,,,,,,,,2,100,1002,1203,2049,10830,,,
10831,7,113.99603,38.265742,温塘镇,,130131,0311,130131102000,,,,,,,,,,2,100,1002,1203,2049,10831,,,
10832,7,114.12204,38.386143,南甸镇,,130131,0311,130131103000,,,,,,,,,,2,100,1002,1203,2049,10832,,,
10833,7,114.023593,38.320012,岗南镇,,130131,0311,130131104000,,,,,,,,,,2,100,1002,1203,2049,10833,,,
10834,7,113.877759,38.2861,古月镇,,130131,0311,130131105000,,,,,,,,,,2,100,1002,1203,2049,10834,,,
10835,7,113.861347,38.358695,下槐镇,,130131,0311,130131106000,,,,,,,,,,2,100,1002,1203,2049,10835,,,
10836,7,113.88869,38.425679,孟家庄镇,,130131,0311,130131107000,,,,,,,,,,2,100,1002,1203,2049,10836,,,
10837,7,113.72068,38.395303,小觉镇,,130131,0311,130131108000,,,,,,,,,,2,100,1002,1203,2049,10837,,,
10838,7,113.759296,38.526138,蛟潭庄镇,,130131,0311,130131109000,,,,,,,,,,2,100,1002,1203,2049,10838,,,
10839,7,113.940556,38.351263,西柏坡镇,,130131,0311,130131110000,,,,,,,,,,2,100,1002,1203,2049,10839,,,
10840,7,113.653461,38.267869,下口镇,,130131,0311,130131111000,,,,,,,,,,2,100,1002,1203,2049,10840,,,
10841,7,114.109453,38.309709,西大吾乡,,130131,0311,130131200000,,,,,,,,,,2,100,1002,1203,2049,10841,,,
10842,7,114.244947,38.32285,上三汲乡,,130131,0311,130131201000,,,,,,,,,,2,100,1002,1203,2049,10842,,,
10843,7,114.16825,38.340633,两河乡,,130131,0311,130131202000,,,,,,,,,,2,100,1002,1203,2049,10843,,,
10844,7,114.135066,38.44963,东王坡乡,,130131,0311,130131203000,,,,,,,,,,2,100,1002,1203,2049,10844,,,
10845,7,114.003812,38.402661,苏家庄乡,,130131,0311,130131204000,,,,,,,,,,2,100,1002,1203,2049,10845,,,
10846,7,113.999769,38.501583,宅北乡,,130131,0311,130131205000,,,,,,,,,,2,100,1002,1203,2049,10846,,,
10847,7,113.81126,38.253812,北冶乡,,130131,0311,130131207000,,,,,,,,,,2,100,1002,1203,2049,10847,,,
10848,7,113.838074,38.53964,上观音堂乡,,130131,0311,130131209000,,,,,,,,,,2,100,1002,1203,2049,10848,,,
10849,7,113.620209,38.411433,杨家桥乡,,130131,0311,130131210000,,,,,,,,,,2,100,1002,1203,2049,10849,,,
10850,7,113.661513,38.483714,营里乡,,130131,0311,130131211000,,,,,,,,,,2,100,1002,1203,2049,10850,,,
10851,7,113.79506,38.61605,合河口乡,,130131,0311,130131212000,,,,,,,,,,2,100,1002,1203,2049,10851,,,
10852,7,114.51234,37.747889,城区街道,,130132,0311,130132001000,,,,,,,,,,2,100,1002,1203,2050,10852,,,
10853,7,114.536917,37.770546,槐阳镇,,130132,0311,130132100000,,,,,,,,,,2,100,1002,1203,2050,10853,,,
10854,7,114.47784,37.842193,殷村镇,,130132,0311,130132101000,,,,,,,,,,2,100,1002,1203,2050,10854,,,
10855,7,114.364811,37.8392,南佐镇,,130132,0311,130132102000,,,,,,,,,,2,100,1002,1203,2050,10855,,,
10856,7,114.61455,37.72032,宋曹镇,,130132,0311,130132103000,,,,,,,,,,2,100,1002,1203,2050,10856,,,
10857,7,114.609903,37.785561,南因镇,,130132,0311,130132104000,,,,,,,,,,2,100,1002,1203,2050,10857,,,
10858,7,114.406305,37.870792,姬村镇,,130132,0311,130132105000,,,,,,,,,,2,100,1002,1203,2050,10858,,,
10859,7,114.439821,37.820379,北褚镇,,130132,0311,130132106000,,,,,,,,,,2,100,1002,1203,2050,10859,,,
10860,7,114.515341,37.858042,马村镇,,130132,0311,130132107000,,,,,,,,,,2,100,1002,1203,2050,10860,,,
10861,7,114.543937,37.703497,东张乡,,130132,0311,130132201000,,,,,,,,,,2,100,1002,1203,2050,10861,,,
10862,7,114.502807,37.780756,赵同乡,,130132,0311,130132202000,,,,,,,,,,2,100,1002,1203,2050,10862,,,
10863,7,114.3485,37.792321,苏村乡,,130132,0311,130132204000,,,,,,,,,,2,100,1002,1203,2050,10863,,,
10864,7,114.460636,37.739568,苏阳乡,,130132,0311,130132205000,,,,,,,,,,2,100,1002,1203,2050,10864,,,
10865,7,114.304491,37.78782,北正乡,,130132,0311,130132206000,,,,,,,,,,2,100,1002,1203,2050,10865,,,
10866,7,114.28455,37.87024,前仙乡,,130132,0311,130132207000,,,,,,,,,,2,100,1002,1203,2050,10866,,,
10867,7,114.305918,37.829645,黑水河乡,,130132,0311,130132208000,,,,,,,,,,2,100,1002,1203,2050,10867,,,
10868,7,114.78369,37.75337,赵州镇,,130133,0311,130133100000,,,,,,,,,,2,100,1002,1203,2051,10868,,,
10869,7,114.968685,37.774336,范庄镇,,130133,0311,130133101000,,,,,,,,,,2,100,1002,1203,2051,10869,,,
10870,7,114.644044,37.764912,北王里镇,,130133,0311,130133102000,,,,,,,,,,2,100,1002,1203,2051,10870,,,
10871,7,114.721968,37.805507,新寨店镇,,130133,0311,130133103000,,,,,,,,,,2,100,1002,1203,2051,10871,,,
10872,7,114.84607,37.80096,韩村镇,,130133,0311,130133104000,,,,,,,,,,2,100,1002,1203,2051,10872,,,
10873,7,114.866967,37.751561,南柏舍镇,,130133,0311,130133105000,,,,,,,,,,2,100,1002,1203,2051,10873,,,
10874,7,114.746892,37.661732,沙河店镇,,130133,0311,130133106000,,,,,,,,,,2,100,1002,1203,2051,10874,,,
10875,7,114.832482,37.859047,前大章乡,,130133,0311,130133200000,,,,,,,,,,2,100,1002,1203,2051,10875,,,
10876,7,114.98681,37.80943,谢庄乡,,130133,0311,130133201000,,,,,,,,,,2,100,1002,1203,2051,10876,,,
10877,7,114.725014,37.708813,高村乡,,130133,0311,130133202000,,,,,,,,,,2,100,1002,1203,2051,10877,,,
10878,7,114.814411,37.705468,王西章乡,,130133,0311,130133203000,,,,,,,,,,2,100,1002,1203,2051,10878,,,
10879,7,114.625215,38.041616,长江街道,,130108,0311,130171010000,,,,,,,,,,2,100,1002,1203,2052,10879,,,
10880,7,114.62433,38.049899,太行街道,,130108,0311,130171011000,,,,,,,,,,2,100,1002,1203,2052,10880,,,
10881,7,114.635895,38.013762,宋营镇,,130108,0311,130171100000,,,,,,,,,,2,100,1002,1203,2052,10881,,,
10882,7,114.627375,37.978369,郄马镇,,130111,0311,130171101000,,,,,,,,,,2,100,1002,1203,2052,10882,,,
10883,7,114.692814,37.98752,丘头镇,,130109,0311,130172100000,,,,,,,,,,2,100,1002,1203,2053,10883,,,
10884,7,115.209261,37.918343,辛集镇,,130181,0311,130181100000,,,,,,,,,,2,100,1002,1203,2054,10884,,,
10885,7,115.3887,38.002419,旧城镇,,130181,0311,130181101000,,,,,,,,,,2,100,1002,1203,2054,10885,,,
10886,7,115.287167,38.056828,张古庄镇,,130181,0311,130181102000,,,,,,,,,,2,100,1002,1203,2054,10886,,,
10887,7,115.224719,38.032508,位伯镇,,130181,0311,130181103000,,,,,,,,,,2,100,1002,1203,2054,10887,,,
10888,7,115.222061,37.979951,新垒头镇,,130181,0311,130181104000,,,,,,,,,,2,100,1002,1203,2054,10888,,,
10889,7,115.31098,37.862321,新城镇,,130181,0311,130181105000,,,,,,,,,,2,100,1002,1203,2054,10889,,,
10890,7,115.24149,37.754936,南智邱镇,,130181,0311,130181106000,,,,,,,,,,2,100,1002,1203,2054,10890,,,
10891,7,115.288909,37.661966,王口镇,,130181,0311,130181107000,,,,,,,,,,2,100,1002,1203,2054,10891,,,
10892,7,115.425196,38.06669,天宫营乡,,130181,0311,130181200000,,,,,,,,,,2,100,1002,1203,2054,10892,,,
10893,7,115.218057,37.943315,前营乡,,130181,0311,130181201000,,,,,,,,,,2,100,1002,1203,2054,10893,,,
10894,7,115.303858,37.789695,马庄乡,,130181,0311,130181202000,,,,,,,,,,2,100,1002,1203,2054,10894,,,
10895,7,115.335251,37.921497,和睦井乡,,130181,0311,130181203000,,,,,,,,,,2,100,1002,1203,2054,10895,,,
10896,7,115.188764,37.880125,田家庄乡,,130181,0311,130181204000,,,,,,,,,,2,100,1002,1203,2054,10896,,,
10897,7,115.348348,38.078772,中里厢乡,,130181,0311,130181205000,,,,,,,,,,2,100,1002,1203,2054,10897,,,
10898,7,115.257099,38.095956,小辛庄乡,,130181,0311,130181206000,,,,,,,,,,2,100,1002,1203,2054,10898,,,
10899,7,115.250759,37.972922,辛集经济开发区,,130181,0311,130181500000,,,,,,,,,,2,100,1002,1203,2054,10899,,,
10900,7,115.036853,38.031028,晋州镇,,130183,0311,130183100000,,,,,,,,,,2,100,1002,1203,2055,10900,,,
10901,7,115.064356,37.860956,总十庄镇,,130183,0311,130183101000,,,,,,,,,,2,100,1002,1203,2055,10901,,,
10902,7,115.09868,37.824169,营里镇,,130183,0311,130183102000,,,,,,,,,,2,100,1002,1203,2055,10902,,,
10903,7,115.02332,37.961392,桃园镇,,130183,0311,130183103000,,,,,,,,,,2,100,1002,1203,2055,10903,,,
10904,7,115.14877,38.01631,东卓宿镇,,130183,0311,130183104000,,,,,,,,,,2,100,1002,1203,2055,10904,,,
10905,7,115.125913,37.976168,马于镇,,130183,0311,130183105000,,,,,,,,,,2,100,1002,1203,2055,10905,,,
10906,7,115.044185,38.033629,小樵镇,,130183,0311,130183106000,,,,,,,,,,2,100,1002,1203,2055,10906,,,
10907,7,115.06831,38.084488,槐树镇,,130183,0311,130183107000,,,,,,,,,,2,100,1002,1203,2055,10907,,,
10908,7,115.084228,37.93673,东里庄镇,,130183,0311,130183108000,,,,,,,,,,2,100,1002,1203,2055,10908,,,
10909,7,115.098547,38.022702,周家庄乡,,130183,0311,130183201000,,,,,,,,,,2,100,1002,1203,2055,10909,,,
10910,7,114.678935,38.346283,长寿街道,,130184,0311,130184001000,,,,,,,,,,2,100,1002,1203,2056,10910,,,
10911,7,114.565109,38.310867,化皮镇,,130184,0311,130184101000,,,,,,,,,,2,100,1002,1203,2056,10911,,,
10912,7,114.79299,38.40045,承安镇,,130184,0311,130184102000,,,,,,,,,,2,100,1002,1203,2056,10912,,,
10913,7,114.74382,38.470036,正莫镇,,130184,0311,130184103000,,,,,,,,,,2,100,1002,1203,2056,10913,,,
10914,7,114.805358,38.476286,南大岳镇,,130184,0311,130184104000,,,,,,,,,,2,100,1002,1203,2056,10914,,,
10915,7,114.866415,38.400112,杜固镇,,130184,0311,130184105000,,,,,,,,,,2,100,1002,1203,2056,10915,,,
10916,7,114.846626,38.318746,邯邰镇,,130184,0311,130184106000,,,,,,,,,,2,100,1002,1203,2056,10916,,,
10917,7,114.892049,38.321304,东王镇,,130184,0311,130184107000,,,,,,,,,,2,100,1002,1203,2056,10917,,,
10918,7,114.723904,38.320362,马头铺镇,,130184,0311,130184108000,,,,,,,,,,2,100,1002,1203,2056,10918,,,
10919,7,114.569325,38.357711,协神乡,,130184,0311,130184200000,,,,,,,,,,2,100,1002,1203,2056,10919,,,
10920,7,114.68703,38.39172,木村乡,,130184,0311,130184201000,,,,,,,,,,2,100,1002,1203,2056,10920,,,
10921,7,114.749266,38.371504,彭家庄回族乡,,130184,0311,130184202000,,,,,,,,,,2,100,1002,1203,2056,10921,,,
10922,7,118.15342,39.62304,学院南路街道,,130202,0315,130202001000,,,,,,,,,,2,100,1002,1204,2057,10922,,,
10923,7,118.137721,39.622072,友谊街道,,130202,0315,130202002000,,,,,,,,,,2,100,1002,1204,2057,10923,,,
10924,7,118.180167,39.620038,广场街道,,130202,0315,130202003000,,,,,,,,,,2,100,1002,1204,2057,10924,,,
10925,7,118.197714,39.616429,永红桥街道,,130202,0315,130202004000,,,,,,,,,,2,100,1002,1204,2057,10925,,,
10926,7,118.209871,39.622031,小山街道,,130202,0315,130202005000,,,,,,,,,,2,100,1002,1204,2057,10926,,,
10927,7,118.154354,39.625059,文北街道,,130202,0315,130202006000,,,,,,,,,,2,100,1002,1204,2057,10927,,,
10928,7,118.154354,39.625059,钱营街道,,130202,0315,130202007000,,,,,,,,,,2,100,1002,1204,2057,10928,,,
10929,7,118.136961,39.597455,惠民道街道,,130202,0315,130202008000,,,,,,,,,,2,100,1002,1204,2057,10929,,,
10930,7,118.139623,39.593367,梁家屯路街道,,130202,0315,130202009000,,,,,,,,,,2,100,1002,1204,2057,10930,,,
10931,7,118.195767,39.541303,稻地镇,,130202,0315,130202102000,,,,,,,,,,2,100,1002,1204,2057,10931,,,
10932,7,118.205731,39.59756,女织寨乡,,130202,0315,130202200000,,,,,,,,,,2,100,1002,1204,2057,10932,,,
10933,7,118.203304,39.625942,乔屯街道,,130203,0315,130203001000,,,,,,,,,,2,100,1002,1204,2058,10933,,,
10934,7,118.16944,39.641089,文化路街道,,130203,0315,130203002000,,,,,,,,,,2,100,1002,1204,2058,10934,,,
10935,7,118.204841,39.653066,钓鱼台街道,,130203,0315,130203003000,,,,,,,,,,2,100,1002,1204,2058,10935,,,
10936,7,118.22297,39.6369,东新村街道,,130203,0315,130203004000,,,,,,,,,,2,100,1002,1204,2058,10936,,,
10937,7,118.210817,39.663153,缸窑街道,,130203,0315,130203005000,,,,,,,,,,2,100,1002,1204,2058,10937,,,
10938,7,118.166544,39.652642,机场路街道,,130203,0315,130203006000,,,,,,,,,,2,100,1002,1204,2058,10938,,,
10939,7,118.201015,39.684838,河北路街道,,130203,0315,130203007000,,,,,,,,,,2,100,1002,1204,2058,10939,,,
10940,7,118.200034,39.674163,龙东街道,,130203,0315,130203008000,,,,,,,,,,2,100,1002,1204,2058,10940,,,
10941,7,118.151981,39.62846,大里街道,,130203,0315,130203009000,,,,,,,,,,2,100,1002,1204,2058,10941,,,
10942,7,118.129976,39.627633,光明街道,,130203,0315,130203010000,,,,,,,,,,2,100,1002,1204,2058,10942,,,
10943,7,118.140598,39.644349,翔云道街道,,130203,0315,130203011000,,,,,,,,,,2,100,1002,1204,2058,10943,,,
10944,7,118.05483,39.640058,韩城镇,,130208,0315,130203100000,,,,,,,,,,2,100,1002,1204,2058,10944,,,
10945,7,118.129393,39.630582,果园乡,,130203,0315,130203200000,,,,,,,,,,2,100,1002,1204,2058,10945,,,
10946,7,118.454291,39.713337,林西街道,,130204,0315,130204001000,,,,,,,,,,2,100,1002,1204,2059,10946,,,
10947,7,118.462188,39.741008,唐家庄街道,,130204,0315,130204002000,,,,,,,,,,2,100,1002,1204,2059,10947,,,
10948,7,118.436443,39.728283,古冶街道,,130204,0315,130204003000,,,,,,,,,,2,100,1002,1204,2059,10948,,,
10949,7,118.425333,39.762729,赵各庄街道,,130204,0315,130204004000,,,,,,,,,,2,100,1002,1204,2059,10949,,,
10950,7,118.454015,39.749243,京华街道,,130204,0315,130204007000,,,,,,,,,,2,100,1002,1204,2059,10950,,,
10951,7,118.454929,39.649417,范各庄镇,,130204,0315,130204100000,,,,,,,,,,2,100,1002,1204,2059,10951,,,
10952,7,118.488765,39.746988,卑家店镇,,130204,0315,130204101000,,,,,,,,,,2,100,1002,1204,2059,10952,,,
10953,7,118.36543,39.741474,王辇庄乡,,130204,0315,130204201000,,,,,,,,,,2,100,1002,1204,2059,10953,,,
10954,7,118.404531,39.723521,习家套乡,,130204,0315,130204202000,,,,,,,,,,2,100,1002,1204,2059,10954,,,
10955,7,118.45307,39.710349,大庄坨乡,,130204,0315,130204203000,,,,,,,,,,2,100,1002,1204,2059,10955,,,
10956,7,118.24548,39.702618,马家沟街道,,130205,0315,130205001000,,,,,,,,,,2,100,1002,1204,2060,10956,,,
10957,7,118.260604,39.674338,开平街道,,130205,0315,130205002000,,,,,,,,,,2,100,1002,1204,2060,10957,,,
10958,7,118.235318,39.628511,税务庄街道,,130205,0315,130205003000,,,,,,,,,,2,100,1002,1204,2060,10958,,,
10959,7,118.278126,39.767316,陡电街道,,130205,0315,130205005000,,,,,,,,,,2,100,1002,1204,2060,10959,,,
10960,7,118.256389,39.754615,荆各庄街道,,130205,0315,130205006000,,,,,,,,,,2,100,1002,1204,2060,10960,,,
10961,7,118.263905,39.682469,开平镇,,130205,0315,130205100000,,,,,,,,,,2,100,1002,1204,2060,10961,,,
10962,7,118.256077,39.764185,栗园镇,,130205,0315,130205101000,,,,,,,,,,2,100,1002,1204,2060,10962,,,
10963,7,118.2077,39.700469,郑庄子镇,,130203,0315,130205102000,,,,,,,,,,2,100,1002,1204,2060,10963,,,
10964,7,118.290889,39.733326,双桥镇,,130205,0315,130205103000,,,,,,,,,,2,100,1002,1204,2060,10964,,,
10965,7,118.340956,39.69647,洼里镇,,130205,0315,130205104000,,,,,,,,,,2,100,1002,1204,2060,10965,,,
10966,7,118.255132,39.623819,越河镇,,130205,0315,130205105000,,,,,,,,,,2,100,1002,1204,2060,10966,,,
10967,7,118.275683,39.468802,小集镇,,130207,0315,130207103000,,,,,,,,,,2,100,1002,1204,2061,10967,,,
10968,7,118.143946,39.476943,黄各庄镇,,130207,0315,130207104000,,,,,,,,,,2,100,1002,1204,2061,10968,,,
10969,7,118.206426,39.473734,西葛镇,,130207,0315,130207105000,,,,,,,,,,2,100,1002,1204,2061,10969,,,
10970,7,118.347112,39.420535,大新庄镇,,130207,0315,130207106000,,,,,,,,,,2,100,1002,1204,2061,10970,,,
10971,7,118.374623,39.568311,钱营镇,,130207,0315,130207107000,,,,,,,,,,2,100,1002,1204,2061,10971,,,
10972,7,118.028661,39.470822,唐坊镇,,130207,0315,130207108000,,,,,,,,,,2,100,1002,1204,2061,10972,,,
10973,7,118.036761,39.435366,王兰庄镇,,130207,0315,130207109000,,,,,,,,,,2,100,1002,1204,2061,10973,,,
10974,7,118.085169,39.576031,柳树酄镇,,130207,0315,130207110000,,,,,,,,,,2,100,1002,1204,2061,10974,,,
10975,7,118.147034,39.226616,黑沿子镇,,130207,0315,130207111000,,,,,,,,,,2,100,1002,1204,2061,10975,,,
10976,7,118.119891,39.56587,丰南镇,,130207,0315,130207113000,,,,,,,,,,2,100,1002,1204,2061,10976,,,
10977,7,118.28862,39.562706,大齐各庄镇,,130207,0315,130207114000,,,,,,,,,,2,100,1002,1204,2061,10977,,,
10978,7,118.043104,39.587228,岔河镇,,130208,0315,130207115000,,,,,,,,,,2,100,1002,1204,2061,10978,,,
10979,7,118.000161,39.51851,南孙庄乡,,130207,0315,130207201000,,,,,,,,,,2,100,1002,1204,2061,10979,,,
10980,7,117.934803,39.417377,东田庄乡,,130207,0315,130207202000,,,,,,,,,,2,100,1002,1204,2061,10980,,,
10981,7,118.098916,39.396134,尖字沽乡,,130207,0315,130207203000,,,,,,,,,,2,100,1002,1204,2061,10981,,,
10982,7,118.168657,39.832089,太平路街道,,130208,0315,130208001000,,,,,,,,,,2,100,1002,1204,2062,10982,,,
10983,7,118.160438,39.833378,燕山路街道,,130208,0315,130208002000,,,,,,,,,,2,100,1002,1204,2062,10983,,,
10984,7,118.133402,39.831517,浭阳街道,,130208,0315,130208003000,,,,,,,,,,2,100,1002,1204,2062,10984,,,
10985,7,118.10742,39.826373,丰润镇,,130208,0315,130208100000,,,,,,,,,,2,100,1002,1204,2062,10985,,,
10986,7,118.166586,39.739962,任各庄镇,,130205,0315,130208102000,,,,,,,,,,2,100,1002,1204,2062,10986,,,
10987,7,118.157361,39.951959,左家坞镇,,130208,0315,130208103000,,,,,,,,,,2,100,1002,1204,2062,10987,,,
10988,7,118.140541,39.899534,泉河头镇,,130208,0315,130208104000,,,,,,,,,,2,100,1002,1204,2062,10988,,,
10989,7,118.265539,39.92392,王官营镇,,130208,0315,130208105000,,,,,,,,,,2,100,1002,1204,2062,10989,,,
10990,7,118.266449,39.984445,火石营镇,,130208,0315,130208106000,,,,,,,,,,2,100,1002,1204,2062,10990,,,
10991,7,117.962157,39.642837,新军屯镇,,130208,0315,130208109000,,,,,,,,,,2,100,1002,1204,2062,10991,,,
10992,7,117.908799,39.629259,小张各庄镇,,130208,0315,130208110000,,,,,,,,,,2,100,1002,1204,2062,10992,,,
10993,7,117.922208,39.698902,丰登坞镇,,130208,0315,130208111000,,,,,,,,,,2,100,1002,1204,2062,10993,,,
10994,7,117.870814,39.652589,李钊庄镇,,130208,0315,130208112000,,,,,,,,,,2,100,1002,1204,2062,10994,,,
10995,7,117.962279,39.794378,白官屯镇,,130208,0315,130208113000,,,,,,,,,,2,100,1002,1204,2062,10995,,,
10996,7,118.016503,39.774581,石各庄镇,,130208,0315,130208114000,,,,,,,,,,2,100,1002,1204,2062,10996,,,
10997,7,117.953024,39.874278,沙流河镇,,130208,0315,130208115000,,,,,,,,,,2,100,1002,1204,2062,10997,,,
10998,7,118.030578,39.847862,七树庄镇,,130208,0315,130208116000,,,,,,,,,,2,100,1002,1204,2062,10998,,,
10999,7,118.015299,39.902223,杨官林镇,,130208,0315,130208117000,,,,,,,,,,2,100,1002,1204,2062,10999,,,
11000,7,118.152994,39.825449,银城铺镇,,130208,0315,130208118000,,,,,,,,,,2,100,1002,1204,2062,11000,,,
11001,7,118.20375,39.77896,常庄镇,,130208,0315,130208119000,,,,,,,,,,2,100,1002,1204,2062,11001,,,
11002,7,118.230976,39.891122,姜家营乡,,130208,0315,130208202000,,,,,,,,,,2,100,1002,1204,2062,11002,,,
11003,7,117.96607,39.603771,欢喜庄乡,,130208,0315,130208205000,,,,,,,,,,2,100,1002,1204,2062,11003,,,
11004,7,118.22489,39.851949,刘家营乡,,130208,0315,130208208000,,,,,,,,,,2,100,1002,1204,2062,11004,,,
11005,7,118.435787,39.268103,唐海镇,,130209,0315,130209100000,,,,,,,,,,2,100,1002,1204,2063,11005,,,
11006,7,118.204106,39.249281,滨海镇,,130209,0315,130209112000,,,,,,,,,,2,100,1002,1204,2063,11006,,,
11007,7,118.660283,39.224597,柳赞镇,,130209,0315,130209113000,,,,,,,,,,2,100,1002,1204,2063,11007,,,
11008,7,118.460379,39.27307,一农场,,130209,0315,130209401000,,,,,,,,,,2,100,1002,1204,2063,11008,,,
11009,7,118.513508,39.268158,三农场,,130209,0315,130209403000,,,,,,,,,,2,100,1002,1204,2063,11009,,,
11010,7,118.399374,39.230785,四农场,,130209,0315,130209404000,,,,,,,,,,2,100,1002,1204,2063,11010,,,
11011,7,118.43429,39.203271,五农场,,130209,0315,130209405000,,,,,,,,,,2,100,1002,1204,2063,11011,,,
11012,7,118.41808,39.375638,六农场,,130209,0315,130209406000,,,,,,,,,,2,100,1002,1204,2063,11012,,,
11013,7,118.345073,39.212035,七农场,,130209,0315,130209407000,,,,,,,,,,2,100,1002,1204,2063,11013,,,
11014,7,118.259301,39.39478,八农场,,130209,0315,130209408000,,,,,,,,,,2,100,1002,1204,2063,11014,,,
11015,7,118.657545,39.293367,九农场,,130209,0315,130209409000,,,,,,,,,,2,100,1002,1204,2063,11015,,,
11016,7,118.348142,39.30859,十农场,,130209,0315,130209410000,,,,,,,,,,2,100,1002,1204,2063,11016,,,
11017,7,118.31805,39.274489,十一农场,,130209,0315,130209411000,,,,,,,,,,2,100,1002,1204,2063,11017,,,
11018,7,118.569336,39.208565,八里滩养殖场,,130209,0315,130209412000,,,,,,,,,,2,100,1002,1204,2063,11018,,,
11019,7,118.486076,39.160244,十里海养殖场,,130209,0315,130209413000,,,,,,,,,,2,100,1002,1204,2063,11019,,,
11020,7,118.21021,39.240028,南堡经济开发区,,130209,0315,130209450000,,,,,,,,,,2,100,1002,1204,2063,11020,,,
11021,7,118.512257,39.003364,曹妃甸工业区,,130209,0315,130209451000,,,,,,,,,,2,100,1002,1204,2063,11021,,,
11022,7,118.593156,39.204026,曹妃甸新城,,130209,0315,130209452000,,,,,,,,,,2,100,1002,1204,2063,11022,,,
11023,7,118.67173,39.50336,友谊路街道,,130224,0315,130224001000,,,,,,,,,,2,100,1002,1204,2064,11023,,,
11024,7,118.66668,39.506241,倴城镇,,130224,0315,130224100000,,,,,,,,,,2,100,1002,1204,2064,11024,,,
11025,7,118.772365,39.512414,宋道口镇,,130224,0315,130224101000,,,,,,,,,,2,100,1002,1204,2064,11025,,,
11026,7,118.80186,39.5819,长凝镇,,130224,0315,130224102000,,,,,,,,,,2,100,1002,1204,2064,11026,,,
11027,7,118.6526,39.39595,胡各庄镇,,130224,0315,130224103000,,,,,,,,,,2,100,1002,1204,2064,11027,,,
11028,7,118.657647,39.343693,坨里镇,,130224,0315,130224104000,,,,,,,,,,2,100,1002,1204,2064,11028,,,
11029,7,118.717033,39.384158,姚王庄镇,,130224,0315,130224105000,,,,,,,,,,2,100,1002,1204,2064,11029,,,
11030,7,118.507019,39.442495,司各庄镇,,130224,0315,130224106000,,,,,,,,,,2,100,1002,1204,2064,11030,,,
11031,7,118.449642,39.429393,安各庄镇,,130224,0315,130224107000,,,,,,,,,,2,100,1002,1204,2064,11031,,,
11032,7,118.574499,39.543593,扒齿港镇,,130224,0315,130224108000,,,,,,,,,,2,100,1002,1204,2064,11032,,,
11033,7,118.663994,39.561881,程庄镇,,130224,0315,130224109000,,,,,,,,,,2,100,1002,1204,2064,11033,,,
11034,7,118.461483,39.539322,青坨营镇,,130224,0315,130224110000,,,,,,,,,,2,100,1002,1204,2064,11034,,,
11035,7,118.521437,39.307272,柏各庄镇,,130224,0315,130224111000,,,,,,,,,,2,100,1002,1204,2064,11035,,,
11036,7,118.633461,39.286803,南堡镇,,130209,0315,130224114000,,,,,,,,,,2,100,1002,1204,2064,11036,,,
11037,7,118.688244,39.462112,方各庄镇,,130224,0315,130224115000,,,,,,,,,,2,100,1002,1204,2064,11037,,,
11038,7,118.48855,39.351221,东黄坨镇,,130224,0315,130224116000,,,,,,,,,,2,100,1002,1204,2064,11038,,,
11039,7,118.793008,39.634622,马城镇,,130224,0315,130224117000,,,,,,,,,,2,100,1002,1204,2064,11039,,,
11040,7,118.91434,39.423271,乐安街道,,130225,0315,130225001000,,,,,,,,,,2,100,1002,1204,2065,11040,,,
11041,7,118.902672,39.426743,乐亭镇,,130225,0315,130225100000,,,,,,,,,,2,100,1002,1204,2065,11041,,,
11042,7,119.009498,39.342016,汤家河镇,,130225,0315,130225101000,,,,,,,,,,2,100,1002,1204,2065,11042,,,
11043,7,119.0378,39.39861,胡家坨镇,,130225,0315,130225102000,,,,,,,,,,2,100,1002,1204,2065,11043,,,
11044,7,118.872373,39.331308,阎各庄镇,,130225,0315,130225104000,,,,,,,,,,2,100,1002,1204,2065,11044,,,
11045,7,118.818439,39.291761,马头营镇,,130225,0315,130225105000,,,,,,,,,,2,100,1002,1204,2065,11045,,,
11046,7,118.782149,39.354466,新寨镇,,130225,0315,130225106000,,,,,,,,,,2,100,1002,1204,2065,11046,,,
11047,7,118.829385,39.509471,汀流河镇,,130225,0315,130225107000,,,,,,,,,,2,100,1002,1204,2065,11047,,,
11048,7,119.127575,39.446758,姜各庄镇,,130225,0315,130225108000,,,,,,,,,,2,100,1002,1204,2065,11048,,,
11049,7,118.963879,39.425251,毛庄镇,,130225,0315,130225109000,,,,,,,,,,2,100,1002,1204,2065,11049,,,
11050,7,118.912612,39.509877,中堡镇,,130225,0315,130225110000,,,,,,,,,,2,100,1002,1204,2065,11050,,,
11051,7,118.818921,39.418046,庞各庄乡,,130225,0315,130225201000,,,,,,,,,,2,100,1002,1204,2065,11051,,,
11052,7,118.74384,39.402599,大相各庄乡,,130225,0315,130225202000,,,,,,,,,,2,100,1002,1204,2065,11052,,,
11053,7,118.73486,39.276401,古河乡,,130225,0315,130225203000,,,,,,,,,,2,100,1002,1204,2065,11053,,,
11054,7,118.912571,39.425608,河北乐亭经济开发区,,130225,0315,130225453000,,,,,,,,,,2,100,1002,1204,2065,11054,,,
11055,7,118.912571,39.425608,乐亭县城区工业聚集区管理委员会,,130225,0315,130225454000,,,,,,,,,,2,100,1002,1204,2065,11055,,,
11056,7,118.180193,39.630867,迁西县栗乡街道,,130200,0315,130227001000,,,,,,,,,,2,100,1002,1204,2066,11056,,,
11057,7,118.309155,40.141136,兴城镇,,130227,0315,130227100000,,,,,,,,,,2,100,1002,1204,2066,11057,,,
11058,7,118.46621,40.313875,金厂峪镇,,130227,0315,130227101000,,,,,,,,,,2,100,1002,1204,2066,11058,,,
11059,7,118.255991,40.329017,洒河桥镇,,130227,0315,130227102000,,,,,,,,,,2,100,1002,1204,2066,11059,,,
11060,7,118.53979,40.229225,太平寨镇,,130227,0315,130227103000,,,,,,,,,,2,100,1002,1204,2066,11060,,,
11061,7,118.564664,40.174603,罗家屯镇,,130227,0315,130227104000,,,,,,,,,,2,100,1002,1204,2066,11061,,,
11062,7,118.403966,40.202799,东荒峪镇,,130227,0315,130227105000,,,,,,,,,,2,100,1002,1204,2066,11062,,,
11063,7,118.40455,40.09717,新集镇,,130227,0315,130227106000,,,,,,,,,,2,100,1002,1204,2066,11063,,,
11064,7,118.204373,40.215251,三屯营镇,,130227,0315,130227107000,,,,,,,,,,2,100,1002,1204,2066,11064,,,
11065,7,118.314001,40.361924,滦阳镇,,130227,0315,130227108000,,,,,,,,,,2,100,1002,1204,2066,11065,,,
11066,7,118.276729,40.184937,白庙子乡,,130227,0315,130227200000,,,,,,,,,,2,100,1002,1204,2066,11066,,,
11067,7,118.49984,40.387893,上营乡,,130227,0315,130227201000,,,,,,,,,,2,100,1002,1204,2066,11067,,,
11068,7,118.222639,40.365571,汉儿庄乡,,130227,0315,130227202000,,,,,,,,,,2,100,1002,1204,2066,11068,,,
11069,7,118.393517,40.269134,渔户寨乡,,130227,0315,130227203000,,,,,,,,,,2,100,1002,1204,2066,11069,,,
11070,7,118.347734,40.169747,旧城乡,,130227,0315,130227204000,,,,,,,,,,2,100,1002,1204,2066,11070,,,
11071,7,118.492785,40.126049,尹庄乡,,130227,0315,130227205000,,,,,,,,,,2,100,1002,1204,2066,11071,,,
11072,7,118.418367,39.984745,东莲花院乡,,130227,0315,130227206000,,,,,,,,,,2,100,1002,1204,2066,11072,,,
11073,7,118.298063,40.061422,新庄子乡,,130227,0315,130227207000,,,,,,,,,,2,100,1002,1204,2066,11073,,,
11074,7,118.180193,39.630867,迁西县栗乡工业产业聚集区,,130200,0315,130227450000,,,,,,,,,,2,100,1002,1204,2066,11074,,,
11075,7,117.709706,39.89106,无终街道,,130229,0315,130229001000,,,,,,,,,,2,100,1002,1204,2067,11075,,,
11076,7,117.741159,39.884912,玉田镇,,130229,0315,130229100000,,,,,,,,,,2,100,1002,1204,2067,11076,,,
11077,7,117.87358,39.876044,亮甲店镇,,130229,0315,130229101000,,,,,,,,,,2,100,1002,1204,2067,11077,,,
11078,7,117.86305,39.754496,鸦鸿桥镇,,130229,0315,130229102000,,,,,,,,,,2,100,1002,1204,2067,11078,,,
11079,7,117.775183,39.666973,窝洛沽镇,,130229,0315,130229103000,,,,,,,,,,2,100,1002,1204,2067,11079,,,
11080,7,117.679566,39.670838,石臼窝镇,,130229,0315,130229104000,,,,,,,,,,2,100,1002,1204,2067,11080,,,
11081,7,117.74597,39.8339,虹桥镇,,130229,0315,130229105000,,,,,,,,,,2,100,1002,1204,2067,11081,,,
11082,7,117.79474,39.786678,散水头镇,,130229,0315,130229106000,,,,,,,,,,2,100,1002,1204,2067,11082,,,
11083,7,117.625198,39.837581,林南仓镇,,130229,0315,130229107000,,,,,,,,,,2,100,1002,1204,2067,11083,,,
11084,7,117.579343,39.842275,林西镇,,130229,0315,130229108000,,,,,,,,,,2,100,1002,1204,2067,11084,,,
11085,7,117.626992,39.767639,杨家板桥镇,,130229,0315,130229109000,,,,,,,,,,2,100,1002,1204,2067,11085,,,
11086,7,117.670391,39.901788,彩亭桥镇,,130229,0315,130229110000,,,,,,,,,,2,100,1002,1204,2067,11086,,,
11087,7,117.62798,39.90334,孤树镇,,130229,0315,130229111000,,,,,,,,,,2,100,1002,1204,2067,11087,,,
11088,7,117.738658,39.900401,大安镇镇,,130229,0315,130229112000,,,,,,,,,,2,100,1002,1204,2067,11088,,,
11089,7,117.680295,39.948322,唐自头镇,,130229,0315,130229113000,,,,,,,,,,2,100,1002,1204,2067,11089,,,
11090,7,117.786034,39.912396,郭家屯镇,,130229,0315,130229114000,,,,,,,,,,2,100,1002,1204,2067,11090,,,
11091,7,117.860179,39.806372,杨家套镇,,130229,0315,130229115000,,,,,,,,,,2,100,1002,1204,2067,11091,,,
11092,7,117.8945,39.919232,林头屯乡,,130229,0315,130229201000,,,,,,,,,,2,100,1002,1204,2067,11092,,,
11093,7,117.73648,39.618569,潮洛窝乡,,130229,0315,130229203000,,,,,,,,,,2,100,1002,1204,2067,11093,,,
11094,7,117.71372,39.784501,陈家铺乡,,130229,0315,130229204000,,,,,,,,,,2,100,1002,1204,2067,11094,,,
11095,7,117.66077,39.79643,郭家桥乡,,130229,0315,130229205000,,,,,,,,,,2,100,1002,1204,2067,11095,,,
11096,7,118.144879,39.806215,芦台开发区海北镇,,130208,0315,130271100000,,,,,,,,,,2,100,1002,1204,2068,11096,,,
11097,7,118.144879,39.806215,芦台开发区新华路街道,,130208,0315,130271450000,,,,,,,,,,2,100,1002,1204,2068,11097,,,
11098,7,117.88353,39.362495,汉沽管理区汉丰镇,,130207,0315,130272101000,,,,,,,,,,2,100,1002,1204,2069,11098,,,
11099,7,117.88353,39.362495,汉沽管理区兴农街道,,130207,0315,130272451000,,,,,,,,,,2,100,1002,1204,2069,11099,,,
11100,7,117.88353,39.362495,汉沽管理区振兴街道,,130207,0315,130272452000,,,,,,,,,,2,100,1002,1204,2069,11100,,,
11101,7,118.180193,39.630867,街道,,130200,0315,130273001000,,,,,,,,,,2,100,1002,1204,2070,11101,,,
11102,7,118.108226,39.711549,老庄子镇,,130208,0315,130273101000,,,,,,,,,,2,100,1002,1204,2070,11102,,,
11103,7,118.182874,39.693717,庆北办事处,,130203,0315,130273401000,,,,,,,,,,2,100,1002,1204,2070,11103,,,
11104,7,118.01689,39.728942,三女河办事处,,130208,0315,130273402000,,,,,,,,,,2,100,1002,1204,2070,11104,,,
11105,7,118.979604,39.286538,唐山海港开发区王滩镇,,130225,0315,130274103000,,,,,,,,,,2,100,1002,1204,2071,11105,,,
11106,7,119.003392,39.231911,唐山海港经济开发区街道办事处,,130225,0315,130274451000,,,,,,,,,,2,100,1002,1204,2071,11106,,,
11107,7,118.893226,39.424453,唐山湾国际旅游岛,,130225,0315,130274452000,,,,,,,,,,2,100,1002,1204,2071,11107,,,
11108,7,118.840756,39.258213,大清河,,130225,0315,130274455000,,,,,,,,,,2,100,1002,1204,2071,11108,,,
11109,7,117.956419,40.183565,华明路街道,,130281,0315,130281001000,,,,,,,,,,2,100,1002,1204,2072,11109,,,
11110,7,117.96547,40.193099,文化路街道,,130281,0315,130281002000,,,,,,,,,,2,100,1002,1204,2072,11110,,,
11111,7,117.977309,40.183685,遵化镇,,130281,0315,130281100000,,,,,,,,,,2,100,1002,1204,2072,11111,,,
11112,7,117.827089,40.162472,堡子店镇,,130281,0315,130281101000,,,,,,,,,,2,100,1002,1204,2072,11112,,,
11113,7,117.700279,40.189986,马兰峪镇,,130281,0315,130281102000,,,,,,,,,,2,100,1002,1204,2072,11113,,,
11114,7,117.797961,40.056699,平安城镇,,130281,0315,130281103000,,,,,,,,,,2,100,1002,1204,2072,11114,,,
11115,7,117.892064,40.069906,东新庄镇,,130281,0315,130281104000,,,,,,,,,,2,100,1002,1204,2072,11115,,,
11116,7,118.017948,40.068503,新店子镇,,130281,0315,130281105000,,,,,,,,,,2,100,1002,1204,2072,11116,,,
11117,7,118.02584,39.989399,党峪镇,,130281,0315,130281106000,,,,,,,,,,2,100,1002,1204,2072,11117,,,
11118,7,117.97731,39.935069,地北头镇,,130281,0315,130281107000,,,,,,,,,,2,100,1002,1204,2072,11118,,,
11119,7,118.143947,40.116099,东旧寨镇,,130281,0315,130281108000,,,,,,,,,,2,100,1002,1204,2072,11119,,,
11120,7,118.188372,40.069143,铁厂镇,,130281,0315,130281109000,,,,,,,,,,2,100,1002,1204,2072,11120,,,
11121,7,117.96542,40.228288,苏家洼镇,,130281,0315,130281110000,,,,,,,,,,2,100,1002,1204,2072,11121,,,
11122,7,118.127857,40.19179,建明镇,,130281,0315,130281111000,,,,,,,,,,2,100,1002,1204,2072,11122,,,
11123,7,117.714166,40.121109,石门镇,,130281,0315,130281112000,,,,,,,,,,2,100,1002,1204,2072,11123,,,
11124,7,117.914364,40.182871,西留村乡,,130281,0315,130281200000,,,,,,,,,,2,100,1002,1204,2072,11124,,,
11125,7,118.03764,40.183709,崔家庄乡,,130281,0315,130281201000,,,,,,,,,,2,100,1002,1204,2072,11125,,,
11126,7,117.881166,40.213566,兴旺寨乡,,130281,0315,130281202000,,,,,,,,,,2,100,1002,1204,2072,11126,,,
11127,7,117.803681,40.20425,西下营满族乡,,130281,0315,130281203000,,,,,,,,,,2,100,1002,1204,2072,11127,,,
11128,7,117.764717,40.207041,汤泉满族乡,,130281,0315,130281204000,,,,,,,,,,2,100,1002,1204,2072,11128,,,
11129,7,117.702089,40.149471,东陵满族乡,,130281,0315,130281205000,,,,,,,,,,2,100,1002,1204,2072,11129,,,
11130,7,117.897775,40.016753,刘备寨乡,,130281,0315,130281206000,,,,,,,,,,2,100,1002,1204,2072,11130,,,
11131,7,117.964709,40.09532,团瓢庄乡,,130281,0315,130281207000,,,,,,,,,,2,100,1002,1204,2072,11131,,,
11132,7,118.080598,40.037086,娘娘庄乡,,130281,0315,130281208000,,,,,,,,,,2,100,1002,1204,2072,11132,,,
11133,7,117.948808,40.203297,西三里乡,,130281,0315,130281209000,,,,,,,,,,2,100,1002,1204,2072,11133,,,
11134,7,117.98516,40.268993,侯家寨乡,,130281,0315,130281210000,,,,,,,,,,2,100,1002,1204,2072,11134,,,
11135,7,118.103468,40.234742,小厂乡,,130281,0315,130281211000,,,,,,,,,,2,100,1002,1204,2072,11135,,,
11136,7,118.692963,40.011399,永顺街道,,130283,0315,130283001000,,,,,,,,,,2,100,1002,1204,2073,11136,,,
11137,7,118.701144,39.999175,兴安街道,,130283,0315,130283002000,,,,,,,,,,2,100,1002,1204,2073,11137,,,
11138,7,118.701144,39.999175,滨河街道,,130283,0315,130283003000,,,,,,,,,,2,100,1002,1204,2073,11138,,,
11139,7,118.578679,40.009592,杨店子街道,,130283,0315,130283004000,,,,,,,,,,2,100,1002,1204,2073,11139,,,
11140,7,118.80988,39.97258,夏官营镇,,130283,0315,130283101000,,,,,,,,,,2,100,1002,1204,2073,11140,,,
11141,7,118.87164,40.090231,杨各庄镇,,130283,0315,130283102000,,,,,,,,,,2,100,1002,1204,2073,11141,,,
11142,7,118.799759,40.132391,建昌营镇,,130283,0315,130283103000,,,,,,,,,,2,100,1002,1204,2073,11142,,,
11143,7,118.664119,39.933796,赵店子镇,,130283,0315,130283104000,,,,,,,,,,2,100,1002,1204,2073,11143,,,
11144,7,118.677336,39.868475,野鸡坨镇,,130283,0315,130283105000,,,,,,,,,,2,100,1002,1204,2073,11144,,,
11145,7,118.658461,40.157636,大崔庄镇,,130283,0315,130283106000,,,,,,,,,,2,100,1002,1204,2073,11145,,,
11146,7,118.701144,39.999175,蔡园镇,,130283,0315,130283108000,,,,,,,,,,2,100,1002,1204,2073,11146,,,
11147,7,118.606995,40.121105,马兰庄镇,,130283,0315,130283109000,,,,,,,,,,2,100,1002,1204,2073,11147,,,
11148,7,118.573382,39.866522,沙河驿镇,,130283,0315,130283110000,,,,,,,,,,2,100,1002,1204,2073,11148,,,
11149,7,118.60406,39.941131,木厂口镇,,130283,0315,130283111000,,,,,,,,,,2,100,1002,1204,2073,11149,,,
11150,7,118.76952,40.047925,扣庄乡,,130283,0315,130283200000,,,,,,,,,,2,100,1002,1204,2073,11150,,,
11151,7,118.83943,39.915741,彭店子乡,,130283,0315,130283201000,,,,,,,,,,2,100,1002,1204,2073,11151,,,
11152,7,118.753858,40.087796,上射雁庄乡,,130283,0315,130283202000,,,,,,,,,,2,100,1002,1204,2073,11152,,,
11153,7,118.696004,40.114506,闫家店乡,,130283,0315,130283203000,,,,,,,,,,2,100,1002,1204,2073,11153,,,
11154,7,118.648236,40.190811,五重安乡,,130283,0315,130283204000,,,,,,,,,,2,100,1002,1204,2073,11154,,,
11155,7,118.52221,40.007349,大五里乡,,130283,0315,130283205000,,,,,,,,,,2,100,1002,1204,2073,11155,,,
11156,7,118.477193,39.869514,太平庄乡,,130283,0315,130283206000,,,,,,,,,,2,100,1002,1204,2073,11156,,,
11157,7,118.70571,39.7494,滦河街道,,130223,0315,130284001000,,,,,,,,,,2,100,1002,1204,2074,11157,,,
11158,7,118.17345,39.625,古城街道,,130202,0315,130284002000,,,,,,,,,,2,100,1002,1204,2074,11158,,,
11159,7,118.689775,39.74038,滦城路街道,,130223,0315,130284003000,,,,,,,,,,2,100,1002,1204,2074,11159,,,
11160,7,118.689775,39.74038,响堂街道,,130223,0315,130284004000,,,,,,,,,,2,100,1002,1204,2074,11160,,,
11161,7,118.670323,39.795417,东安各庄镇,,130223,0315,130284102000,,,,,,,,,,2,100,1002,1204,2074,11161,,,
11162,7,118.586555,39.755616,雷庄镇,,130223,0315,130284103000,,,,,,,,,,2,100,1002,1204,2074,11162,,,
11163,7,118.50041,39.608811,茨榆坨镇,,130223,0315,130284104000,,,,,,,,,,2,100,1002,1204,2074,11163,,,
11164,7,118.278929,39.828701,榛子镇,,130223,0315,130284105000,,,,,,,,,,2,100,1002,1204,2074,11164,,,
11165,7,118.382122,39.912223,杨柳庄镇,,130223,0315,130284106000,,,,,,,,,,2,100,1002,1204,2074,11165,,,
11166,7,118.771017,39.860522,油榨镇,,130223,0315,130284107000,,,,,,,,,,2,100,1002,1204,2074,11166,,,
11167,7,118.656184,39.659964,古马镇,,130223,0315,130284108000,,,,,,,,,,2,100,1002,1204,2074,11167,,,
11168,7,118.557182,39.642527,小马庄镇,,130223,0315,130284109000,,,,,,,,,,2,100,1002,1204,2074,11168,,,
11169,7,118.524057,39.783596,九百户镇,,130223,0315,130284110000,,,,,,,,,,2,100,1002,1204,2074,11169,,,
11170,7,118.417757,39.863917,王店子镇,,130223,0315,130284111000,,,,,,,,,,2,100,1002,1204,2074,11170,,,
11171,7,119.586884,39.93819,文化路街道,,130302,0335,130302001000,,,,,,,,,,2,100,1002,1205,2075,11171,,,
11172,7,119.608861,39.923255,海滨路街道,,130302,0335,130302002000,,,,,,,,,,2,100,1002,1205,2075,11172,,,
11173,7,119.591552,39.948826,北环路街道,,130302,0335,130302003000,,,,,,,,,,2,100,1002,1205,2075,11173,,,
11174,7,119.608536,39.939176,建设大街街道,,130302,0335,130302004000,,,,,,,,,,2,100,1002,1205,2075,11174,,,
11175,7,119.564962,39.94756,河东街道,,130302,0335,130302005000,,,,,,,,,,2,100,1002,1205,2075,11175,,,
11176,7,119.565216,39.93508,西港路街道,,130302,0335,130302006000,,,,,,,,,,2,100,1002,1205,2075,11176,,,
11177,7,119.610486,39.957927,燕山大街街道,,130302,0335,130302007000,,,,,,,,,,2,100,1002,1205,2075,11177,,,
11178,7,119.597387,39.948545,港城大街街道,,130302,0335,130302008000,,,,,,,,,,2,100,1002,1205,2075,11178,,,
11179,7,119.621696,39.949087,东环路街道,,130302,0335,130302009000,,,,,,,,,,2,100,1002,1205,2075,11179,,,
11180,7,119.544806,39.920339,白塔岭街道,,130302,0335,130302010000,,,,,,,,,,2,100,1002,1205,2075,11180,,,
11181,7,119.646393,39.974622,东港镇,,130302,0335,130302100000,,,,,,,,,,2,100,1002,1205,2075,11181,,,
11182,7,119.599769,39.948576,海港镇,,130302,0335,130302101000,,,,,,,,,,2,100,1002,1205,2075,11182,,,
11183,7,119.531902,39.898272,西港镇,,130302,0335,130302102000,,,,,,,,,,2,100,1002,1205,2075,11183,,,
11184,7,119.54901,39.954721,海阳镇,,130302,0335,130302103000,,,,,,,,,,2,100,1002,1205,2075,11184,,,
11185,7,119.61667,40.027494,北港镇,,130302,0335,130302104000,,,,,,,,,,2,100,1002,1205,2075,11185,,,
11186,7,119.532126,40.013328,杜庄镇,,130302,0335,130302105000,,,,,,,,,,2,100,1002,1205,2075,11186,,,
11187,7,119.607707,40.090271,石门寨镇,,130302,0335,130302106000,,,,,,,,,,2,100,1002,1205,2075,11187,,,
11188,7,119.596678,40.177023,驻操营镇,,130302,0335,130302107000,,,,,,,,,,2,100,1002,1205,2075,11188,,,
11189,7,119.564962,39.94756,临港物流园区,,130302,0335,130302403000,,,,,,,,,,2,100,1002,1205,2075,11189,,,
11190,7,119.564962,39.94756,海港经济开发区,,130302,0335,130302404000,,,,,,,,,,2,100,1002,1205,2075,11190,,,
11191,7,119.763957,40.00112,南关街道,,130303,0335,130303001000,,,,,,,,,,2,100,1002,1205,2076,11191,,,
11192,7,119.775799,39.978849,古城街道,,130303,0335,130303002000,,,,,,,,,,2,100,1002,1205,2076,11192,,,
11193,7,119.775799,39.978849,西关街道,,130303,0335,130303003000,,,,,,,,,,2,100,1002,1205,2076,11193,,,
11194,7,119.76473,39.993861,路南街道,,130303,0335,130303004000,,,,,,,,,,2,100,1002,1205,2076,11194,,,
11195,7,119.746208,40.005304,第一关镇,,130303,0335,130303100000,,,,,,,,,,2,100,1002,1205,2076,11195,,,
11196,7,119.717806,39.990854,石河镇,,130303,0335,130303101000,,,,,,,,,,2,100,1002,1205,2076,11196,,,
11197,7,119.758402,40.028988,孟姜镇,,130303,0335,130303102000,,,,,,,,,,2,100,1002,1205,2076,11197,,,
11198,7,119.487218,39.829357,西山街道,,130304,0335,130304001000,,,,,,,,,,2,100,1002,1205,2077,11198,,,
11199,7,119.50836,39.829862,东山街道,,130304,0335,130304002000,,,,,,,,,,2,100,1002,1205,2077,11199,,,
11200,7,119.480047,39.827641,海滨镇,,130304,0335,130304100000,,,,,,,,,,2,100,1002,1205,2077,11200,,,
11201,7,119.427281,39.850335,戴河镇,,130304,0335,130304101000,,,,,,,,,,2,100,1002,1205,2077,11201,,,
11202,7,119.404894,39.83521,牛头崖镇,,130304,0335,130304103000,,,,,,,,,,2,100,1002,1205,2077,11202,,,
11203,7,119.24871,39.89162,骊城街道,,130306,0335,130306001000,,,,,,,,,,2,100,1002,1205,2078,11203,,,
11204,7,119.237214,39.889148,抚宁镇,,130306,0335,130306100000,,,,,,,,,,2,100,1002,1205,2078,11204,,,
11205,7,119.301635,39.791408,留守营镇,,130306,0335,130306101000,,,,,,,,,,2,100,1002,1205,2078,11205,,,
11206,7,119.358453,39.90091,榆关镇,,130306,0335,130306102000,,,,,,,,,,2,100,1002,1205,2078,11206,,,
11207,7,119.217108,40.029068,台营镇,,130306,0335,130306105000,,,,,,,,,,2,100,1002,1205,2078,11207,,,
11208,7,119.283949,40.058266,大新寨镇,,130306,0335,130306106000,,,,,,,,,,2,100,1002,1205,2078,11208,,,
11209,7,119.13005,39.911194,茶棚乡,,130306,0335,130306200000,,,,,,,,,,2,100,1002,1205,2078,11209,,,
11210,7,119.45618,39.934915,深河乡,,130302,0335,130306202000,,,,,,,,,,2,100,1002,1205,2078,11210,,,
11211,7,118.944521,40.400336,都阳路街道,,130321,0335,130321001000,,,,,,,,,,2,100,1002,1205,2079,11211,,,
11212,7,118.954931,40.404341,青龙镇,,130321,0335,130321100000,,,,,,,,,,2,100,1002,1205,2079,11212,,,
11213,7,119.442869,40.224662,祖山镇,,130321,0335,130321101000,,,,,,,,,,2,100,1002,1205,2079,11213,,,
11214,7,119.384111,40.472072,木头凳镇,,130321,0335,130321102000,,,,,,,,,,2,100,1002,1205,2079,11214,,,
11215,7,119.166761,40.336345,双山子镇,,130321,0335,130321103000,,,,,,,,,,2,100,1002,1205,2079,11215,,,
11216,7,119.047286,40.469561,马圈子镇,,130321,0335,130321104000,,,,,,,,,,2,100,1002,1205,2079,11216,,,
11217,7,118.858588,40.273358,肖营子镇,,130321,0335,130321105000,,,,,,,,,,2,100,1002,1205,2079,11217,,,
11218,7,119.217868,40.413985,大巫岚镇,,130321,0335,130321106000,,,,,,,,,,2,100,1002,1205,2079,11218,,,
11219,7,119.19537,40.476141,土门子镇,,130321,0335,130321107000,,,,,,,,,,2,100,1002,1205,2079,11219,,,
11220,7,118.79025,40.39851,八道河镇,,130321,0335,130321108000,,,,,,,,,,2,100,1002,1205,2079,11220,,,
11221,7,119.226268,40.231843,隔河头镇,,130321,0335,130321109000,,,,,,,,,,2,100,1002,1205,2079,11221,,,
11222,7,118.949684,40.407578,娄杖子镇,,130321,0335,130321110000,,,,,,,,,,2,100,1002,1205,2079,11222,,,
11223,7,119.407048,40.333295,凤凰山乡,,130321,0335,130321200000,,,,,,,,,,2,100,1002,1205,2079,11223,,,
11224,7,118.949684,40.407578,龙王庙乡,,130321,0335,130321201000,,,,,,,,,,2,100,1002,1205,2079,11224,,,
11225,7,119.462911,40.432303,三星口乡,,130321,0335,130321202000,,,,,,,,,,2,100,1002,1205,2079,11225,,,
11226,7,119.508966,40.495574,干沟乡,,130321,0335,130321203000,,,,,,,,,,2,100,1002,1205,2079,11226,,,
11227,7,119.167971,40.522275,大石岭乡,,130321,0335,130321206000,,,,,,,,,,2,100,1002,1205,2079,11227,,,
11228,7,119.155052,40.176115,官场乡,,130321,0335,130321208000,,,,,,,,,,2,100,1002,1205,2079,11228,,,
11229,7,119.153929,40.30743,茨榆山乡,,130321,0335,130321209000,,,,,,,,,,2,100,1002,1205,2079,11229,,,
11230,7,119.231603,40.313557,平方子乡,,130321,0335,130321210000,,,,,,,,,,2,100,1002,1205,2079,11230,,,
11231,7,119.339772,40.298947,安子岭乡,,130321,0335,130321211000,,,,,,,,,,2,100,1002,1205,2079,11231,,,
11232,7,119.059363,40.361565,朱杖子乡,,130321,0335,130321212000,,,,,,,,,,2,100,1002,1205,2079,11232,,,
11233,7,118.96749,40.201211,草碾乡,,130321,0335,130321213000,,,,,,,,,,2,100,1002,1205,2079,11233,,,
11234,7,118.86485,40.23273,七道河乡,,130321,0335,130321214000,,,,,,,,,,2,100,1002,1205,2079,11234,,,
11235,7,118.726474,40.238321,三拨子乡,,130321,0335,130321217000,,,,,,,,,,2,100,1002,1205,2079,11235,,,
11236,7,118.67533,40.279561,凉水河乡,,130321,0335,130321218000,,,,,,,,,,2,100,1002,1205,2079,11236,,,
11237,7,119.192255,39.721639,昌黎镇,,130322,0335,130322100000,,,,,,,,,,2,100,1002,1205,2080,11237,,,
11238,7,118.884586,39.645875,靖安镇,,130322,0335,130322101000,,,,,,,,,,2,100,1002,1205,2080,11238,,,
11239,7,118.989794,39.71541,安山镇,,130322,0335,130322102000,,,,,,,,,,2,100,1002,1205,2080,11239,,,
11240,7,119.055781,39.713064,龙家店镇,,130322,0335,130322103000,,,,,,,,,,2,100,1002,1205,2080,11240,,,
11241,7,119.147839,39.622599,泥井镇,,130322,0335,130322104000,,,,,,,,,,2,100,1002,1205,2080,11241,,,
11242,7,119.299003,39.700141,大蒲河镇,,130322,0335,130322105000,,,,,,,,,,2,100,1002,1205,2080,11242,,,
11243,7,118.992267,39.58027,新集镇,,130322,0335,130322106000,,,,,,,,,,2,100,1002,1205,2080,11243,,,
11244,7,119.16038,39.53194,刘台庄镇,,130322,0335,130322107000,,,,,,,,,,2,100,1002,1205,2080,11244,,,
11245,7,119.151308,39.489756,茹荷镇,,130322,0335,130322108000,,,,,,,,,,2,100,1002,1205,2080,11245,,,
11246,7,118.808986,39.744644,朱各庄镇,,130322,0335,130322109000,,,,,,,,,,2,100,1002,1205,2080,11246,,,
11247,7,119.0825,39.527927,荒佃庄镇,,130322,0335,130322110000,,,,,,,,,,2,100,1002,1205,2080,11247,,,
11248,7,119.254951,39.615572,团林乡,,130322,0335,130322201000,,,,,,,,,,2,100,1002,1205,2080,11248,,,
11249,7,119.231381,39.702008,葛条港乡,,130322,0335,130322202000,,,,,,,,,,2,100,1002,1205,2080,11249,,,
11250,7,119.05679,39.612236,马坨店乡,,130322,0335,130322203000,,,,,,,,,,2,100,1002,1205,2080,11250,,,
11251,7,119.198609,39.74216,两山乡,,130322,0335,130322206000,,,,,,,,,,2,100,1002,1205,2080,11251,,,
11252,7,119.110371,39.716509,十里铺乡,,130322,0335,130322207000,,,,,,,,,,2,100,1002,1205,2080,11252,,,
11253,7,118.879079,39.892864,卢龙镇,,130324,0335,130324100000,,,,,,,,,,2,100,1002,1205,2081,11253,,,
11254,7,118.93086,40.049763,潘庄镇,,130324,0335,130324101000,,,,,,,,,,2,100,1002,1205,2081,11254,,,
11255,7,119.069498,40.040937,燕河营镇,,130324,0335,130324102000,,,,,,,,,,2,100,1002,1205,2081,11255,,,
11256,7,119.059659,39.903458,双望镇,,130324,0335,130324103000,,,,,,,,,,2,100,1002,1205,2081,11256,,,
11257,7,119.028126,39.816471,刘田各庄镇,,130324,0335,130324104000,,,,,,,,,,2,100,1002,1205,2081,11257,,,
11258,7,118.851149,39.730368,石门镇,,130324,0335,130324105000,,,,,,,,,,2,100,1002,1205,2081,11258,,,
11259,7,118.921644,39.75632,木井镇,,130324,0335,130324106000,,,,,,,,,,2,100,1002,1205,2081,11259,,,
11260,7,118.892986,39.891947,陈官屯镇,,130324,0335,130324107000,,,,,,,,,,2,100,1002,1205,2081,11260,,,
11261,7,118.892986,39.891947,蛤泊镇,,130324,0335,130324108000,,,,,,,,,,2,100,1002,1205,2081,11261,,,
11262,7,118.964699,39.887814,下寨乡,,130324,0335,130324200000,,,,,,,,,,2,100,1002,1205,2081,11262,,,
11263,7,118.934022,40.109192,刘家营乡,,130324,0335,130324201000,,,,,,,,,,2,100,1002,1205,2081,11263,,,
11264,7,118.985832,39.949567,印庄乡,,130324,0335,130324203000,,,,,,,,,,2,100,1002,1205,2081,11264,,,
11265,7,118.905818,39.908094,河北卢龙经济开发区,,130324,0335,130324400000,,,,,,,,,,2,100,1002,1205,2081,11265,,,
11266,7,119.810575,39.998224,船厂路街道,,130303,0335,130371005000,,,,,,,,,,2,100,1002,1205,2082,11266,,,
11267,7,119.566569,39.922712,珠江道街道,,130302,0335,130371011000,,,,,,,,,,2,100,1002,1205,2082,11267,,,
11268,7,119.5515,39.92587,黄河道街道,,130302,0335,130371012000,,,,,,,,,,2,100,1002,1205,2082,11268,,,
11269,7,119.496501,39.945673,腾飞路街道,,130302,0335,130371013000,,,,,,,,,,2,100,1002,1205,2082,11269,,,
11270,7,119.808925,39.990078,渤海乡,,130303,0335,130371200000,,,,,,,,,,2,100,1002,1205,2082,11270,,,
11271,7,119.355008,39.90798,榆关管理区办事处,,130306,0335,130371400000,,,,,,,,,,2,100,1002,1205,2082,11271,,,
11272,7,119.404894,39.83521,牛头崖管理区办事处,,130304,0335,130371401000,,,,,,,,,,2,100,1002,1205,2082,11272,,,
11273,7,119.40946,39.810819,南戴河街道,,130306,0335,130372001000,,,,,,,,,,2,100,1002,1205,2083,11273,,,
11274,7,119.299358,39.699671,大蒲河管理处,,130322,0335,130372400000,,,,,,,,,,2,100,1002,1205,2083,11274,,,
11275,7,119.268513,39.597332,团林管理处,,130322,0335,130372401000,,,,,,,,,,2,100,1002,1205,2083,11275,,,
11276,7,119.3646,39.754621,留守营管理处,,130306,0335,130372402000,,,,,,,,,,2,100,1002,1205,2083,11276,,,
11277,7,114.480334,36.602487,火磨街道,,130402,0310,130402001000,,,,,,,,,,2,100,1002,1206,2084,11277,,,
11278,7,114.496133,36.599579,陵园路街道,,130402,0310,130402002000,,,,,,,,,,2,100,1002,1206,2084,11278,,,
11279,7,114.50105,36.599005,光明路街道,,130402,0310,130402003000,,,,,,,,,,2,100,1002,1206,2084,11279,,,
11280,7,114.490431,36.580358,滏东街道,,130402,0310,130402004000,,,,,,,,,,2,100,1002,1206,2084,11280,,,
11281,7,114.500421,36.577348,罗城头街道,,130402,0310,130402005000,,,,,,,,,,2,100,1002,1206,2084,11281,,,
11282,7,114.494794,36.592222,渚河路街道,,130402,0310,130402006000,,,,,,,,,,2,100,1002,1206,2084,11282,,,
11283,7,114.488317,36.587051,浴新南街道,,130402,0310,130402007000,,,,,,,,,,2,100,1002,1206,2084,11283,,,
11284,7,114.484785,36.591323,农林路街道,,130402,0310,130402008000,,,,,,,,,,2,100,1002,1206,2084,11284,,,
11285,7,114.487402,36.59459,贸东街道,,130402,0310,130402009000,,,,,,,,,,2,100,1002,1206,2084,11285,,,
11286,7,114.476805,36.595915,贸西街道,,130402,0310,130402010000,,,,,,,,,,2,100,1002,1206,2084,11286,,,
11287,7,114.478289,36.581544,盛和路街道,,130402,0310,130402011000,,,,,,,,,,2,100,1002,1206,2084,11287,,,
11288,7,114.466377,36.555844,北张庄镇,,130402,0310,130402101000,,,,,,,,,,2,100,1002,1206,2084,11288,,,
11289,7,114.58597,36.52021,河沙镇镇,,130402,0310,130402102000,,,,,,,,,,2,100,1002,1206,2084,11289,,,
11290,7,114.486345,36.577189,马庄乡,,130402,0310,130402200000,,,,,,,,,,2,100,1002,1206,2084,11290,,,
11291,7,114.51926,36.556196,南堡乡,,130402,0310,130402201000,,,,,,,,,,2,100,1002,1206,2084,11291,,,
11292,7,114.603421,36.585556,代召乡,,130402,0310,130402202000,,,,,,,,,,2,100,1002,1206,2084,11292,,,
11293,7,114.489358,36.617975,丛台西街道,,130403,0310,130403001000,,,,,,,,,,2,100,1002,1206,2085,11293,,,
11294,7,114.478944,36.623652,联纺西街道,,130403,0310,130403002000,,,,,,,,,,2,100,1002,1206,2085,11294,,,
11295,7,114.491705,36.624918,联纺东街道,,130403,0310,130403003000,,,,,,,,,,2,100,1002,1206,2085,11295,,,
11296,7,114.506928,36.621875,光明桥街道,,130403,0310,130403004000,,,,,,,,,,2,100,1002,1206,2085,11296,,,
11297,7,114.506145,36.613075,丛台东街道,,130403,0310,130403005000,,,,,,,,,,2,100,1002,1206,2085,11297,,,
11298,7,114.482822,36.615428,四季青街道,,130403,0310,130403006000,,,,,,,,,,2,100,1002,1206,2085,11298,,,
11299,7,114.484098,36.604889,和平街道,,130403,0310,130403007000,,,,,,,,,,2,100,1002,1206,2085,11299,,,
11300,7,114.4914,36.605901,中华街道,,130403,0310,130403008000,,,,,,,,,,2,100,1002,1206,2085,11300,,,
11301,7,114.499009,36.606201,人民路街道,,130403,0310,130403009000,,,,,,,,,,2,100,1002,1206,2085,11301,,,
11302,7,114.524745,36.605598,柳林桥街道,,130403,0310,130403010000,,,,,,,,,,2,100,1002,1206,2085,11302,,,
11303,7,114.48893,36.687088,黄粱梦镇,,130403,0310,130403101000,,,,,,,,,,2,100,1002,1206,2085,11303,,,
11304,7,114.512504,36.626365,苏曹乡,,130403,0310,130403200000,,,,,,,,,,2,100,1002,1206,2085,11304,,,
11305,7,114.43324,36.68459,三陵乡,,130403,0310,130403205000,,,,,,,,,,2,100,1002,1206,2085,11305,,,
11306,7,114.5346,36.711889,南吕固乡,,130403,0310,130403206000,,,,,,,,,,2,100,1002,1206,2085,11306,,,
11307,7,114.551675,36.6103,兼庄乡,,130403,0310,130403207000,,,,,,,,,,2,100,1002,1206,2085,11307,,,
11308,7,114.470781,36.609316,胜利桥街道,,130404,0310,130404001000,,,,,,,,,,2,100,1002,1206,2086,11308,,,
11309,7,114.44792,36.616399,百家村街道,,130404,0310,130404002000,,,,,,,,,,2,100,1002,1206,2086,11309,,,
11310,7,114.469349,36.6013,铁路大院街道,,130404,0310,130404003000,,,,,,,,,,2,100,1002,1206,2086,11310,,,
11311,7,114.460528,36.625139,化林路街道,,130404,0310,130404004000,,,,,,,,,,2,100,1002,1206,2086,11311,,,
11312,7,114.467579,36.58793,庞村街道,,130404,0310,130404005000,,,,,,,,,,2,100,1002,1206,2086,11312,,,
11313,7,114.462058,36.639022,二六七二街道,,130404,0310,130404006000,,,,,,,,,,2,100,1002,1206,2086,11313,,,
11314,7,114.440683,36.593914,石化街道,,130404,0310,130404007000,,,,,,,,,,2,100,1002,1206,2086,11314,,,
11315,7,114.38566,36.630943,户村镇,,130404,0310,130404100000,,,,,,,,,,2,100,1002,1206,2086,11315,,,
11316,7,114.446481,36.61079,彭家寨乡,,130404,0310,130404200000,,,,,,,,,,2,100,1002,1206,2086,11316,,,
11317,7,114.33227,36.62292,康庄乡,,130404,0310,130404201000,,,,,,,,,,2,100,1002,1206,2086,11317,,,
11318,7,114.223727,36.418881,滏阳东路街道,,130406,0310,130406001000,,,,,,,,,,2,100,1002,1206,2087,11318,,,
11319,7,114.221116,36.419529,临水镇,,130406,0310,130406100000,,,,,,,,,,2,100,1002,1206,2087,11319,,,
11320,7,114.214838,36.481888,峰峰镇,,130406,0310,130406101000,,,,,,,,,,2,100,1002,1206,2087,11320,,,
11321,7,114.2729,36.476746,新坡镇,,130406,0310,130406102000,,,,,,,,,,2,100,1002,1206,2087,11321,,,
11322,7,114.241351,36.547735,大社镇,,130406,0310,130406103000,,,,,,,,,,2,100,1002,1206,2087,11322,,,
11323,7,114.11677,36.536798,和村镇,,130406,0310,130406104000,,,,,,,,,,2,100,1002,1206,2087,11323,,,
11324,7,114.155457,36.484975,义井镇,,130406,0310,130406105000,,,,,,,,,,2,100,1002,1206,2087,11324,,,
11325,7,114.179155,36.415319,彭城镇,,130406,0310,130406106000,,,,,,,,,,2,100,1002,1206,2087,11325,,,
11326,7,114.15543,36.400647,界城镇,,130406,0310,130406107000,,,,,,,,,,2,100,1002,1206,2087,11326,,,
11327,7,114.201111,36.381616,大峪镇,,130406,0310,130406108000,,,,,,,,,,2,100,1002,1206,2087,11327,,,
11328,7,114.248171,36.39523,西固义乡,,130427,0310,130406200000,,,,,,,,,,2,100,1002,1206,2087,11328,,,
11329,7,114.83658,36.557399,肥乡镇,,130407,0310,130407100000,,,,,,,,,,2,100,1002,1206,2088,11329,,,
11330,7,114.729531,36.538325,天台山镇,,130407,0310,130407101000,,,,,,,,,,2,100,1002,1206,2088,11330,,,
11331,7,114.694737,36.575956,辛安镇镇,,130407,0310,130407102000,,,,,,,,,,2,100,1002,1206,2088,11331,,,
11332,7,114.67525,36.550069,大寺上镇,,130407,0310,130407103000,,,,,,,,,,2,100,1002,1206,2088,11332,,,
11333,7,114.988878,36.556934,东漳堡镇,,130407,0310,130407104000,,,,,,,,,,2,100,1002,1206,2088,11333,,,
11334,7,114.785399,36.639007,毛演堡乡,,130407,0310,130407202000,,,,,,,,,,2,100,1002,1206,2088,11334,,,
11335,7,114.875686,36.518249,元固乡,,130407,0310,130407203000,,,,,,,,,,2,100,1002,1206,2088,11335,,,
11336,7,114.913404,36.554057,屯庄营乡,,130407,0310,130407204000,,,,,,,,,,2,100,1002,1206,2088,11336,,,
11337,7,114.917402,36.628332,旧店乡,,130407,0310,130407206000,,,,,,,,,,2,100,1002,1206,2088,11337,,,
11338,7,114.509975,36.768454,临洺关镇,,130408,0310,130408100000,,,,,,,,,,2,100,1002,1206,2089,11338,,,
11339,7,114.649676,36.839499,大北汪镇,,130408,0310,130408101000,,,,,,,,,,2,100,1002,1206,2089,11339,,,
11340,7,114.79449,36.737829,张西堡镇,,130408,0310,130408102000,,,,,,,,,,2,100,1002,1206,2089,11340,,,
11341,7,114.71408,36.720371,广府镇,,130408,0310,130408103000,,,,,,,,,,2,100,1002,1206,2089,11341,,,
11342,7,114.432573,36.759745,永合会镇,,130408,0310,130408105000,,,,,,,,,,2,100,1002,1206,2089,11342,,,
11343,7,114.58306,36.812576,刘营镇,,130408,0310,130408106000,,,,,,,,,,2,100,1002,1206,2089,11343,,,
11344,7,114.561023,36.755897,西苏镇,,130408,0310,130408107000,,,,,,,,,,2,100,1002,1206,2089,11344,,,
11345,7,114.538961,36.625657,讲武镇,,130400,0310,130408108000,,,,,,,,,,2,100,1002,1206,2089,11345,,,
11346,7,114.712453,36.766893,东杨庄镇,,130408,0310,130408109000,,,,,,,,,,2,100,1002,1206,2089,11346,,,
11347,7,114.492883,36.724558,界河店乡,,130408,0310,130408201000,,,,,,,,,,2,100,1002,1206,2089,11347,,,
11348,7,114.57997,36.83662,刘汉乡,,130408,0310,130408203000,,,,,,,,,,2,100,1002,1206,2089,11348,,,
11349,7,114.7394,36.892839,正西乡,,130408,0310,130408204000,,,,,,,,,,2,100,1002,1206,2089,11349,,,
11350,7,114.696027,36.839178,曲陌乡,,130408,0310,130408206000,,,,,,,,,,2,100,1002,1206,2089,11350,,,
11351,7,114.78422,36.772469,辛庄堡乡,,130408,0310,130408207000,,,,,,,,,,2,100,1002,1206,2089,11351,,,
11352,7,114.63883,36.740881,小龙马乡,,130408,0310,130408208000,,,,,,,,,,2,100,1002,1206,2089,11352,,,
11353,7,114.80648,36.721069,西河庄乡,,130408,0310,130408211000,,,,,,,,,,2,100,1002,1206,2089,11353,,,
11354,7,114.44929,36.8314,西阳城乡,,130408,0310,130408213000,,,,,,,,,,2,100,1002,1206,2089,11354,,,
11355,7,114.61608,36.340619,临漳镇,,130423,0310,130423100000,,,,,,,,,,2,100,1002,1206,2090,11355,,,
11356,7,114.522937,36.349026,南东坊镇,,130423,0310,130423101000,,,,,,,,,,2,100,1002,1206,2090,11356,,,
11357,7,114.518589,36.19312,孙陶集镇,,130423,0310,130423102000,,,,,,,,,,2,100,1002,1206,2090,11357,,,
11358,7,114.59535,36.165526,柳园镇,,130423,0310,130423103000,,,,,,,,,,2,100,1002,1206,2090,11358,,,
11359,7,114.698426,36.234344,称勾集镇,,130423,0310,130423104000,,,,,,,,,,2,100,1002,1206,2090,11359,,,
11360,7,114.619544,36.3353,邺城镇,,130423,0310,130423105000,,,,,,,,,,2,100,1002,1206,2090,11360,,,
11361,7,114.499927,36.377873,章里集镇,,130423,0310,130423106000,,,,,,,,,,2,100,1002,1206,2090,11361,,,
11362,7,114.58803,36.2895,狄邱乡,,130423,0310,130423200000,,,,,,,,,,2,100,1002,1206,2090,11362,,,
11363,7,114.612501,36.241533,张村集乡,,130423,0310,130423201000,,,,,,,,,,2,100,1002,1206,2090,11363,,,
11364,7,114.67203,36.34282,西羊羔乡,,130423,0310,130423202000,,,,,,,,,,2,100,1002,1206,2090,11364,,,
11365,7,114.519891,36.269699,杜村集乡,,130423,0310,130423204000,,,,,,,,,,2,100,1002,1206,2090,11365,,,
11366,7,114.40759,36.242578,习文乡,,130423,0310,130423206000,,,,,,,,,,2,100,1002,1206,2090,11366,,,
11367,7,114.69476,36.1748,砖寨营乡,,130423,0310,130423207000,,,,,,,,,,2,100,1002,1206,2090,11367,,,
11368,7,114.694978,36.293852,柏鹤集乡,,130423,0310,130423208000,,,,,,,,,,2,100,1002,1206,2090,11368,,,
11369,7,114.671866,36.443628,成安镇,,130424,0310,130424100000,,,,,,,,,,2,100,1002,1206,2091,11369,,,
11370,7,114.548604,36.449869,商城镇,,130424,0310,130424101000,,,,,,,,,,2,100,1002,1206,2091,11370,,,
11371,7,114.813007,36.41618,漳河店镇,,130424,0310,130424102000,,,,,,,,,,2,100,1002,1206,2091,11371,,,
11372,7,114.75086,36.3532,李家疃镇,,130424,0310,130424103000,,,,,,,,,,2,100,1002,1206,2091,11372,,,
11373,7,114.670032,36.444407,北乡义镇,,130424,0310,130424104000,,,,,,,,,,2,100,1002,1206,2091,11373,,,
11374,7,114.65276,36.375871,辛义乡,,130424,0310,130424200000,,,,,,,,,,2,100,1002,1206,2091,11374,,,
11375,7,114.73366,36.384128,柏寺营乡,,130424,0310,130424201000,,,,,,,,,,2,100,1002,1206,2091,11375,,,
11376,7,114.71654,36.45861,道东堡乡,,130424,0310,130424202000,,,,,,,,,,2,100,1002,1206,2091,11376,,,
11377,7,114.5559,36.410225,长巷乡,,130424,0310,130424204000,,,,,,,,,,2,100,1002,1206,2091,11377,,,
11378,7,115.154089,36.292649,大名镇,,130425,0310,130425100000,,,,,,,,,,2,100,1002,1206,2092,11378,,,
11379,7,115.10964,36.426937,杨桥镇,,130425,0310,130425101000,,,,,,,,,,2,100,1002,1206,2092,11379,,,
11380,7,115.18096,36.37878,万堤镇,,130425,0310,130425102000,,,,,,,,,,2,100,1002,1206,2092,11380,,,
11381,7,115.2304,36.216678,龙王庙镇,,130425,0310,130425103000,,,,,,,,,,2,100,1002,1206,2092,11381,,,
11382,7,115.412224,36.177017,束馆镇,,130425,0310,130425104000,,,,,,,,,,2,100,1002,1206,2092,11382,,,
11383,7,115.314736,36.338876,金滩镇,,130425,0310,130425105000,,,,,,,,,,2,100,1002,1206,2092,11383,,,
11384,7,115.124077,36.4711,沙圪塔镇,,130425,0310,130425106000,,,,,,,,,,2,100,1002,1206,2092,11384,,,
11385,7,115.207956,36.290823,大街镇,,130425,0310,130425107000,,,,,,,,,,2,100,1002,1206,2092,11385,,,
11386,7,115.076369,36.347189,铺上镇,,130425,0310,130425108000,,,,,,,,,,2,100,1002,1206,2092,11386,,,
11387,7,115.330563,36.222221,孙甘店镇,,130425,0310,130425109000,,,,,,,,,,2,100,1002,1206,2092,11387,,,
11388,7,115.00658,36.40418,王村乡,,130425,0310,130425201000,,,,,,,,,,2,100,1002,1206,2092,11388,,,
11389,7,115.185094,36.440024,黄金堤乡,,130425,0310,130425203000,,,,,,,,,,2,100,1002,1206,2092,11389,,,
11390,7,115.146051,36.246379,旧治乡,,130425,0310,130425205000,,,,,,,,,,2,100,1002,1206,2092,11390,,,
11391,7,115.125259,36.290031,西未庄乡,,130425,0310,130425206000,,,,,,,,,,2,100,1002,1206,2092,11391,,,
11392,7,115.31325,36.13348,西付集乡,,130425,0310,130425208000,,,,,,,,,,2,100,1002,1206,2092,11392,,,
11393,7,115.36566,36.16759,埝头乡,,130425,0310,130425209000,,,,,,,,,,2,100,1002,1206,2092,11393,,,
11394,7,115.41372,36.22679,北峰乡,,130425,0310,130425210000,,,,,,,,,,2,100,1002,1206,2092,11394,,,
11395,7,115.35833,36.2789,张铁集乡,,130425,0310,130425211000,,,,,,,,,,2,100,1002,1206,2092,11395,,,
11396,7,115.27646,36.350109,红庙乡,,130425,0310,130425212000,,,,,,,,,,2,100,1002,1206,2092,11396,,,
11397,7,115.29901,36.435831,营镇回族乡,,130425,0310,130425213000,,,,,,,,,,2,100,1002,1206,2092,11397,,,
11398,7,113.67196,36.56624,平安街道,,130426,0310,130426001000,,,,,,,,,,2,100,1002,1206,2093,11398,,,
11399,7,113.661,36.551003,河南店镇,,130426,0310,130426101000,,,,,,,,,,2,100,1002,1206,2093,11399,,,
11400,7,113.60411,36.637619,索堡镇,,130426,0310,130426102000,,,,,,,,,,2,100,1002,1206,2093,11400,,,
11401,7,113.80229,36.695281,西戌镇,,130426,0310,130426103000,,,,,,,,,,2,100,1002,1206,2093,11401,,,
11402,7,113.734005,36.611659,井店镇,,130426,0310,130426104000,,,,,,,,,,2,100,1002,1206,2093,11402,,,
11403,7,113.737539,36.590991,更乐镇,,130426,0310,130426105000,,,,,,,,,,2,100,1002,1206,2093,11403,,,
11404,7,113.74699,36.477695,固新镇,,130426,0310,130426106000,,,,,,,,,,2,100,1002,1206,2093,11404,,,
11405,7,113.842641,36.42693,西达镇,,130426,0310,130426107000,,,,,,,,,,2,100,1002,1206,2093,11405,,,
11406,7,113.66801,36.74293,偏城镇,,130426,0310,130426108000,,,,,,,,,,2,100,1002,1206,2093,11406,,,
11407,7,113.620381,36.525023,神头乡,,130426,0310,130426200000,,,,,,,,,,2,100,1002,1206,2093,11407,,,
11408,7,113.53449,36.694899,辽城乡,,130426,0310,130426201000,,,,,,,,,,2,100,1002,1206,2093,11408,,,
11409,7,113.756915,36.65655,偏店乡,,130426,0310,130426202000,,,,,,,,,,2,100,1002,1206,2093,11409,,,
11410,7,113.888251,36.649799,龙虎乡,,130426,0310,130426203000,,,,,,,,,,2,100,1002,1206,2093,11410,,,
11411,7,113.845453,36.758131,木井乡,,130426,0310,130426204000,,,,,,,,,,2,100,1002,1206,2093,11411,,,
11412,7,113.87225,36.452134,关防乡,,130426,0310,130426205000,,,,,,,,,,2,100,1002,1206,2093,11412,,,
11413,7,113.87107,36.356921,合漳乡,,130426,0310,130426206000,,,,,,,,,,2,100,1002,1206,2093,11413,,,
11414,7,113.716111,36.701009,鹿头乡,,130426,0310,130426207000,,,,,,,,,,2,100,1002,1206,2093,11414,,,
11415,7,113.676451,36.578626,涉城镇,,130426,0310,130426400000,,,,,,,,,,2,100,1002,1206,2093,11415,,,
11416,7,114.391125,36.374207,磁州镇,,130427,0310,130427100000,,,,,,,,,,2,100,1002,1206,2094,11416,,,
11417,7,114.34461,36.281386,讲武城镇,,130427,0310,130427103000,,,,,,,,,,2,100,1002,1206,2094,11417,,,
11418,7,114.22098,36.290521,岳城镇,,130427,0310,130427104000,,,,,,,,,,2,100,1002,1206,2094,11418,,,
11419,7,114.115095,36.30958,观台镇,,130427,0310,130427105000,,,,,,,,,,2,100,1002,1206,2094,11419,,,
11420,7,114.07033,36.411219,白土镇,,130427,0310,130427107000,,,,,,,,,,2,100,1002,1206,2094,11420,,,
11421,7,114.14612,36.353392,黄沙镇,,130427,0310,130427108000,,,,,,,,,,2,100,1002,1206,2094,11421,,,
11422,7,114.28259,36.391431,路村营乡,,130427,0310,130427200000,,,,,,,,,,2,100,1002,1206,2094,11422,,,
11423,7,114.281178,36.282603,时村营乡,,130427,0310,130427204000,,,,,,,,,,2,100,1002,1206,2094,11423,,,
11424,7,114.015327,36.414272,陶泉乡,,130427,0310,130427207000,,,,,,,,,,2,100,1002,1206,2094,11424,,,
11425,7,114.09971,36.369509,都党乡,,130427,0310,130427208000,,,,,,,,,,2,100,1002,1206,2094,11425,,,
11426,7,114.05987,36.46098,北贾壁乡,,130427,0310,130427209000,,,,,,,,,,2,100,1002,1206,2094,11426,,,
11427,7,115.167083,36.811914,新马头镇,,130430,0310,130430100000,,,,,,,,,,2,100,1002,1206,2095,11427,,,
11428,7,115.167345,36.725282,邱城镇,,130430,0310,130430101000,,,,,,,,,,2,100,1002,1206,2095,11428,,,
11429,7,115.265597,36.72942,梁二庄镇,,130430,0310,130430102000,,,,,,,,,,2,100,1002,1206,2095,11429,,,
11430,7,115.280636,36.822451,香城固镇,,130430,0310,130430103000,,,,,,,,,,2,100,1002,1206,2095,11430,,,
11431,7,115.144214,36.891487,古城营镇,,130430,0310,130430104000,,,,,,,,,,2,100,1002,1206,2095,11431,,,
11432,7,115.27332,36.783559,南辛店乡,,130430,0310,130430201000,,,,,,,,,,2,100,1002,1206,2095,11432,,,
11433,7,115.14527,36.7355,陈村回族乡,,130430,0310,130430204000,,,,,,,,,,2,100,1002,1206,2095,11433,,,
11434,7,114.876999,36.920223,鸡泽镇,,130431,0310,130431100000,,,,,,,,,,2,100,1002,1206,2096,11434,,,
11435,7,114.89109,36.845036,小寨镇,,130431,0310,130431101000,,,,,,,,,,2,100,1002,1206,2096,11435,,,
11436,7,114.796143,36.811484,双塔镇,,130431,0310,130431102000,,,,,,,,,,2,100,1002,1206,2096,11436,,,
11437,7,114.881468,36.762591,曹庄镇,,130431,0310,130431103000,,,,,,,,,,2,100,1002,1206,2096,11437,,,
11438,7,114.774245,36.886488,浮图店乡,,130431,0310,130431200000,,,,,,,,,,2,100,1002,1206,2096,11438,,,
11439,7,114.927703,36.921928,吴官营乡,,130431,0310,130431201000,,,,,,,,,,2,100,1002,1206,2096,11439,,,
11440,7,114.86057,36.870299,风正乡,,130431,0310,130431202000,,,,,,,,,,2,100,1002,1206,2096,11440,,,
11441,7,114.947742,36.476774,广平镇,,130432,0310,130432100000,,,,,,,,,,2,100,1002,1206,2097,11441,,,
11442,7,115.07381,36.5695,平固店镇,,130432,0310,130432101000,,,,,,,,,,2,100,1002,1206,2097,11442,,,
11443,7,114.870389,36.385532,胜营镇,,130432,0310,130432102000,,,,,,,,,,2,100,1002,1206,2097,11443,,,
11444,7,115.018177,36.526039,南阳堡镇,,130432,0310,130432103000,,,,,,,,,,2,100,1002,1206,2097,11444,,,
11445,7,114.948607,36.483484,十里铺镇,,130432,0310,130432104000,,,,,,,,,,2,100,1002,1206,2097,11445,,,
11446,7,114.948607,36.483484,南韩镇,,130432,0310,130432105000,,,,,,,,,,2,100,1002,1206,2097,11446,,,
11447,7,115.14515,36.576122,东张孟镇,,130432,0310,130432106000,,,,,,,,,,2,100,1002,1206,2097,11447,,,
11448,7,115.279741,36.525771,馆陶镇,,130433,0310,130433100000,,,,,,,,,,2,100,1002,1206,2098,11448,,,
11449,7,115.196294,36.515644,房寨镇,,130433,0310,130433101000,,,,,,,,,,2,100,1002,1206,2098,11449,,,
11450,7,115.26853,36.600459,柴堡镇,,130433,0310,130433102000,,,,,,,,,,2,100,1002,1206,2098,11450,,,
11451,7,115.387947,36.71429,魏僧寨镇,,130433,0310,130433103000,,,,,,,,,,2,100,1002,1206,2098,11451,,,
11452,7,115.238999,36.551602,寿山寺乡,,130433,0310,130433200000,,,,,,,,,,2,100,1002,1206,2098,11452,,,
11453,7,115.238258,36.504318,王桥乡,,130433,0310,130433201000,,,,,,,,,,2,100,1002,1206,2098,11453,,,
11454,7,115.332795,36.628891,南徐村乡,,130433,0310,130433202000,,,,,,,,,,2,100,1002,1206,2098,11454,,,
11455,7,115.34998,36.6823,路桥乡,,130433,0310,130433203000,,,,,,,,,,2,100,1002,1206,2098,11455,,,
11456,7,114.937955,36.356716,魏城镇,,130434,0310,130434100000,,,,,,,,,,2,100,1002,1206,2099,11456,,,
11457,7,114.95923,36.31178,德政镇,,130434,0310,130434101000,,,,,,,,,,2,100,1002,1206,2099,11457,,,
11458,7,114.800441,36.273821,北皋镇,,130434,0310,130434102000,,,,,,,,,,2,100,1002,1206,2099,11458,,,
11459,7,114.977015,36.226617,双井镇,,130434,0310,130434103000,,,,,,,,,,2,100,1002,1206,2099,11459,,,
11460,7,114.959773,36.142332,牙里镇,,130434,0310,130434104000,,,,,,,,,,2,100,1002,1206,2099,11460,,,
11461,7,114.830537,36.192848,车往镇,,130434,0310,130434105000,,,,,,,,,,2,100,1002,1206,2099,11461,,,
11462,7,114.784113,36.151319,回隆镇,,130434,0310,130434106000,,,,,,,,,,2,100,1002,1206,2099,11462,,,
11463,7,114.949412,36.099032,张二庄镇,,130434,0310,130434107000,,,,,,,,,,2,100,1002,1206,2099,11463,,,
11464,7,114.98823,36.372049,东代固镇,,130434,0310,130434108000,,,,,,,,,,2,100,1002,1206,2099,11464,,,
11465,7,114.938976,36.359861,院堡镇,,130434,0310,130434109000,,,,,,,,,,2,100,1002,1206,2099,11465,,,
11466,7,114.941168,36.411273,棘针寨镇,,130434,0310,130434110000,,,,,,,,,,2,100,1002,1206,2099,11466,,,
11467,7,114.919441,36.24773,南双庙镇,,130434,0310,130434111000,,,,,,,,,,2,100,1002,1206,2099,11467,,,
11468,7,115.025573,36.304928,沙口集乡,,130434,0310,130434202000,,,,,,,,,,2,100,1002,1206,2099,11468,,,
11469,7,114.934594,36.278532,野胡拐乡,,130434,0310,130434203000,,,,,,,,,,2,100,1002,1206,2099,11469,,,
11470,7,114.89764,36.30603,仕望集乡,,130434,0310,130434204000,,,,,,,,,,2,100,1002,1206,2099,11470,,,
11471,7,114.85954,36.305339,前大磨乡,,130434,0310,130434205000,,,,,,,,,,2,100,1002,1206,2099,11471,,,
11472,7,115.056809,36.231781,大辛庄乡,,130434,0310,130434208000,,,,,,,,,,2,100,1002,1206,2099,11472,,,
11473,7,115.078692,36.196904,大马村乡,,130434,0310,130434209000,,,,,,,,,,2,100,1002,1206,2099,11473,,,
11474,7,115.036901,36.169049,边马乡,,130434,0310,130434210000,,,,,,,,,,2,100,1002,1206,2099,11474,,,
11475,7,114.87048,36.213639,北台头乡,,130434,0310,130434212000,,,,,,,,,,2,100,1002,1206,2099,11475,,,
11476,7,114.902991,36.176916,泊口乡,,130434,0310,130434213000,,,,,,,,,,2,100,1002,1206,2099,11476,,,
11477,7,114.952332,36.774559,曲周镇,,130435,0310,130435100000,,,,,,,,,,2,100,1002,1206,2100,11477,,,
11478,7,114.981566,36.67161,安寨镇,,130435,0310,130435101000,,,,,,,,,,2,100,1002,1206,2100,11478,,,
11479,7,115.1274,36.638657,侯村镇,,130435,0310,130435102000,,,,,,,,,,2,100,1002,1206,2100,11479,,,
11480,7,115.025628,36.935922,河南疃镇,,130435,0310,130435103000,,,,,,,,,,2,100,1002,1206,2100,11480,,,
11481,7,115.006034,36.873118,第四疃镇,,130435,0310,130435104000,,,,,,,,,,2,100,1002,1206,2100,11481,,,
11482,7,114.95363,36.714584,白寨镇,,130435,0310,130435105000,,,,,,,,,,2,100,1002,1206,2100,11482,,,
11483,7,115.062033,36.784276,槐桥乡,,130435,0310,130435200000,,,,,,,,,,2,100,1002,1206,2100,11483,,,
11484,7,115.022181,36.72168,南里岳乡,,130435,0310,130435201000,,,,,,,,,,2,100,1002,1206,2100,11484,,,
11485,7,114.959635,36.679788,大河道乡,,130435,0310,130435203000,,,,,,,,,,2,100,1002,1206,2100,11485,,,
11486,7,115.168157,36.624262,依庄乡,,130435,0310,130435204000,,,,,,,,,,2,100,1002,1206,2100,11486,,,
11487,7,114.490431,36.580358,开发区街道,,130402,0310,130471001000,,,,,,,,,,2,100,1002,1206,2101,11487,,,
11488,7,114.603266,36.666898,尚璧镇,,130403,0310,130471100000,,,,,,,,,,2,100,1002,1206,2101,11488,,,
11489,7,114.68443,36.670949,南沿村镇,,130403,0310,130471101000,,,,,,,,,,2,100,1002,1206,2101,11489,,,
11490,7,114.758251,36.67165,小西堡乡,,130403,0310,130471200000,,,,,,,,,,2,100,1002,1206,2101,11490,,,
11491,7,114.665203,36.605702,姚寨乡,,130403,0310,130471201000,,,,,,,,,,2,100,1002,1206,2101,11491,,,
11492,7,114.490431,36.580358,城南街道,,130402,0310,130473001000,,,,,,,,,,2,100,1002,1206,2102,11492,,,
11493,7,114.419869,36.423736,高臾镇,,130402,0310,130473100000,,,,,,,,,,2,100,1002,1206,2102,11493,,,
11494,7,114.490431,36.580358,西光禄镇,,130402,0310,130473101000,,,,,,,,,,2,100,1002,1206,2102,11494,,,
11495,7,114.31837,36.472783,林坛镇,,130404,0310,130473102000,,,,,,,,,,2,100,1002,1206,2102,11495,,,
11496,7,114.43228,36.473838,马头镇,,130402,0310,130473103000,,,,,,,,,,2,100,1002,1206,2102,11496,,,
11497,7,114.463388,36.453815,辛庄营乡,,130402,0310,130473200000,,,,,,,,,,2,100,1002,1206,2102,11497,,,
11498,7,114.443893,36.50736,花官营乡,,130402,0310,130473201000,,,,,,,,,,2,100,1002,1206,2102,11498,,,
11499,7,114.490431,36.580358,台城乡,,130402,0310,130473202000,,,,,,,,,,2,100,1002,1206,2102,11499,,,
11500,7,114.490431,36.580358,南城乡,,130402,0310,130473203000,,,,,,,,,,2,100,1002,1206,2102,11500,,,
11501,7,114.186227,36.692042,武安镇,,130481,0310,130481100000,,,,,,,,,,2,100,1002,1206,2103,11501,,,
11502,7,114.292297,36.658096,康二城镇,,130481,0310,130481101000,,,,,,,,,,2,100,1002,1206,2103,11502,,,
11503,7,114.146909,36.661987,午汲镇,,130481,0310,130481102000,,,,,,,,,,2,100,1002,1206,2103,11503,,,
11504,7,114.10548,36.574768,磁山镇,,130481,0310,130481103000,,,,,,,,,,2,100,1002,1206,2103,11504,,,
11505,7,114.175083,36.616821,伯延镇,,130481,0310,130481104000,,,,,,,,,,2,100,1002,1206,2103,11505,,,
11506,7,114.26646,36.55453,淑村镇,,130481,0310,130481105000,,,,,,,,,,2,100,1002,1206,2103,11506,,,
11507,7,114.2595,36.75706,大同镇,,130481,0310,130481106000,,,,,,,,,,2,100,1002,1206,2103,11507,,,
11508,7,114.262394,36.847877,邑城镇,,130481,0310,130481107000,,,,,,,,,,2,100,1002,1206,2103,11508,,,
11509,7,114.18789,36.816549,矿山镇,,130481,0310,130481108000,,,,,,,,,,2,100,1002,1206,2103,11509,,,
11510,7,114.016278,36.796127,贺进镇,,130481,0310,130481109000,,,,,,,,,,2,100,1002,1206,2103,11510,,,
11511,7,113.897988,36.731672,阳邑镇,,130481,0310,130481110000,,,,,,,,,,2,100,1002,1206,2103,11511,,,
11512,7,114.028456,36.61866,徘徊镇,,130481,0310,130481111000,,,,,,,,,,2,100,1002,1206,2103,11512,,,
11513,7,113.942345,36.640365,冶陶镇,,130481,0310,130481112000,,,,,,,,,,2,100,1002,1206,2103,11513,,,
11514,7,114.1269,36.735084,上团城乡,,130481,0310,130481200000,,,,,,,,,,2,100,1002,1206,2103,11514,,,
11515,7,114.20837,36.64633,北安庄乡,,130481,0310,130481201000,,,,,,,,,,2,100,1002,1206,2103,11515,,,
11516,7,114.33615,36.77508,北安乐乡,,130481,0310,130481202000,,,,,,,,,,2,100,1002,1206,2103,11516,,,
11517,7,114.17866,36.7461,西土山乡,,130481,0310,130481203000,,,,,,,,,,2,100,1002,1206,2103,11517,,,
11518,7,114.083449,36.780609,西寺庄乡,,130481,0310,130481204000,,,,,,,,,,2,100,1002,1206,2103,11518,,,
11519,7,113.978688,36.845913,活水乡,,130481,0310,130481205000,,,,,,,,,,2,100,1002,1206,2103,11519,,,
11520,7,113.95458,36.673939,石洞乡,,130481,0310,130481206000,,,,,,,,,,2,100,1002,1206,2103,11520,,,
11521,7,113.859609,36.806931,管陶乡,,130481,0310,130481207000,,,,,,,,,,2,100,1002,1206,2103,11521,,,
11522,7,114.023522,36.548453,马家庄乡,,130481,0310,130481208000,,,,,,,,,,2,100,1002,1206,2103,11522,,,
11523,7,114.507896,37.076062,南长街街道,,130502,0319,130502001000,,,,,,,,,,2,100,1002,1207,2104,11523,,,
11524,7,114.502843,37.045822,北大街街道,,130502,0319,130502002000,,,,,,,,,,2,100,1002,1207,2104,11524,,,
11525,7,114.500445,37.057822,西大街街道,,130502,0319,130502003000,,,,,,,,,,2,100,1002,1207,2104,11525,,,
11526,7,114.499612,37.065473,西门里街道,,130502,0319,130502004000,,,,,,,,,,2,100,1002,1207,2104,11526,,,
11527,7,114.52094,37.084971,泉东街道,,130502,0319,130502005000,,,,,,,,,,2,100,1002,1207,2104,11527,,,
11528,7,114.502861,37.094695,豫让桥街道,,130502,0319,130502006000,,,,,,,,,,2,100,1002,1207,2104,11528,,,
11529,7,114.500453,37.035503,东郭村镇,,130502,0319,130502100000,,,,,,,,,,2,100,1002,1207,2104,11529,,,
11530,7,114.601095,37.077097,祝村镇,,130521,0319,130502101000,,,,,,,,,,2,100,1002,1207,2104,11530,,,
11531,7,114.5276,37.068214,大梁庄乡,,130502,0319,130502200000,,,,,,,,,,2,100,1002,1207,2104,11531,,,
11532,7,114.466097,37.056689,钢铁路街道,,130503,0319,130503001000,,,,,,,,,,2,100,1002,1207,2105,11532,,,
11533,7,114.478549,37.055567,中兴路街道,,130503,0319,130503002000,,,,,,,,,,2,100,1002,1207,2105,11533,,,
11534,7,114.479839,37.097779,达活泉街道,,130503,0319,130503003000,,,,,,,,,,2,100,1002,1207,2105,11534,,,
11535,7,114.466279,37.005533,张宽街道,,130503,0319,130503004000,,,,,,,,,,2,100,1002,1207,2105,11535,,,
11536,7,114.468435,37.059882,章村街道,,130503,0319,130503005000,,,,,,,,,,2,100,1002,1207,2105,11536,,,
11537,7,114.486047,37.073363,中华大街街道,,130503,0319,130503006000,,,,,,,,,,2,100,1002,1207,2105,11537,,,
11538,7,114.490164,37.081118,团结路街道,,130503,0319,130503007000,,,,,,,,,,2,100,1002,1207,2105,11538,,,
11539,7,114.46563,37.074304,泉西街道,,130503,0319,130503008000,,,,,,,,,,2,100,1002,1207,2105,11539,,,
11540,7,114.44465,37.07087,南大郭镇,,130503,0319,130503100000,,,,,,,,,,2,100,1002,1207,2105,11540,,,
11541,7,114.457293,37.017508,李村镇,,130503,0319,130503101000,,,,,,,,,,2,100,1002,1207,2105,11541,,,
11542,7,114.567696,37.107668,晏家屯镇,,130521,0319,130521103000,,,,,,,,,,2,100,1002,1207,2106,11542,,,
11543,7,114.39702,37.059194,南石门镇,,130521,0319,130521104000,,,,,,,,,,2,100,1002,1207,2106,11543,,,
11544,7,114.368222,36.99851,羊范镇,,130521,0319,130521105000,,,,,,,,,,2,100,1002,1207,2106,11544,,,
11545,7,114.362451,37.175986,皇寺镇,,130521,0319,130521106000,,,,,,,,,,2,100,1002,1207,2106,11545,,,
11546,7,114.45349,37.130262,会宁镇,,130521,0319,130521107000,,,,,,,,,,2,100,1002,1207,2106,11546,,,
11547,7,114.233248,37.142756,西黄村镇,,130521,0319,130521108000,,,,,,,,,,2,100,1002,1207,2106,11547,,,
11548,7,113.933689,37.094636,路罗镇,,130521,0319,130521109000,,,,,,,,,,2,100,1002,1207,2106,11548,,,
11549,7,114.03444,37.225663,将军墓镇,,130521,0319,130521110000,,,,,,,,,,2,100,1002,1207,2106,11549,,,
11550,7,113.955046,37.168474,浆水镇,,130521,0319,130521111000,,,,,,,,,,2,100,1002,1207,2106,11550,,,
11551,7,114.104279,37.267402,宋家庄镇,,130521,0319,130521112000,,,,,,,,,,2,100,1002,1207,2106,11551,,,
11552,7,114.272916,37.052553,太子井乡,,130521,0319,130521200000,,,,,,,,,,2,100,1002,1207,2106,11552,,,
11553,7,114.169855,37.078723,龙泉寺乡,,130521,0319,130521201000,,,,,,,,,,2,100,1002,1207,2106,11553,,,
11554,7,114.192011,37.247088,北小庄乡,,130521,0319,130521202000,,,,,,,,,,2,100,1002,1207,2106,11554,,,
11555,7,114.042609,37.077887,城计头乡,,130521,0319,130521203000,,,,,,,,,,2,100,1002,1207,2106,11555,,,
11556,7,113.822275,37.074657,白岸乡,,130521,0319,130521204000,,,,,,,,,,2,100,1002,1207,2106,11556,,,
11557,7,113.963701,37.262039,冀家村乡,,130521,0319,130521206000,,,,,,,,,,2,100,1002,1207,2106,11557,,,
11558,7,114.519973,37.442185,临城镇,,130522,0319,130522100000,,,,,,,,,,2,100,1002,1207,2107,11558,,,
11559,7,114.604233,37.458519,东镇镇,,130522,0319,130522101000,,,,,,,,,,2,100,1002,1207,2107,11559,,,
11560,7,114.39244,37.457002,西竖镇,,130522,0319,130522102000,,,,,,,,,,2,100,1002,1207,2107,11560,,,
11561,7,114.261198,37.480969,郝庄镇,,130522,0319,130522103000,,,,,,,,,,2,100,1002,1207,2107,11561,,,
11562,7,114.486452,37.517625,黑城乡,,130522,0319,130522200000,,,,,,,,,,2,100,1002,1207,2107,11562,,,
11563,7,114.59866,37.534225,鸭鸽营乡,,130522,0319,130522201000,,,,,,,,,,2,100,1002,1207,2107,11563,,,
11564,7,114.336258,37.398271,石城乡,,130522,0319,130522203000,,,,,,,,,,2,100,1002,1207,2107,11564,,,
11565,7,114.216615,37.395177,赵庄乡,,130522,0319,130522205000,,,,,,,,,,2,100,1002,1207,2107,11565,,,
11566,7,114.51325,37.291029,内丘镇,,130523,0319,130523100000,,,,,,,,,,2,100,1002,1207,2108,11566,,,
11567,7,114.484075,37.226338,大孟村镇,,130523,0319,130523101000,,,,,,,,,,2,100,1002,1207,2108,11567,,,
11568,7,114.589128,37.277807,金店镇,,130523,0319,130523102000,,,,,,,,,,2,100,1002,1207,2108,11568,,,
11569,7,114.509967,37.202254,官庄镇,,130523,0319,130523103000,,,,,,,,,,2,100,1002,1207,2108,11569,,,
11570,7,114.392998,37.295808,柳林镇,,130523,0319,130523104000,,,,,,,,,,2,100,1002,1207,2108,11570,,,
11571,7,114.520361,37.338637,五郭店乡,,130523,0319,130523200000,,,,,,,,,,2,100,1002,1207,2108,11571,,,
11572,7,114.300509,37.323943,南赛乡,,130523,0319,130523203000,,,,,,,,,,2,100,1002,1207,2108,11572,,,
11573,7,114.217139,37.354548,獐獏乡,,130523,0319,130523204000,,,,,,,,,,2,100,1002,1207,2108,11573,,,
11574,7,114.512128,37.286669,侯家庄乡,,130523,0319,130523205000,,,,,,,,,,2,100,1002,1207,2108,11574,,,
11575,7,114.69599,37.487804,柏乡镇,,130524,0319,130524100000,,,,,,,,,,2,100,1002,1207,2109,11575,,,
11576,7,114.732522,37.600685,固城店镇,,130524,0319,130524101000,,,,,,,,,,2,100,1002,1207,2109,11576,,,
11577,7,114.697435,37.455091,西汪镇,,130524,0319,130524102000,,,,,,,,,,2,100,1002,1207,2109,11577,,,
11578,7,114.693426,37.482423,龙华镇,,130524,0319,130524103000,,,,,,,,,,2,100,1002,1207,2109,11578,,,
11579,7,114.651857,37.478148,王家庄乡,,130524,0319,130524200000,,,,,,,,,,2,100,1002,1207,2109,11579,,,
11580,7,114.643423,37.513311,内步乡,,130524,0319,130524203000,,,,,,,,,,2,100,1002,1207,2109,11580,,,
11581,7,114.757197,37.345109,隆尧镇,,130525,0319,130525100000,,,,,,,,,,2,100,1002,1207,2110,11581,,,
11582,7,114.753459,37.284207,魏家庄镇,,130525,0319,130525101000,,,,,,,,,,2,100,1002,1207,2110,11582,,,
11583,7,114.57859,37.389893,尹村镇,,130525,0319,130525102000,,,,,,,,,,2,100,1002,1207,2110,11583,,,
11584,7,114.713663,37.377485,山口镇,,130525,0319,130525103000,,,,,,,,,,2,100,1002,1207,2110,11584,,,
11585,7,114.857429,37.292268,莲子镇镇,,130525,0319,130525104000,,,,,,,,,,2,100,1002,1207,2110,11585,,,
11586,7,114.775786,37.461386,固城镇,,130525,0319,130525105000,,,,,,,,,,2,100,1002,1207,2110,11586,,,
11587,7,114.675405,37.413254,东良镇,,130525,0319,130525106000,,,,,,,,,,2,100,1002,1207,2110,11587,,,
11588,7,114.708159,37.280611,北楼乡,,130525,0319,130525200000,,,,,,,,,,2,100,1002,1207,2110,11588,,,
11589,7,114.628668,37.332619,双碑乡,,130525,0319,130525202000,,,,,,,,,,2,100,1002,1207,2110,11589,,,
11590,7,114.90286,37.355075,牛家桥乡,,130525,0319,130525203000,,,,,,,,,,2,100,1002,1207,2110,11590,,,
11591,7,114.91734,37.402744,千户营乡,,130525,0319,130525204000,,,,,,,,,,2,100,1002,1207,2110,11591,,,
11592,7,114.853792,37.40273,大张庄乡,,130525,0319,130525205000,,,,,,,,,,2,100,1002,1207,2110,11592,,,
11593,7,114.799184,37.388577,柳行农场,,130525,0319,130525400000,,,,,,,,,,2,100,1002,1207,2110,11593,,,
11594,7,114.69472,37.134887,任城镇,,130526,0319,130526100000,,,,,,,,,,2,100,1002,1207,2111,11594,,,
11595,7,114.671936,37.120983,邢家湾镇,,130526,0319,130526101000,,,,,,,,,,2,100,1002,1207,2111,11595,,,
11596,7,114.882775,37.134001,辛店镇,,130526,0319,130526102000,,,,,,,,,,2,100,1002,1207,2111,11596,,,
11597,7,114.85031,37.182983,天口镇,,130526,0319,130526103000,,,,,,,,,,2,100,1002,1207,2111,11597,,,
11598,7,114.76375,37.126869,西固城乡,,130526,0319,130526200000,,,,,,,,,,2,100,1002,1207,2111,11598,,,
11599,7,114.715304,37.205686,永福庄乡,,130526,0319,130526201000,,,,,,,,,,2,100,1002,1207,2111,11599,,,
11600,7,114.666343,37.173194,大屯乡,,130526,0319,130526202000,,,,,,,,,,2,100,1002,1207,2111,11600,,,
11601,7,114.812474,37.116248,骆庄乡,,130526,0319,130526204000,,,,,,,,,,2,100,1002,1207,2111,11601,,,
11602,7,114.707707,36.999813,和阳镇,,130527,0319,130527100000,,,,,,,,,,2,100,1002,1207,2112,11602,,,
11603,7,114.687837,37.067562,贾宋镇,,130527,0319,130527101000,,,,,,,,,,2,100,1002,1207,2112,11603,,,
11604,7,114.806708,37.066676,郝桥镇,,130527,0319,130527102000,,,,,,,,,,2,100,1002,1207,2112,11604,,,
11605,7,114.806399,36.963122,东三召乡,,130527,0319,130527200000,,,,,,,,,,2,100,1002,1207,2112,11605,,,
11606,7,114.752648,36.987638,阎里乡,,130527,0319,130527201000,,,,,,,,,,2,100,1002,1207,2112,11606,,,
11607,7,114.642476,37.008291,河郭乡,,130527,0319,130527202000,,,,,,,,,,2,100,1002,1207,2112,11607,,,
11608,7,114.857974,37.073041,史召乡,,130527,0319,130527203000,,,,,,,,,,2,100,1002,1207,2112,11608,,,
11609,7,114.694808,36.952444,三思乡,,130527,0319,130527204000,,,,,,,,,,2,100,1002,1207,2112,11609,,,
11610,7,114.924774,37.641997,宁北街道,,130528,0319,130528001000,,,,,,,,,,2,100,1002,1207,2113,11610,,,
11611,7,114.917354,37.626404,凤凰镇,,130528,0319,130528100000,,,,,,,,,,2,100,1002,1207,2113,11611,,,
11612,7,114.835805,37.599149,河渠镇,,130528,0319,130528101000,,,,,,,,,,2,100,1002,1207,2113,11612,,,
11613,7,114.867143,37.565642,北河庄镇,,130528,0319,130528102000,,,,,,,,,,2,100,1002,1207,2113,11613,,,
11614,7,114.989244,37.45259,耿庄桥镇,,130528,0319,130528103000,,,,,,,,,,2,100,1002,1207,2113,11614,,,
11615,7,115.022465,37.548597,东汪镇,,130528,0319,130528104000,,,,,,,,,,2,100,1002,1207,2113,11615,,,
11616,7,115.071729,37.595844,贾家口镇,,130528,0319,130528105000,,,,,,,,,,2,100,1002,1207,2113,11616,,,
11617,7,115.156954,37.712972,四芝兰镇,,130528,0319,130528106000,,,,,,,,,,2,100,1002,1207,2113,11617,,,
11618,7,115.044885,37.66527,大陆村镇,,130528,0319,130528107000,,,,,,,,,,2,100,1002,1207,2113,11618,,,
11619,7,115.09821,37.75354,苏家庄镇,,130528,0319,130528108000,,,,,,,,,,2,100,1002,1207,2113,11619,,,
11620,7,114.8487,37.680679,换马店镇,,130528,0319,130528109000,,,,,,,,,,2,100,1002,1207,2113,11620,,,
11621,7,114.968044,37.679317,唐邱镇,,130528,0319,130528110000,,,,,,,,,,2,100,1002,1207,2113,11621,,,
11622,7,115.154313,37.557954,侯口乡,,130528,0319,130528200000,,,,,,,,,,2,100,1002,1207,2113,11622,,,
11623,7,115.16004,37.681809,纪昌庄乡,,130528,0319,130528202000,,,,,,,,,,2,100,1002,1207,2113,11623,,,
11624,7,114.885859,37.487071,北鱼乡,,130528,0319,130528205000,,,,,,,,,,2,100,1002,1207,2113,11624,,,
11625,7,114.932401,37.470253,徐家河乡,,130528,0319,130528208000,,,,,,,,,,2,100,1002,1207,2113,11625,,,
11626,7,114.934124,37.560167,大曹庄乡,,130528,0319,130528209000,,,,,,,,,,2,100,1002,1207,2113,11626,,,
11627,7,114.942271,37.532693,大曹庄管理区,,130528,0319,130528401000,,,,,,,,,,2,100,1002,1207,2113,11627,,,
11628,7,115.03144,37.238228,巨鹿镇,,130529,0319,130529100000,,,,,,,,,,2,100,1002,1207,2114,11628,,,
11629,7,114.959909,37.203796,王虎寨镇,,130529,0319,130529101000,,,,,,,,,,2,100,1002,1207,2114,11629,,,
11630,7,114.899232,37.24359,西郭城镇,,130529,0319,130529102000,,,,,,,,,,2,100,1002,1207,2114,11630,,,
11631,7,115.061141,37.348649,官亭镇,,130529,0319,130529103000,,,,,,,,,,2,100,1002,1207,2114,11631,,,
11632,7,115.140089,37.282536,阎疃镇,,130529,0319,130529104000,,,,,,,,,,2,100,1002,1207,2114,11632,,,
11633,7,114.951862,37.251642,小吕寨镇,,130529,0319,130529105000,,,,,,,,,,2,100,1002,1207,2114,11633,,,
11634,7,115.13311,37.34337,苏家营镇,,130529,0319,130529106000,,,,,,,,,,2,100,1002,1207,2114,11634,,,
11635,7,115.093529,37.16237,堤村乡,,130529,0319,130529200000,,,,,,,,,,2,100,1002,1207,2114,11635,,,
11636,7,115.101697,37.214135,张王疃乡,,130529,0319,130529201000,,,,,,,,,,2,100,1002,1207,2114,11636,,,
11637,7,115.019222,37.345742,观寨乡,,130529,0319,130529202000,,,,,,,,,,2,100,1002,1207,2114,11637,,,
11638,7,115.238636,37.518975,新河镇,,130530,0319,130530100000,,,,,,,,,,2,100,1002,1207,2115,11638,,,
11639,7,115.188188,37.455287,寻寨镇,,130530,0319,130530101000,,,,,,,,,,2,100,1002,1207,2115,11639,,,
11640,7,115.203683,37.52334,白神首乡,,130530,0319,130530200000,,,,,,,,,,2,100,1002,1207,2115,11640,,,
11641,7,115.132271,37.514502,荆家庄乡,,130530,0319,130530201000,,,,,,,,,,2,100,1002,1207,2115,11641,,,
11642,7,115.327012,37.457789,西流乡,,130530,0319,130530202000,,,,,,,,,,2,100,1002,1207,2115,11642,,,
11643,7,115.329358,37.531883,仁让里乡,,130530,0319,130530203000,,,,,,,,,,2,100,1002,1207,2115,11643,,,
11644,7,115.142891,37.068985,广宗镇,,130531,0319,130531100000,,,,,,,,,,2,100,1002,1207,2116,11644,,,
11645,7,115.155137,36.954791,冯家寨镇,,130531,0319,130531101000,,,,,,,,,,2,100,1002,1207,2116,11645,,,
11646,7,115.142607,37.07466,北塘疃镇,,130531,0319,130531102000,,,,,,,,,,2,100,1002,1207,2116,11646,,,
11647,7,115.142607,37.07466,核桃园镇,,130531,0319,130531103000,,,,,,,,,,2,100,1002,1207,2116,11647,,,
11648,7,115.245721,37.064073,葫芦乡,,130531,0319,130531200000,,,,,,,,,,2,100,1002,1207,2116,11648,,,
11649,7,115.160849,37.116358,大平台乡,,130531,0319,130531201000,,,,,,,,,,2,100,1002,1207,2116,11649,,,
11650,7,115.214809,37.195722,件只乡,,130531,0319,130531202000,,,,,,,,,,2,100,1002,1207,2116,11650,,,
11651,7,115.159021,37.15676,东召乡,,130531,0319,130531204000,,,,,,,,,,2,100,1002,1207,2116,11651,,,
11652,7,115.031195,37.062699,平乡县中华路街道,,130532,0319,130532001000,,,,,,,,,,2,100,1002,1207,2117,11652,,,
11653,7,114.917054,36.980665,平乡镇,,130532,0319,130532101000,,,,,,,,,,2,100,1002,1207,2117,11653,,,
11654,7,115.108547,36.980905,河古庙镇,,130532,0319,130532102000,,,,,,,,,,2,100,1002,1207,2117,11654,,,
