{"GeographyCode": [
    {"level":"村","longitude":121.471941,"latitude":31.226107,"chinese_name":"云南中路居委会","code1":"310101","code2":"021","code3":"310101002001","code4":"111","continent":"亚洲","country":"中国","province":"上海","city":"市辖区","county":"黄浦区","town":"南京东路街道","village":"云南中路居委会"    },
    {"level":"村","longitude":121.477418,"latitude":31.237163,"chinese_name":"龙泉园路居委会","code1":"310101","code2":"021","code3":"310101002002","code4":"111","continent":"亚洲","country":"中国","province":"上海","city":"市辖区","county":"黄浦区","town":"南京东路街道","village":"龙泉园路居委会"    },
    {"level":"村","longitude":121.471941,"latitude":31.226107,"chinese_name":"贵州路居委会","code1":"310101","code2":"021","code3":"310101002003","code4":"111","continent":"亚洲","country":"中国","province":"上海","city":"市辖区","county":"黄浦区","town":"南京东路街道","village":"贵州路居委会"    },
    {"level":"村","longitude":121.46511,"latitude":31.23927,"chinese_name":"新桥居委会","code1":"310101","code2":"021","code3":"310101002006","code4":"111","continent":"亚洲","country":"中国","province":"上海","city":"市辖区","county":"黄浦区","town":"南京东路街道","village":"新桥居委会"    },
    {"level":"村","longitude":121.471941,"latitude":31.226107,"chinese_name":"牛庄路居委会","code1":"310101","code2":"021","code3":"310101002007","code4":"111","continent":"亚洲","country":"中国","province":"上海","city":"市辖区","county":"黄浦区","town":"南京东路街道","village":"牛庄路居委会"    },
    {"level":"村","longitude":121.471941,"latitude":31.226107,"chinese_name":"厦门路居委会","code1":"310101","code2":"021","code3":"310101002008","code4":"111","continent":"亚洲","country":"中国","province":"上海","city":"市辖区","county":"黄浦区","town":"南京东路街道","village":"厦门路居委会"    },
    {"level":"村","longitude":121.469843,"latitude":31.236874,"chinese_name":"福海居委会","code1":"310101","code2":"021","code3":"310101002009","code4":"111","continent":"亚洲","country":"中国","province":"上海","city":"市辖区","county":"黄浦区","town":"南京东路街道","village":"福海居委会"    },
    {"level":"村","longitude":121.46884,"latitude":31.237266,"chinese_name":"承兴居委会","code1":"310101","code2":"021","code3":"310101002010","code4":"111","continent":"亚洲","country":"中国","province":"上海","city":"市辖区","county":"黄浦区","town":"南京东路街道","village":"承兴居委会"    },
    {"level":"村","longitude":121.46677,"latitude":31.237204,"chinese_name":"三德居委会","code1":"310101","code2":"021","code3":"310101002011","code4":"111","continent":"亚洲","country":"中国","province":"上海","city":"市辖区","county":"黄浦区","town":"南京东路街道","village":"三德居委会"    },
    {"level":"村","longitude":121.47225,"latitude":31.23842,"chinese_name":"福瑞居委会","code1":"310101","code2":"021","code3":"310101002013","code4":"111","continent":"亚洲","country":"中国","province":"上海","city":"市辖区","county":"黄浦区","town":"南京东路街道","village":"福瑞居委会"    },
    {"level":"村","longitude":121.471941,"latitude":31.226107,"chinese_name":"平望街居委会","code1":"310101","code2":"021","code3":"310101002014","code4":"111","continent":"亚洲","country":"中国","province":"上海","city":"市辖区","county":"黄浦区","town":"南京东路街道","village":"平望街居委会"    },
    {"level":"村","longitude":121.480364,"latitude":31.234445,"chinese_name":"小花园居委会","code1":"310101","code2":"021","code3":"310101002015","code4":"111","continent":"亚洲","country":"中国","province":"上海","city":"市辖区","county":"黄浦区","town":"南京东路街道","village":"小花园居委会"    },
    {"level":"村","longitude":121.471941,"latitude":31.226107,"chinese_name":"长江居委会","code1":"310101","code2":"021","code3":"310101002017","code4":"111","continent":"亚洲","country":"中国","province":"上海","city":"市辖区","county":"黄浦区","town":"南京东路街道","village":"长江居委会"    },
    {"level":"村","longitude":121.46909,"latitude":31.229591,"chinese_name":"江阴居委会","code1":"310101","code2":"021","code3":"310101002018","code4":"111","continent":"亚洲","country":"中国","province":"上海","city":"市辖区","county":"黄浦区","town":"南京东路街道","village":"江阴居委会"    },
    {"level":"村","longitude":121.471333,"latitude":31.225904,"chinese_name":"均乐居委会","code1":"310101","code2":"021","code3":"310101002019","code4":"111","continent":"亚洲","country":"中国","province":"上海","city":"市辖区","county":"黄浦区","town":"南京东路街道","village":"均乐居委会"    },
    {"level":"村","longitude":121.469362,"latitude":31.232962,"chinese_name":"新昌居委会","code1":"310101","code2":"021","code3":"310101002020","code4":"111","continent":"亚洲","country":"中国","province":"上海","city":"市辖区","county":"黄浦区","town":"南京东路街道","village":"新昌居委会"    },
    {"level":"村","longitude":121.471941,"latitude":31.226107,"chinese_name":"振兴居委会","code1":"310101","code2":"021","code3":"310101002021","code4":"111","continent":"亚洲","country":"中国","province":"上海","city":"市辖区","county":"黄浦区","town":"南京东路街道","village":"振兴居委会"    },
    {"level":"村","longitude":121.470782,"latitude":31.235243,"chinese_name":"定兴居委会","code1":"310101","code2":"021","code3":"310101002022","code4":"111","continent":"亚洲","country":"中国","province":"上海","city":"市辖区","county":"黄浦区","town":"南京东路街道","village":"定兴居委会"    },
    {"level":"村","longitude":121.468299,"latitude":31.228701,"chinese_name":"顺天村居委会","code1":"310101","code2":"021","code3":"310101002023","code4":"111","continent":"亚洲","country":"中国","province":"上海","city":"市辖区","county":"黄浦区","town":"南京东路街道","village":"顺天村居委会"    },
    {"level":"村","longitude":121.486259,"latitude":31.237018,"chinese_name":"汉口路居委会","code1":"310101","code2":"021","code3":"310101013001","code4":"111","continent":"亚洲","country":"中国","province":"上海","city":"市辖区","county":"黄浦区","town":"外滩街道","village":"汉口路居委会"    },
    {"level":"村","longitude":121.45105,"latitude":31.231153,"chinese_name":"北京居委会","code1":"310106","code2":"021","code3":"310101013003","code4":"111","continent":"亚洲","country":"中国","province":"上海","city":"市辖区","county":"黄浦区","town":"外滩街道","village":"北京居委会"    },
    {"level":"村","longitude":121.484672,"latitude":31.240205,"chinese_name":"宁波路居委会","code1":"310101","code2":"021","code3":"310101013004","code4":"111","continent":"亚洲","country":"中国","province":"上海","city":"市辖区","county":"黄浦区","town":"外滩街道","village":"宁波路居委会"    },
    {"level":"村","longitude":121.481432,"latitude":31.239541,"chinese_name":"无锡路居委会","code1":"310101","code2":"021","code3":"310101013005","code4":"111","continent":"亚洲","country":"中国","province":"上海","city":"市辖区","county":"黄浦区","town":"外滩街道","village":"无锡路居委会"    },
    {"level":"村","longitude":121.480825,"latitude":31.236499,"chinese_name":"东风居委会","code1":"310101","code2":"021","code3":"310101013007","code4":"111","continent":"亚洲","country":"中国","province":"上海","city":"市辖区","county":"黄浦区","town":"外滩街道","village":"东风居委会"    },
    {"level":"村","longitude":121.483247,"latitude":31.239394,"chinese_name":"山东北路居委会","code1":"310101","code2":"021","code3":"310101013008","code4":"111","continent":"亚洲","country":"中国","province":"上海","city":"市辖区","county":"黄浦区","town":"外滩街道","village":"山东北路居委会"    },
    {"level":"村","longitude":121.487258,"latitude":31.241701,"chinese_name":"虎丘路居委会","code1":"310101","code2":"021","code3":"310101013009","code4":"111","continent":"亚洲","country":"中国","province":"上海","city":"市辖区","county":"黄浦区","town":"外滩街道","village":"虎丘路居委会"    },
    {"level":"村","longitude":121.481432,"latitude":31.239541,"chinese_name":"永安路居委会","code1":"310101","code2":"021","code3":"310101013010","code4":"111","continent":"亚洲","country":"中国","province":"上海","city":"市辖区","county":"黄浦区","town":"外滩街道","village":"永安路居委会"    },
    {"level":"村","longitude":121.488876,"latitude":31.23067,"chinese_name":"永胜路居委会","code1":"310101","code2":"021","code3":"310101013012","code4":"111","continent":"亚洲","country":"中国","province":"上海","city":"市辖区","county":"黄浦区","town":"外滩街道","village":"永胜路居委会"    },
    {"level":"村","longitude":121.489006,"latitude":31.232358,"chinese_name":"中山东一路居委会","code1":"310101","code2":"021","code3":"310101013014","code4":"111","continent":"亚洲","country":"中国","province":"上海","city":"市辖区","county":"黄浦区","town":"外滩街道","village":"中山东一路居委会"    },
    {"level":"村","longitude":121.484905,"latitude":31.229852,"chinese_name":"盛泽居委会","code1":"310101","code2":"021","code3":"310101013015","code4":"111","continent":"亚洲","country":"中国","province":"上海","city":"市辖区","county":"黄浦区","town":"外滩街道","village":"盛泽居委会"    },
    {"level":"村","longitude":121.483746,"latitude":31.229182,"chinese_name":"宝兴居委会","code1":"310101","code2":"021","code3":"310101013018","code4":"111","continent":"亚洲","country":"中国","province":"上海","city":"市辖区","county":"黄浦区","town":"外滩街道","village":"宝兴居委会"    },
    {"level":"村","longitude":121.485026,"latitude":31.234829,"chinese_name":"昭通路居委会","code1":"310101","code2":"021","code3":"310101013019","code4":"111","continent":"亚洲","country":"中国","province":"上海","city":"市辖区","county":"黄浦区","town":"外滩街道","village":"昭通路居委会"    },
    {"level":"村","longitude":121.481432,"latitude":31.239541,"chinese_name":"瑞福居委会","code1":"310101","code2":"021","code3":"310101013020","code4":"111","continent":"亚洲","country":"中国","province":"上海","city":"市辖区","county":"黄浦区","town":"外滩街道","village":"瑞福居委会"    },
    {"level":"村","longitude":121.483409,"latitude":31.227135,"chinese_name":"云南居委会","code1":"310101","code2":"021","code3":"310101013021","code4":"111","continent":"亚洲","country":"中国","province":"上海","city":"市辖区","county":"黄浦区","town":"外滩街道","village":"云南居委会"    },
    {"level":"村","longitude":121.482742,"latitude":31.234882,"chinese_name":"山西南路居委会","code1":"310101","code2":"021","code3":"310101013022","code4":"111","continent":"亚洲","country":"中国","province":"上海","city":"市辖区","county":"黄浦区","town":"外滩街道","village":"山西南路居委会"    },
    {"level":"村","longitude":121.481432,"latitude":31.239541,"chinese_name":"新建二村居委会","code1":"310101","code2":"021","code3":"310101013023","code4":"111","continent":"亚洲","country":"中国","province":"上海","city":"市辖区","county":"黄浦区","town":"外滩街道","village":"新建二村居委会"    },
    {"level":"村","longitude":121.485016,"latitude":31.21147,"chinese_name":"民立居委会","code1":"310101","code2":"021","code3":"310101015002","code4":"111","continent":"亚洲","country":"中国","province":"上海","city":"市辖区","county":"黄浦区","town":"半淞园路街道","village":"民立居委会"    },
    {"level":"村","longitude":121.486859,"latitude":31.200757,"chinese_name":"瞿四居委会","code1":"310101","code2":"021","code3":"310101015004","code4":"111","continent":"亚洲","country":"中国","province":"上海","city":"市辖区","county":"黄浦区","town":"半淞园路街道","village":"瞿四居委会"    },
    {"level":"村","longitude":121.506078,"latitude":31.20107,"chinese_name":"西三居委会","code1":"310115","code2":"021","code3":"310101015005","code4":"111","continent":"亚洲","country":"中国","province":"上海","city":"市辖区","county":"黄浦区","town":"半淞园路街道","village":"西三居委会"    },
    {"level":"村","longitude":121.488236,"latitude":31.210226,"chinese_name":"徽宁居委会","code1":"310101","code2":"021","code3":"310101015006","code4":"111","continent":"亚洲","country":"中国","province":"上海","city":"市辖区","county":"黄浦区","town":"半淞园路街道","village":"徽宁居委会"    },
    {"level":"村","longitude":121.487103,"latitude":31.206786,"chinese_name":"高雄居委会","code1":"310101","code2":"021","code3":"310101015010","code4":"111","continent":"亚洲","country":"中国","province":"上海","city":"市辖区","county":"黄浦区","town":"半淞园路街道","village":"高雄居委会"    },
    {"level":"村","longitude":121.487103,"latitude":31.206786,"chinese_name":"瞿二居委会","code1":"310101","code2":"021","code3":"310101015011","code4":"111","continent":"亚洲","country":"中国","province":"上海","city":"市辖区","county":"黄浦区","town":"半淞园路街道","village":"瞿二居委会"    },
    {"level":"村","longitude":121.487103,"latitude":31.206786,"chinese_name":"三门峡居委会","code1":"310101","code2":"021","code3":"310101015013","code4":"111","continent":"亚洲","country":"中国","province":"上海","city":"市辖区","county":"黄浦区","town":"半淞园路街道","village":"三门峡居委会"    },
    {"level":"村","longitude":121.487103,"latitude":31.206786,"chinese_name":"市民居委会","code1":"310101","code2":"021","code3":"310101015014","code4":"111","continent":"亚洲","country":"中国","province":"上海","city":"市辖区","county":"黄浦区","town":"半淞园路街道","village":"市民居委会"    },
    {"level":"村","longitude":121.487103,"latitude":31.206786,"chinese_name":"西一居委会","code1":"310101","code2":"021","code3":"310101015015","code4":"111","continent":"亚洲","country":"中国","province":"上海","city":"市辖区","county":"黄浦区","town":"半淞园路街道","village":"西一居委会"    },
    {"level":"村","longitude":121.487103,"latitude":31.206786,"chinese_name":"制造居委会","code1":"310101","code2":"021","code3":"310101015016","code4":"111","continent":"亚洲","country":"中国","province":"上海","city":"市辖区","county":"黄浦区","town":"半淞园路街道","village":"制造居委会"    },
    {"level":"村","longitude":121.487103,"latitude":31.206786,"chinese_name":"保屯居委会","code1":"310101","code2":"021","code3":"310101015018","code4":"111","continent":"亚洲","country":"中国","province":"上海","city":"市辖区","county":"黄浦区","town":"半淞园路街道","village":"保屯居委会"    },
    {"level":"村","longitude":121.487103,"latitude":31.206786,"chinese_name":"西二居委会","code1":"310101","code2":"021","code3":"310101015021","code4":"111","continent":"亚洲","country":"中国","province":"上海","city":"市辖区","county":"黄浦区","town":"半淞园路街道","village":"西二居委会"    },
    {"level":"村","longitude":121.49352,"latitude":31.199015,"chinese_name":"耀江花园居委会","code1":"310101","code2":"021","code3":"310101015022","code4":"111","continent":"亚洲","country":"中国","province":"上海","city":"市辖区","county":"黄浦区","town":"半淞园路街道","village":"耀江花园居委会"    },
    {"level":"村","longitude":121.487103,"latitude":31.206786,"chinese_name":"黄浦新苑居委会","code1":"310101","code2":"021","code3":"310101015023","code4":"111","continent":"亚洲","country":"中国","province":"上海","city":"市辖区","county":"黄浦区","town":"半淞园路街道","village":"黄浦新苑居委会"    },
    {"level":"村","longitude":121.493875,"latitude":31.211239,"chinese_name":"迎勋居委会","code1":"310101","code2":"021","code3":"310101015024","code4":"111","continent":"亚洲","country":"中国","province":"上海","city":"市辖区","county":"黄浦区","town":"半淞园路街道","village":"迎勋居委会"    },
    {"level":"村","longitude":121.487103,"latitude":31.206786,"chinese_name":"海西居委会","code1":"310101","code2":"021","code3":"310101015025","code4":"111","continent":"亚洲","country":"中国","province":"上海","city":"市辖区","county":"黄浦区","town":"半淞园路街道","village":"海西居委会"    },
    {"level":"村","longitude":121.495213,"latitude":31.205034,"chinese_name":"益元居委会","code1":"310101","code2":"021","code3":"310101015026","code4":"111","continent":"亚洲","country":"中国","province":"上海","city":"市辖区","county":"黄浦区","town":"半淞园路街道","village":"益元居委会"    },
    {"level":"村","longitude":121.498985,"latitude":31.210358,"chinese_name":"中福花苑第一居委会","code1":"310101","code2":"021","code3":"310101015027","code4":"111","continent":"亚洲","country":"中国","province":"上海","city":"市辖区","county":"黄浦区","town":"半淞园路街道","village":"中福花苑第一居委会"    },
    {"level":"村","longitude":121.495644,"latitude":31.207697,"chinese_name":"车中居委会","code1":"310101","code2":"021","code3":"310101015028","code4":"111","continent":"亚洲","country":"中国","province":"上海","city":"市辖区","county":"黄浦区","town":"半淞园路街道","village":"车中居委会"    },
    {"level":"村","longitude":121.494114,"latitude":31.212021,"chinese_name":"普益居委会","code1":"310101","code2":"021","code3":"310101015029","code4":"111","continent":"亚洲","country":"中国","province":"上海","city":"市辖区","county":"黄浦区","town":"半淞园路街道","village":"普益居委会"    },
    {"level":"村","longitude":121.495465,"latitude":31.206761,"chinese_name":"新村居委会","code1":"310101","code2":"021","code3":"310101015030","code4":"111","continent":"亚洲","country":"中国","province":"上海","city":"市辖区","county":"黄浦区","town":"半淞园路街道","village":"新村居委会"    },
    {"level":"村","longitude":121.498985,"latitude":31.210358,"chinese_name":"中福花苑第二居委会","code1":"310101","code2":"021","code3":"310101015031","code4":"111","continent":"亚洲","country":"中国","province":"上海","city":"市辖区","county":"黄浦区","town":"半淞园路街道","village":"中福花苑第二居委会"    },
    {"level":"村","longitude":121.501063,"latitude":31.220083,"chinese_name":"新码居委会","code1":"310101","code2":"021","code3":"310101017002","code4":"111","continent":"亚洲","country":"中国","province":"上海","city":"市辖区","county":"黄浦区","town":"小东门街道","village":"新码居委会"    },
    {"level":"村","longitude":121.500675,"latitude":31.222024,"chinese_name":"龙潭居委会","code1":"310101","code2":"021","code3":"310101017003","code4":"111","continent":"亚洲","country":"中国","province":"上海","city":"市辖区","county":"黄浦区","town":"小东门街道","village":"龙潭居委会"    },
    {"level":"村","longitude":121.501063,"latitude":31.220083,"chinese_name":"西姚居委会","code1":"310101","code2":"021","code3":"310101017005","code4":"111","continent":"亚洲","country":"中国","province":"上海","city":"市辖区","county":"黄浦区","town":"小东门街道","village":"西姚居委会"    },
    {"level":"村","longitude":121.497518,"latitude":31.224022,"chinese_name":"中华居委会","code1":"310101","code2":"021","code3":"310101017008","code4":"111","continent":"亚洲","country":"中国","province":"上海","city":"市辖区","county":"黄浦区","town":"小东门街道","village":"中华居委会"    },
    {"level":"村","longitude":121.501063,"latitude":31.220083,"chinese_name":"白渡居委会","code1":"310101","code2":"021","code3":"310101017009","code4":"111","continent":"亚洲","country":"中国","province":"上海","city":"市辖区","county":"黄浦区","town":"小东门街道","village":"白渡居委会"    },
    {"level":"村","longitude":121.501063,"latitude":31.220083,"chinese_name":"天灯居委会","code1":"310101","code2":"021","code3":"310101017010","code4":"111","continent":"亚洲","country":"中国","province":"上海","city":"市辖区","county":"黄浦区","town":"小东门街道","village":"天灯居委会"    },
    {"level":"村","longitude":121.499326,"latitude":31.215915,"chinese_name":"小石桥居委会","code1":"310101","code2":"021","code3":"310101017011","code4":"111","continent":"亚洲","country":"中国","province":"上海","city":"市辖区","county":"黄浦区","town":"小东门街道","village":"小石桥居委会"    },
    {"level":"村","longitude":121.501063,"latitude":31.220083,"chinese_name":"乔家居委会","code1":"310101","code2":"021","code3":"310101017012","code4":"111","continent":"亚洲","country":"中国","province":"上海","city":"市辖区","county":"黄浦区","town":"小东门街道","village":"乔家居委会"    },
    {"level":"村","longitude":121.49775,"latitude":31.219434,"chinese_name":"金坛居委会","code1":"310101","code2":"021","code3":"310101017013","code4":"111","continent":"亚洲","country":"中国","province":"上海","city":"市辖区","county":"黄浦区","town":"小东门街道","village":"金坛居委会"    },
    {"level":"村","longitude":121.494844,"latitude":31.221031,"chinese_name":"赵家宅居委会","code1":"310101","code2":"021","code3":"310101017014","code4":"111","continent":"亚洲","country":"中国","province":"上海","city":"市辖区","county":"黄浦区","town":"小东门街道","village":"赵家宅居委会"    },
    {"level":"村","longitude":121.500539,"latitude":31.216026,"chinese_name":"荷花池居委会","code1":"310101","code2":"021","code3":"310101017015","code4":"111","continent":"亚洲","country":"中国","province":"上海","city":"市辖区","county":"黄浦区","town":"小东门街道","village":"荷花池居委会"    },
    {"level":"村","longitude":121.500527,"latitude":31.212461,"chinese_name":"阳光居委会","code1":"310101","code2":"021","code3":"310101017016","code4":"111","continent":"亚洲","country":"中国","province":"上海","city":"市辖区","county":"黄浦区","town":"小东门街道","village":"阳光居委会"    },
    {"level":"村","longitude":121.504612,"latitude":31.208809,"chinese_name":"多稼居委会","code1":"310101","code2":"021","code3":"310101017019","code4":"111","continent":"亚洲","country":"中国","province":"上海","city":"市辖区","county":"黄浦区","town":"小东门街道","village":"多稼居委会"    },
    {"level":"村","longitude":121.500776,"latitude":31.214908,"chinese_name":"万裕居委会","code1":"310101","code2":"021","code3":"310101017021","code4":"111","continent":"亚洲","country":"中国","province":"上海","city":"市辖区","county":"黄浦区","town":"小东门街道","village":"万裕居委会"    },
    {"level":"村","longitude":121.501063,"latitude":31.220083,"chinese_name":"府谷居委会","code1":"310101","code2":"021","code3":"310101017024","code4":"111","continent":"亚洲","country":"中国","province":"上海","city":"市辖区","county":"黄浦区","town":"小东门街道","village":"府谷居委会"    },
    {"level":"村","longitude":121.501063,"latitude":31.220083,"chinese_name":"桑园居委会","code1":"310101","code2":"021","code3":"310101017025","code4":"111","continent":"亚洲","country":"中国","province":"上海","city":"市辖区","county":"黄浦区","town":"小东门街道","village":"桑园居委会"    },
    {"level":"村","longitude":121.486984,"latitude":31.225396,"chinese_name":"四新居委会","code1":"310101","code2":"021","code3":"310101018002","code4":"111","continent":"亚洲","country":"中国","province":"上海","city":"市辖区","county":"黄浦区","town":"豫园街道","village":"四新居委会"    },
    {"level":"村","longitude":121.486984,"latitude":31.225396,"chinese_name":"宝带居委会","code1":"310101","code2":"021","code3":"310101018003","code4":"111","continent":"亚洲","country":"中国","province":"上海","city":"市辖区","county":"黄浦区","town":"豫园街道","village":"宝带居委会"    },
    {"level":"村","longitude":121.494304,"latitude":31.223961,"chinese_name":"光启居委会","code1":"310101","code2":"021","code3":"310101018005","code4":"111","continent":"亚洲","country":"中国","province":"上海","city":"市辖区","county":"黄浦区","town":"豫园街道","village":"光启居委会"    },
    {"level":"村","longitude":121.490647,"latitude":31.222294,"chinese_name":"果育居委会","code1":"310101","code2":"021","code3":"310101018006","code4":"111","continent":"亚洲","country":"中国","province":"上海","city":"市辖区","county":"黄浦区","town":"豫园街道","village":"果育居委会"    },
    {"level":"村","longitude":121.489614,"latitude":31.225971,"chinese_name":"侯家居委会","code1":"310101","code2":"021","code3":"310101018007","code4":"111","continent":"亚洲","country":"中国","province":"上海","city":"市辖区","county":"黄浦区","town":"豫园街道","village":"侯家居委会"    },
    {"level":"村","longitude":121.488252,"latitude":31.223189,"chinese_name":"太阳都市居委会","code1":"310101","code2":"021","code3":"310101018008","code4":"111","continent":"亚洲","country":"中国","province":"上海","city":"市辖区","county":"黄浦区","town":"豫园街道","village":"太阳都市居委会"    },
    {"level":"村","longitude":121.495848,"latitude":31.225781,"chinese_name":"丹马居委会","code1":"310101","code2":"021","code3":"310101018011","code4":"111","continent":"亚洲","country":"中国","province":"上海","city":"市辖区","county":"黄浦区","town":"豫园街道","village":"丹马居委会"    },
    {"level":"村","longitude":121.493563,"latitude":31.223024,"chinese_name":"学院居委会","code1":"310101","code2":"021","code3":"310101018012","code4":"111","continent":"亚洲","country":"中国","province":"上海","city":"市辖区","county":"黄浦区","town":"豫园街道","village":"学院居委会"    },
    {"level":"村","longitude":121.486362,"latitude":31.225738,"chinese_name":"露香居委会","code1":"310101","code2":"021","code3":"310101018013","code4":"111","continent":"亚洲","country":"中国","province":"上海","city":"市辖区","county":"黄浦区","town":"豫园街道","village":"露香居委会"    },
    {"level":"村","longitude":121.489682,"latitude":31.225611,"chinese_name":"广福居委会","code1":"310101","code2":"021","code3":"310101018016","code4":"111","continent":"亚洲","country":"中国","province":"上海","city":"市辖区","county":"黄浦区","town":"豫园街道","village":"广福居委会"    },
    {"level":"村","longitude":121.486984,"latitude":31.225396,"chinese_name":"肇方居委会","code1":"310101","code2":"021","code3":"310101018019","code4":"111","continent":"亚洲","country":"中国","province":"上海","city":"市辖区","county":"黄浦区","town":"豫园街道","village":"肇方居委会"    },
    {"level":"村","longitude":121.485947,"latitude":31.221819,"chinese_name":"同庆居委会","code1":"310101","code2":"021","code3":"310101018020","code4":"111","continent":"亚洲","country":"中国","province":"上海","city":"市辖区","county":"黄浦区","town":"豫园街道","village":"同庆居委会"    },
    {"level":"村","longitude":121.486364,"latitude":31.22267,"chinese_name":"泰瑞居委会","code1":"310101","code2":"021","code3":"310101018021","code4":"111","continent":"亚洲","country":"中国","province":"上海","city":"市辖区","county":"黄浦区","town":"豫园街道","village":"泰瑞居委会"    },
    {"level":"村","longitude":121.451606,"latitude":31.2121,"chinese_name":"淮海居委会","code1":"310104","code2":"021","code3":"310101018022","code4":"111","continent":"亚洲","country":"中国","province":"上海","city":"市辖区","county":"黄浦区","town":"豫园街道","village":"淮海居委会"    },
    {"level":"村","longitude":121.48187,"latitude":31.221314,"chinese_name":"会稽居委会","code1":"310101","code2":"021","code3":"310101018023","code4":"111","continent":"亚洲","country":"中国","province":"上海","city":"市辖区","county":"黄浦区","town":"豫园街道","village":"会稽居委会"    },
    {"level":"村","longitude":121.482662,"latitude":31.220463,"chinese_name":"方西居委会","code1":"310101","code2":"021","code3":"310101018024","code4":"111","continent":"亚洲","country":"中国","province":"上海","city":"市辖区","county":"黄浦区","town":"豫园街道","village":"方西居委会"    },
    {"level":"村","longitude":121.493735,"latitude":31.227656,"chinese_name":"古城居委会","code1":"310101","code2":"021","code3":"310101018025","code4":"111","continent":"亚洲","country":"中国","province":"上海","city":"市辖区","county":"黄浦区","town":"豫园街道","village":"古城居委会"    },
    {"level":"村","longitude":121.489911,"latitude":31.213545,"chinese_name":"大兴居委会","code1":"310101","code2":"021","code3":"310101019005","code4":"111","continent":"亚洲","country":"中国","province":"上海","city":"市辖区","county":"黄浦区","town":"老西门街道","village":"大兴居委会"    },
    {"level":"村","longitude":121.485018,"latitude":31.214234,"chinese_name":"大林居委会","code1":"310101","code2":"021","code3":"310101019013","code4":"111","continent":"亚洲","country":"中国","province":"上海","city":"市辖区","county":"黄浦区","town":"老西门街道","village":"大林居委会"    },
    {"level":"村","longitude":121.486979,"latitude":31.217635,"chinese_name":"文庙居委会","code1":"310101","code2":"021","code3":"310101019014","code4":"111","continent":"亚洲","country":"中国","province":"上海","city":"市辖区","county":"黄浦区","town":"老西门街道","village":"文庙居委会"    },
    {"level":"村","longitude":121.486244,"latitude":31.215171,"chinese_name":"学宫街居委会","code1":"310101","code2":"021","code3":"310101019017","code4":"111","continent":"亚洲","country":"中国","province":"上海","city":"市辖区","county":"黄浦区","town":"老西门街道","village":"学宫街居委会"    },
    {"level":"村","longitude":121.486306,"latitude":31.218619,"chinese_name":"曹家街居委会","code1":"310101","code2":"021","code3":"310101019018","code4":"111","continent":"亚洲","country":"中国","province":"上海","city":"市辖区","county":"黄浦区","town":"老西门街道","village":"曹家街居委会"    },
    {"level":"村","longitude":121.493275,"latitude":31.220759,"chinese_name":"艾家弄居委会","code1":"310101","code2":"021","code3":"310101019019","code4":"111","continent":"亚洲","country":"中国","province":"上海","city":"市辖区","county":"黄浦区","town":"老西门街道","village":"艾家弄居委会"    },
    {"level":"村","longitude":121.489065,"latitude":31.220741,"chinese_name":"小桃园居委会","code1":"310101","code2":"021","code3":"310101019020","code4":"111","continent":"亚洲","country":"中国","province":"上海","city":"市辖区","county":"黄浦区","town":"老西门街道","village":"小桃园居委会"    },
    {"level":"村","longitude":121.482117,"latitude":31.213383,"chinese_name":"方斜居委会","code1":"310101","code2":"021","code3":"310101019021","code4":"111","continent":"亚洲","country":"中国","province":"上海","city":"市辖区","county":"黄浦区","town":"老西门街道","village":"方斜居委会"    },
    {"level":"村","longitude":121.486899,"latitude":31.214728,"chinese_name":"牌楼居委会","code1":"310101","code2":"021","code3":"310101019022","code4":"111","continent":"亚洲","country":"中国","province":"上海","city":"市辖区","county":"黄浦区","town":"老西门街道","village":"牌楼居委会"    },
    {"level":"村","longitude":121.493129,"latitude":31.217771,"chinese_name":"也是园居委会","code1":"310101","code2":"021","code3":"310101019023","code4":"111","continent":"亚洲","country":"中国","province":"上海","city":"市辖区","county":"黄浦区","town":"老西门街道","village":"也是园居委会"    },
    {"level":"村","longitude":121.486244,"latitude":31.215171,"chinese_name":"龙门村居委会","code1":"310101","code2":"021","code3":"310101019024","code4":"111","continent":"亚洲","country":"中国","province":"上海","city":"市辖区","county":"黄浦区","town":"老西门街道","village":"龙门村居委会"    },
    {"level":"村","longitude":121.488359,"latitude":31.216453,"chinese_name":"小西门居委会","code1":"310101","code2":"021","code3":"310101019025","code4":"111","continent":"亚洲","country":"中国","province":"上海","city":"市辖区","county":"黄浦区","town":"老西门街道","village":"小西门居委会"    },
    {"level":"村","longitude":121.483195,"latitude":31.216535,"chinese_name":"唐家湾居委会","code1":"310101","code2":"021","code3":"310101019027","code4":"111","continent":"亚洲","country":"中国","province":"上海","city":"市辖区","county":"黄浦区","town":"老西门街道","village":"唐家湾居委会"    },
    {"level":"村","longitude":121.486244,"latitude":31.215171,"chinese_name":"净土街居委会","code1":"310101","code2":"021","code3":"310101019028","code4":"111","continent":"亚洲","country":"中国","province":"上海","city":"市辖区","county":"黄浦区","town":"老西门街道","village":"净土街居委会"    },
    {"level":"村","longitude":121.486244,"latitude":31.215171,"chinese_name":"乔家栅居委会","code1":"310101","code2":"021","code3":"310101019029","code4":"111","continent":"亚洲","country":"中国","province":"上海","city":"市辖区","county":"黄浦区","town":"老西门街道","village":"乔家栅居委会"    },
    {"level":"村","longitude":121.491173,"latitude":31.21295,"chinese_name":"陆兴居委会","code1":"310101","code2":"021","code3":"310101019030","code4":"111","continent":"亚洲","country":"中国","province":"上海","city":"市辖区","county":"黄浦区","town":"老西门街道","village":"陆兴居委会"    },
    {"level":"村","longitude":121.4945,"latitude":31.213551,"chinese_name":"明日星城居委会","code1":"310101","code2":"021","code3":"310101019031","code4":"111","continent":"亚洲","country":"中国","province":"上海","city":"市辖区","county":"黄浦区","town":"老西门街道","village":"明日星城居委会"    },
    {"level":"村","longitude":121.486244,"latitude":31.215171,"chinese_name":"陆迎居委会","code1":"310101","code2":"021","code3":"310101019032","code4":"111","continent":"亚洲","country":"中国","province":"上海","city":"市辖区","county":"黄浦区","town":"老西门街道","village":"陆迎居委会"    },
    {"level":"村","longitude":121.480427,"latitude":31.202355,"chinese_name":"桥一居委会","code1":"310101","code2":"021","code3":"310101020001","code4":"111","continent":"亚洲","country":"中国","province":"上海","city":"市辖区","county":"黄浦区","town":"五里桥街道","village":"桥一居委会"    },
    {"level":"村","longitude":121.479509,"latitude":31.204645,"chinese_name":"桥二居委会","code1":"310101","code2":"021","code3":"310101020002","code4":"111","continent":"亚洲","country":"中国","province":"上海","city":"市辖区","county":"黄浦区","town":"五里桥街道","village":"桥二居委会"    },
    {"level":"村","longitude":121.48393,"latitude":31.202138,"chinese_name":"中二居委会","code1":"310101","code2":"021","code3":"310101020004","code4":"111","continent":"亚洲","country":"中国","province":"上海","city":"市辖区","county":"黄浦区","town":"五里桥街道","village":"中二居委会"    },
    {"level":"村","longitude":121.481317,"latitude":31.200528,"chinese_name":"中一居委会","code1":"310101","code2":"021","code3":"310101020005","code4":"111","continent":"亚洲","country":"中国","province":"上海","city":"市辖区","county":"黄浦区","town":"五里桥街道","village":"中一居委会"    },
    {"level":"村","longitude":121.484314,"latitude":31.199317,"chinese_name":"铁一居委会","code1":"310101","code2":"021","code3":"310101020006","code4":"111","continent":"亚洲","country":"中国","province":"上海","city":"市辖区","county":"黄浦区","town":"五里桥街道","village":"铁一居委会"    },
    {"level":"村","longitude":121.481785,"latitude":31.200743,"chinese_name":"铁二居委会","code1":"310101","code2":"021","code3":"310101020007","code4":"111","continent":"亚洲","country":"中国","province":"上海","city":"市辖区","county":"黄浦区","town":"五里桥街道","village":"铁二居委会"    },
    {"level":"村","longitude":121.474992,"latitude":31.198378,"chinese_name":"瞿南居委会","code1":"310101","code2":"021","code3":"310101020008","code4":"111","continent":"亚洲","country":"中国","province":"上海","city":"市辖区","county":"黄浦区","town":"五里桥街道","village":"瞿南居委会"    },
    {"level":"村","longitude":121.473629,"latitude":31.200066,"chinese_name":"瞿中居委会","code1":"310101","code2":"021","code3":"310101020009","code4":"111","continent":"亚洲","country":"中国","province":"上海","city":"市辖区","county":"黄浦区","town":"五里桥街道","village":"瞿中居委会"    },
    {"level":"村","longitude":121.477716,"latitude":31.202156,"chinese_name":"瞿东居委会","code1":"310101","code2":"021","code3":"310101020010","code4":"111","continent":"亚洲","country":"中国","province":"上海","city":"市辖区","county":"黄浦区","town":"五里桥街道","village":"瞿东居委会"    },
    {"level":"村","longitude":121.481785,"latitude":31.200743,"chinese_name":"瞿西居委会","code1":"310101","code2":"021","code3":"310101020011","code4":"111","continent":"亚洲","country":"中国","province":"上海","city":"市辖区","county":"黄浦区","town":"五里桥街道","village":"瞿西居委会"    },
    {"level":"村","longitude":121.481785,"latitude":31.200743,"chinese_name":"斜土居委会","code1":"310101","code2":"021","code3":"310101020012","code4":"111","continent":"亚洲","country":"中国","province":"上海","city":"市辖区","county":"黄浦区","town":"五里桥街道","village":"斜土居委会"    },
    {"level":"村","longitude":121.481785,"latitude":31.200743,"chinese_name":"打浦居委会","code1":"310101","code2":"021","code3":"310101020013","code4":"111","continent":"亚洲","country":"中国","province":"上海","city":"市辖区","county":"黄浦区","town":"五里桥街道","village":"打浦居委会"    },
    {"level":"村","longitude":121.478992,"latitude":31.202331,"chinese_name":"蒙自居委会","code1":"310101","code2":"021","code3":"310101020014","code4":"111","continent":"亚洲","country":"中国","province":"上海","city":"市辖区","county":"黄浦区","town":"五里桥街道","village":"蒙自居委会"    },
    {"level":"村","longitude":121.4732,"latitude":31.19556,"chinese_name":"龙华居委会","code1":"310101","code2":"021","code3":"310101020016","code4":"111","continent":"亚洲","country":"中国","province":"上海","city":"市辖区","county":"黄浦区","town":"五里桥街道","village":"龙华居委会"    },
    {"level":"村","longitude":121.483705,"latitude":31.204692,"chinese_name":"丽园居委会","code1":"310101","code2":"021","code3":"310101020017","code4":"111","continent":"亚洲","country":"中国","province":"上海","city":"市辖区","county":"黄浦区","town":"五里桥街道","village":"丽园居委会"    },
    {"level":"村","longitude":121.482634,"latitude":31.204568,"chinese_name":"桑城居委会","code1":"310101","code2":"021","code3":"310101020018","code4":"111","continent":"亚洲","country":"中国","province":"上海","city":"市辖区","county":"黄浦区","town":"五里桥街道","village":"桑城居委会"    },
    {"level":"村","longitude":121.488492,"latitude":31.267993,"chinese_name":"紫荆居委会","code1":"310109","code2":"021","code3":"310101020019","code4":"111","continent":"亚洲","country":"中国","province":"上海","city":"市辖区","county":"黄浦区","town":"五里桥街道","village":"紫荆居委会"    },
    {"level":"村","longitude":121.481785,"latitude":31.200743,"chinese_name":"瑞南居委会","code1":"310101","code2":"021","code3":"310101020020","code4":"111","continent":"亚洲","country":"中国","province":"上海","city":"市辖区","county":"黄浦区","town":"五里桥街道","village":"瑞南居委会"    },
    {"level":"村","longitude":121.481785,"latitude":31.200743,"chinese_name":"海悦居委会","code1":"310101","code2":"021","code3":"310101020021","code4":"111","continent":"亚洲","country":"中国","province":"上海","city":"市辖区","county":"黄浦区","town":"五里桥街道","village":"海悦居委会"    },
    {"level":"村","longitude":121.472973,"latitude":31.205486,"chinese_name":"大同居委会","code1":"310101","code2":"021","code3":"310101021001","code4":"111","continent":"亚洲","country":"中国","province":"上海","city":"市辖区","county":"黄浦区","town":"打浦桥街道","village":"大同居委会"    },
    {"level":"村","longitude":121.466288,"latitude":31.206452,"chinese_name":"肇东居委会","code1":"310101","code2":"021","code3":"310101021002","code4":"111","continent":"亚洲","country":"中国","province":"上海","city":"市辖区","county":"黄浦区","town":"打浦桥街道","village":"肇东居委会"    },
    {"level":"村","longitude":121.471424,"latitude":31.207922,"chinese_name":"泰康居委会","code1":"310101","code2":"021","code3":"310101021005","code4":"111","continent":"亚洲","country":"中国","province":"上海","city":"市辖区","county":"黄浦区","town":"打浦桥街道","village":"泰康居委会"    },
    {"level":"村","longitude":121.473506,"latitude":31.203656,"chinese_name":"建中居委会","code1":"310101","code2":"021","code3":"310101021006","code4":"111","continent":"亚洲","country":"中国","province":"上海","city":"市辖区","county":"黄浦区","town":"打浦桥街道","village":"建中居委会"    },
    {"level":"村","longitude":121.483712,"latitude":31.20804,"chinese_name":"丽一居委会","code1":"310101","code2":"021","code3":"310101021007","code4":"111","continent":"亚洲","country":"中国","province":"上海","city":"市辖区","county":"黄浦区","town":"打浦桥街道","village":"丽一居委会"    },
    {"level":"村","longitude":121.473506,"latitude":31.203656,"chinese_name":"蒙西居委会","code1":"310101","code2":"021","code3":"310101021008","code4":"111","continent":"亚洲","country":"中国","province":"上海","city":"市辖区","county":"黄浦区","town":"打浦桥街道","village":"蒙西居委会"    },
    {"level":"村","longitude":121.47914,"latitude":31.206507,"chinese_name":"丽二居委会","code1":"310101","code2":"021","code3":"310101021009","code4":"111","continent":"亚洲","country":"中国","province":"上海","city":"市辖区","county":"黄浦区","town":"打浦桥街道","village":"丽二居委会"    },
    {"level":"村","longitude":121.479016,"latitude":31.206345,"chinese_name":"银杏居委会","code1":"310101","code2":"021","code3":"310101021010","code4":"111","continent":"亚洲","country":"中国","province":"上海","city":"市辖区","county":"黄浦区","town":"打浦桥街道","village":"银杏居委会"    },
    {"level":"村","longitude":121.480386,"latitude":31.209161,"chinese_name":"局后居委会","code1":"310101","code2":"021","code3":"310101021011","code4":"111","continent":"亚洲","country":"中国","province":"上海","city":"市辖区","county":"黄浦区","town":"打浦桥街道","village":"局后居委会"    },
    {"level":"村","longitude":121.481271,"latitude":31.212518,"chinese_name":"建一居委会","code1":"310101","code2":"021","code3":"310101021012","code4":"111","continent":"亚洲","country":"中国","province":"上海","city":"市辖区","county":"黄浦区","town":"打浦桥街道","village":"建一居委会"    },
    {"level":"村","longitude":121.473506,"latitude":31.203656,"chinese_name":"徐一居委会","code1":"310101","code2":"021","code3":"310101021013","code4":"111","continent":"亚洲","country":"中国","province":"上海","city":"市辖区","county":"黄浦区","town":"打浦桥街道","village":"徐一居委会"    },
    {"level":"村","longitude":121.478843,"latitude":31.212439,"chinese_name":"建三居委会","code1":"310101","code2":"021","code3":"310101021014","code4":"111","continent":"亚洲","country":"中国","province":"上海","city":"市辖区","county":"黄浦区","town":"打浦桥街道","village":"建三居委会"    },
    {"level":"村","longitude":121.478673,"latitude":31.210975,"chinese_name":"徐二居委会","code1":"310101","code2":"021","code3":"310101021015","code4":"111","continent":"亚洲","country":"中国","province":"上海","city":"市辖区","county":"黄浦区","town":"打浦桥街道","village":"徐二居委会"    },
    {"level":"村","longitude":121.474444,"latitude":31.209272,"chinese_name":"建五居委会","code1":"310101","code2":"021","code3":"310101021016","code4":"111","continent":"亚洲","country":"中国","province":"上海","city":"市辖区","county":"黄浦区","town":"打浦桥街道","village":"建五居委会"    },
    {"level":"村","longitude":121.470306,"latitude":31.202667,"chinese_name":"锦海居委会","code1":"310101","code2":"021","code3":"310101021018","code4":"111","continent":"亚洲","country":"中国","province":"上海","city":"市辖区","county":"黄浦区","town":"打浦桥街道","village":"锦海居委会"    },
    {"level":"村","longitude":121.47227,"latitude":31.205291,"chinese_name":"南塘居委会","code1":"310101","code2":"021","code3":"310101021019","code4":"111","continent":"亚洲","country":"中国","province":"上海","city":"市辖区","county":"黄浦区","town":"打浦桥街道","village":"南塘居委会"    },
    {"level":"村","longitude":121.47522,"latitude":31.20815,"chinese_name":"汇龙居委会","code1":"310101","code2":"021","code3":"310101021020","code4":"111","continent":"亚洲","country":"中国","province":"上海","city":"市辖区","county":"黄浦区","town":"打浦桥街道","village":"汇龙居委会"    },
    {"level":"村","longitude":121.475832,"latitude":31.214941,"chinese_name":"新华居委会","code1":"310101","code2":"021","code3":"310101022002","code4":"111","continent":"亚洲","country":"中国","province":"上海","city":"市辖区","county":"黄浦区","town":"淮海中路街道","village":"新华居委会"    },
    {"level":"村","longitude":121.478344,"latitude":31.215223,"chinese_name":"合二居委会","code1":"310101","code2":"021","code3":"310101022004","code4":"111","continent":"亚洲","country":"中国","province":"上海","city":"市辖区","county":"黄浦区","town":"淮海中路街道","village":"合二居委会"    },
    {"level":"村","longitude":121.473089,"latitude":31.21493,"chinese_name":"复三居委会","code1":"310101","code2":"021","code3":"310101022005","code4":"111","continent":"亚洲","country":"中国","province":"上海","city":"市辖区","county":"黄浦区","town":"淮海中路街道","village":"复三居委会"    },
    {"level":"村","longitude":121.472381,"latitude":31.21687,"chinese_name":"复四居委会","code1":"310101","code2":"021","code3":"310101022006","code4":"111","continent":"亚洲","country":"中国","province":"上海","city":"市辖区","county":"黄浦区","town":"淮海中路街道","village":"复四居委会"    },
    {"level":"村","longitude":121.481151,"latitude":31.216972,"chinese_name":"志成居委会","code1":"310101","code2":"021","code3":"310101022007","code4":"111","continent":"亚洲","country":"中国","province":"上海","city":"市辖区","county":"黄浦区","town":"淮海中路街道","village":"志成居委会"    },
    {"level":"村","longitude":121.481807,"latitude":31.219994,"chinese_name":"大华居委会","code1":"310101","code2":"021","code3":"310101022009","code4":"111","continent":"亚洲","country":"中国","province":"上海","city":"市辖区","county":"黄浦区","town":"淮海中路街道","village":"大华居委会"    },
    {"level":"村","longitude":121.475622,"latitude":31.215578,"chinese_name":"复兴居委会","code1":"310101","code2":"021","code3":"310101022014","code4":"111","continent":"亚洲","country":"中国","province":"上海","city":"市辖区","county":"黄浦区","town":"淮海中路街道","village":"复兴居委会"    },
    {"level":"村","longitude":121.473714,"latitude":31.217675,"chinese_name":"西成居委会","code1":"310101","code2":"021","code3":"310101022015","code4":"111","continent":"亚洲","country":"中国","province":"上海","city":"市辖区","county":"黄浦区","town":"淮海中路街道","village":"西成居委会"    },
    {"level":"村","longitude":121.472271,"latitude":31.220584,"chinese_name":"孝和居委会","code1":"310101","code2":"021","code3":"310101022017","code4":"111","continent":"亚洲","country":"中国","province":"上海","city":"市辖区","county":"黄浦区","town":"淮海中路街道","village":"孝和居委会"    },
    {"level":"村","longitude":121.476974,"latitude":31.216264,"chinese_name":"瑞华居委会","code1":"310101","code2":"021","code3":"310101022020","code4":"111","continent":"亚洲","country":"中国","province":"上海","city":"市辖区","county":"黄浦区","town":"淮海中路街道","village":"瑞华居委会"    },
    {"level":"村","longitude":121.48003,"latitude":31.214241,"chinese_name":"建二居委会","code1":"310101","code2":"021","code3":"310101022021","code4":"111","continent":"亚洲","country":"中国","province":"上海","city":"市辖区","county":"黄浦区","town":"淮海中路街道","village":"建二居委会"    },
    {"level":"村","longitude":121.478216,"latitude":31.214325,"chinese_name":"建四居委会","code1":"310101","code2":"021","code3":"310101022022","code4":"111","continent":"亚洲","country":"中国","province":"上海","city":"市辖区","county":"黄浦区","town":"淮海中路街道","village":"建四居委会"    },
    {"level":"村","longitude":121.47623,"latitude":31.213265,"chinese_name":"建六居委会","code1":"310101","code2":"021","code3":"310101022023","code4":"111","continent":"亚洲","country":"中国","province":"上海","city":"市辖区","county":"黄浦区","town":"淮海中路街道","village":"建六居委会"    },
    {"level":"村","longitude":121.47925,"latitude":31.215585,"chinese_name":"合一居委会","code1":"310101","code2":"021","code3":"310101022025","code4":"111","continent":"亚洲","country":"中国","province":"上海","city":"市辖区","county":"黄浦区","town":"淮海中路街道","village":"合一居委会"    },
    {"level":"村","longitude":121.479498,"latitude":31.214012,"chinese_name":"顺六居委会","code1":"310101","code2":"021","code3":"310101022026","code4":"111","continent":"亚洲","country":"中国","province":"上海","city":"市辖区","county":"黄浦区","town":"淮海中路街道","village":"顺六居委会"    },
    {"level":"村","longitude":121.476534,"latitude":31.217175,"chinese_name":"新天地居委会","code1":"310101","code2":"021","code3":"310101022027","code4":"111","continent":"亚洲","country":"中国","province":"上海","city":"市辖区","county":"黄浦区","town":"淮海中路街道","village":"新天地居委会"    },
    {"level":"村","longitude":121.468338,"latitude":31.219341,"chinese_name":"雁荡居委会","code1":"310101","code2":"021","code3":"310101023001","code4":"111","continent":"亚洲","country":"中国","province":"上海","city":"市辖区","county":"黄浦区","town":"瑞金二路街道","village":"雁荡居委会"    },
    {"level":"村","longitude":121.45856,"latitude":31.221423,"chinese_name":"延中居委会","code1":"310101","code2":"021","code3":"310101023002","code4":"111","continent":"亚洲","country":"中国","province":"上海","city":"市辖区","county":"黄浦区","town":"瑞金二路街道","village":"延中居委会"    },
    {"level":"村","longitude":121.46251,"latitude":31.223305,"chinese_name":"巨鹿居委会","code1":"310101","code2":"021","code3":"310101023003","code4":"111","continent":"亚洲","country":"中国","province":"上海","city":"市辖区","county":"黄浦区","town":"瑞金二路街道","village":"巨鹿居委会"    },
    {"level":"村","longitude":121.463325,"latitude":31.219738,"chinese_name":"锦江居委会","code1":"310101","code2":"021","code3":"310101023004","code4":"111","continent":"亚洲","country":"中国","province":"上海","city":"市辖区","county":"黄浦区","town":"瑞金二路街道","village":"锦江居委会"    },
    {"level":"村","longitude":121.466792,"latitude":31.217426,"chinese_name":"南昌居委会","code1":"310101","code2":"021","code3":"310101023005","code4":"111","continent":"亚洲","country":"中国","province":"上海","city":"市辖区","county":"黄浦区","town":"瑞金二路街道","village":"南昌居委会"    },
    {"level":"村","longitude":121.466792,"latitude":31.217426,"chinese_name":"茂名居委会","code1":"310101","code2":"021","code3":"310101023006","code4":"111","continent":"亚洲","country":"中国","province":"上海","city":"市辖区","county":"黄浦区","town":"瑞金二路街道","village":"茂名居委会"    },
    {"level":"村","longitude":121.448451,"latitude":31.211488,"chinese_name":"淮中居委会","code1":"310104","code2":"021","code3":"310101023008","code4":"111","continent":"亚洲","country":"中国","province":"上海","city":"市辖区","county":"黄浦区","town":"瑞金二路街道","village":"淮中居委会"    },
    {"level":"村","longitude":121.4647,"latitude":31.222132,"chinese_name":"长乐居委会","code1":"310101","code2":"021","code3":"310101023009","code4":"111","continent":"亚洲","country":"中国","province":"上海","city":"市辖区","county":"黄浦区","town":"瑞金二路街道","village":"长乐居委会"    },
    {"level":"村","longitude":121.465194,"latitude":31.218129,"chinese_name":"香山居委会","code1":"310101","code2":"021","code3":"310101023010","code4":"111","continent":"亚洲","country":"中国","province":"上海","city":"市辖区","county":"黄浦区","town":"瑞金二路街道","village":"香山居委会"    },
    {"level":"村","longitude":121.464242,"latitude":31.210802,"chinese_name":"永嘉居委会","code1":"310101","code2":"021","code3":"310101023011","code4":"111","continent":"亚洲","country":"中国","province":"上海","city":"市辖区","county":"黄浦区","town":"瑞金二路街道","village":"永嘉居委会"    },
    {"level":"村","longitude":121.466814,"latitude":31.214718,"chinese_name":"思南居委会","code1":"310101","code2":"021","code3":"310101023012","code4":"111","continent":"亚洲","country":"中国","province":"上海","city":"市辖区","county":"黄浦区","town":"瑞金二路街道","village":"思南居委会"    },
    {"level":"村","longitude":121.466792,"latitude":31.217426,"chinese_name":"陕建居委会","code1":"310101","code2":"021","code3":"310101023013","code4":"111","continent":"亚洲","country":"中国","province":"上海","city":"市辖区","county":"黄浦区","town":"瑞金二路街道","village":"陕建居委会"    },
    {"level":"村","longitude":121.466792,"latitude":31.217426,"chinese_name":"瑞成居委会","code1":"310101","code2":"021","code3":"310101023014","code4":"111","continent":"亚洲","country":"中国","province":"上海","city":"市辖区","county":"黄浦区","town":"瑞金二路街道","village":"瑞成居委会"    },
    {"level":"村","longitude":121.470734,"latitude":31.220614,"chinese_name":"瑞兴居委会","code1":"310101","code2":"021","code3":"310101023015","code4":"111","continent":"亚洲","country":"中国","province":"上海","city":"市辖区","county":"黄浦区","town":"瑞金二路街道","village":"瑞兴居委会"    },
    {"level":"村","longitude":121.468218,"latitude":31.21048,"chinese_name":"建德居委会","code1":"310101","code2":"021","code3":"310101023016","code4":"111","continent":"亚洲","country":"中国","province":"上海","city":"市辖区","county":"黄浦区","town":"瑞金二路街道","village":"建德居委会"    },
    {"level":"村","longitude":121.464363,"latitude":31.20813,"chinese_name":"瑞雪居委会","code1":"310101","code2":"021","code3":"310101023017","code4":"111","continent":"亚洲","country":"中国","province":"上海","city":"市辖区","county":"黄浦区","town":"瑞金二路街道","village":"瑞雪居委会"    },
    {"level":"村","longitude":121.444107,"latitude":31.206368,"chinese_name":"上海新村居委会","code1":"310104","code2":"021","code3":"310104003001","code4":"111","continent":"亚洲","country":"中国","province":"上海","city":"市辖区","county":"徐汇区","town":"天平路街道","village":"上海新村居委会"    },
    {"level":"村","longitude":121.438399,"latitude":31.199073,"chinese_name":"德昌居委会","code1":"310104","code2":"021","code3":"310104003002","code4":"111","continent":"亚洲","country":"中国","province":"上海","city":"市辖区","county":"徐汇区","town":"天平路街道","village":"德昌居委会"    },
    {"level":"村","longitude":121.442111,"latitude":31.20316,"chinese_name":"康平居委会","code1":"310104","code2":"021","code3":"310104003003","code4":"111","continent":"亚洲","country":"中国","province":"上海","city":"市辖区","county":"徐汇区","town":"天平路街道","village":"康平居委会"    },
    {"level":"村","longitude":121.438794,"latitude":31.202978,"chinese_name":"广元居委会","code1":"310104","code2":"021","code3":"310104003004","code4":"111","continent":"亚洲","country":"中国","province":"上海","city":"市辖区","county":"徐汇区","town":"天平路街道","village":"广元居委会"    },
    {"level":"村","longitude":121.447978,"latitude":31.202823,"chinese_name":"安亭居委会","code1":"310104","code2":"021","code3":"310104003005","code4":"111","continent":"亚洲","country":"中国","province":"上海","city":"市辖区","county":"徐汇区","town":"天平路街道","village":"安亭居委会"    },
    {"level":"村","longitude":121.446853,"latitude":31.199776,"chinese_name":"吴兴居委会","code1":"310104","code2":"021","code3":"310104003006","code4":"111","continent":"亚洲","country":"中国","province":"上海","city":"市辖区","county":"徐汇区","town":"天平路街道","village":"吴兴居委会"    },
    {"level":"村","longitude":121.438399,"latitude":31.199073,"chinese_name":"天平居委会","code1":"310104","code2":"021","code3":"310104003007","code4":"111","continent":"亚洲","country":"中国","province":"上海","city":"市辖区","county":"徐汇区","town":"天平路街道","village":"天平居委会"    },
    {"level":"村","longitude":121.445009,"latitude":31.199641,"chinese_name":"宛平居委会","code1":"310104","code2":"021","code3":"310104003008","code4":"111","continent":"亚洲","country":"中国","province":"上海","city":"市辖区","county":"徐汇区","town":"天平路街道","village":"宛平居委会"    },
    {"level":"村","longitude":121.445067,"latitude":31.203015,"chinese_name":"高安居委会","code1":"310104","code2":"021","code3":"310104003009","code4":"111","continent":"亚洲","country":"中国","province":"上海","city":"市辖区","county":"徐汇区","town":"天平路街道","village":"高安居委会"    },
    {"level":"村","longitude":121.456344,"latitude":31.206177,"chinese_name":"建新居委会","code1":"310104","code2":"021","code3":"310104003010","code4":"111","continent":"亚洲","country":"中国","province":"上海","city":"市辖区","county":"徐汇区","town":"天平路街道","village":"建新居委会"    },
    {"level":"村","longitude":121.438794,"latitude":31.202978,"chinese_name":"永太居委会","code1":"310104","code2":"021","code3":"310104003011","code4":"111","continent":"亚洲","country":"中国","province":"上海","city":"市辖区","county":"徐汇区","town":"天平路街道","village":"永太居委会"    },
    {"level":"村","longitude":121.45032,"latitude":31.205419,"chinese_name":"永嘉新村居委会","code1":"310104","code2":"021","code3":"310104003012","code4":"111","continent":"亚洲","country":"中国","province":"上海","city":"市辖区","county":"徐汇区","town":"天平路街道","village":"永嘉新村居委会"    },
    {"level":"村","longitude":121.438794,"latitude":31.202978,"chinese_name":"桃源村居委会","code1":"310104","code2":"021","code3":"310104003013","code4":"111","continent":"亚洲","country":"中国","province":"上海","city":"市辖区","county":"徐汇区","town":"天平路街道","village":"桃源村居委会"    },
    {"level":"村","longitude":121.456063,"latitude":31.203664,"chinese_name":"息村居委会","code1":"310104","code2":"021","code3":"310104003017","code4":"111","continent":"亚洲","country":"中国","province":"上海","city":"市辖区","county":"徐汇区","town":"天平路街道","village":"息村居委会"    },
    {"level":"村","longitude":121.458497,"latitude":31.204155,"chinese_name":"肇嘉浜居委会","code1":"310104","code2":"021","code3":"310104003019","code4":"111","continent":"亚洲","country":"中国","province":"上海","city":"市辖区","county":"徐汇区","town":"天平路街道","village":"肇嘉浜居委会"    },
    {"level":"村","longitude":121.459329,"latitude":31.207293,"chinese_name":"慎成居委会","code1":"310104","code2":"021","code3":"310104003021","code4":"111","continent":"亚洲","country":"中国","province":"上海","city":"市辖区","county":"徐汇区","town":"天平路街道","village":"慎成居委会"    },
    {"level":"村","longitude":121.459699,"latitude":31.210169,"chinese_name":"嘉善居委会","code1":"310104","code2":"021","code3":"310104003024","code4":"111","continent":"亚洲","country":"中国","province":"上海","city":"市辖区","county":"徐汇区","town":"天平路街道","village":"嘉善居委会"    },
    {"level":"村","longitude":121.452199,"latitude":31.205885,"chinese_name":"建岳居委会","code1":"310104","code2":"021","code3":"310104003025","code4":"111","continent":"亚洲","country":"中国","province":"上海","city":"市辖区","county":"徐汇区","town":"天平路街道","village":"建岳居委会"    },
    {"level":"村","longitude":121.458056,"latitude":31.210068,"chinese_name":"永康居委会","code1":"310104","code2":"021","code3":"310104003026","code4":"111","continent":"亚洲","country":"中国","province":"上海","city":"市辖区","county":"徐汇区","town":"天平路街道","village":"永康居委会"    },
    {"level":"村","longitude":121.453916,"latitude":31.207645,"chinese_name":"太原居委会","code1":"310104","code2":"021","code3":"310104003027","code4":"111","continent":"亚洲","country":"中国","province":"上海","city":"市辖区","county":"徐汇区","town":"天平路街道","village":"太原居委会"    },
    {"level":"村","longitude":121.461153,"latitude":31.208049,"chinese_name":"陕西居委会","code1":"310104","code2":"021","code3":"310104003028","code4":"111","continent":"亚洲","country":"中国","province":"上海","city":"市辖区","county":"徐汇区","town":"天平路街道","village":"陕西居委会"    },
    {"level":"村","longitude":121.448451,"latitude":31.211488,"chinese_name":"淮中居委会","code1":"310104","code2":"021","code3":"310104004001","code4":"111","continent":"亚洲","country":"中国","province":"上海","city":"市辖区","county":"徐汇区","town":"湖南路街道","village":"淮中居委会"    },
    {"level":"村","longitude":121.435733,"latitude":31.208326,"chinese_name":"安福居委会","code1":"310105","code2":"021","code3":"310104004003","code4":"111","continent":"亚洲","country":"中国","province":"上海","city":"市辖区","county":"徐汇区","town":"湖南路街道","village":"安福居委会"    },
    {"level":"村","longitude":121.437917,"latitude":31.205572,"chinese_name":"兴武居委会","code1":"310104","code2":"021","code3":"310104004005","code4":"111","continent":"亚洲","country":"中国","province":"上海","city":"市辖区","county":"徐汇区","town":"湖南路街道","village":"兴武居委会"    },
    {"level":"村","longitude":121.445113,"latitude":31.212058,"chinese_name":"金波居委会","code1":"310104","code2":"021","code3":"310104004007","code4":"111","continent":"亚洲","country":"中国","province":"上海","city":"市辖区","county":"徐汇区","town":"湖南路街道","village":"金波居委会"    },
    {"level":"村","longitude":121.442321,"latitude":31.207584,"chinese_name":"武康居委会","code1":"310104","code2":"021","code3":"310104004008","code4":"111","continent":"亚洲","country":"中国","province":"上海","city":"市辖区","county":"徐汇区","town":"湖南路街道","village":"武康居委会"    },
    {"level":"村","longitude":121.447181,"latitude":31.214572,"chinese_name":"春华居委会","code1":"310104","code2":"021","code3":"310104004009","code4":"111","continent":"亚洲","country":"中国","province":"上海","city":"市辖区","county":"徐汇区","town":"湖南路街道","village":"春华居委会"    },
    {"level":"村","longitude":121.46054,"latitude":31.243695,"chinese_name":"华康居委会","code1":"310106","code2":"021","code3":"310104004010","code4":"111","continent":"亚洲","country":"中国","province":"上海","city":"市辖区","county":"徐汇区","town":"湖南路街道","village":"华康居委会"    },
    {"level":"村","longitude":121.444604,"latitude":31.209803,"chinese_name":"复永居委会","code1":"310104","code2":"021","code3":"310104004012","code4":"111","continent":"亚洲","country":"中国","province":"上海","city":"市辖区","county":"徐汇区","town":"湖南路街道","village":"复永居委会"    },
    {"level":"村","longitude":121.454762,"latitude":31.217748,"chinese_name":"新乐居委会","code1":"310104","code2":"021","code3":"310104004014","code4":"111","continent":"亚洲","country":"中国","province":"上海","city":"市辖区","county":"徐汇区","town":"湖南路街道","village":"新乐居委会"    },
    {"level":"村","longitude":121.458011,"latitude":31.21342,"chinese_name":"张家弄居委会","code1":"310104","code2":"021","code3":"310104004015","code4":"111","continent":"亚洲","country":"中国","province":"上海","city":"市辖区","county":"徐汇区","town":"湖南路街道","village":"张家弄居委会"    },
    {"level":"村","longitude":121.455705,"latitude":31.213845,"chinese_name":"复襄居委会","code1":"310104","code2":"021","code3":"310104004016","code4":"111","continent":"亚洲","country":"中国","province":"上海","city":"市辖区","county":"徐汇区","town":"湖南路街道","village":"复襄居委会"    },
    {"level":"村","longitude":121.457841,"latitude":31.21384,"chinese_name":"复中居委会","code1":"310104","code2":"021","code3":"310104004017","code4":"111","continent":"亚洲","country":"中国","province":"上海","city":"市辖区","county":"徐汇区","town":"湖南路街道","village":"复中居委会"    },
    {"level":"村","longitude":121.45193,"latitude":31.214969,"chinese_name":"东湖居委会","code1":"310104","code2":"021","code3":"310104004018","code4":"111","continent":"亚洲","country":"中国","province":"上海","city":"市辖区","county":"徐汇区","town":"湖南路街道","village":"东湖居委会"    },
    {"level":"村","longitude":121.455921,"latitude":31.219072,"chinese_name":"陕新居委会","code1":"310104","code2":"021","code3":"310104004019","code4":"111","continent":"亚洲","country":"中国","province":"上海","city":"市辖区","county":"徐汇区","town":"湖南路街道","village":"陕新居委会"    },
    {"level":"村","longitude":121.451606,"latitude":31.2121,"chinese_name":"淮海居委会","code1":"310104","code2":"021","code3":"310104004020","code4":"111","continent":"亚洲","country":"中国","province":"上海","city":"市辖区","county":"徐汇区","town":"湖南路街道","village":"淮海居委会"    },
    {"level":"村","longitude":121.451806,"latitude":31.216632,"chinese_name":"延庆居委会","code1":"310104","code2":"021","code3":"310104004021","code4":"111","continent":"亚洲","country":"中国","province":"上海","city":"市辖区","county":"徐汇区","town":"湖南路街道","village":"延庆居委会"    },
    {"level":"村","longitude":121.467074,"latitude":31.195048,"chinese_name":"日晖新城居委会","code1":"310104","code2":"021","code3":"310104007001","code4":"111","continent":"亚洲","country":"中国","province":"上海","city":"市辖区","county":"徐汇区","town":"斜土路街道","village":"日晖新城居委会"    },
    {"level":"村","longitude":121.463834,"latitude":31.200783,"chinese_name":"日晖七村居委会","code1":"310104","code2":"021","code3":"310104007002","code4":"111","continent":"亚洲","country":"中国","province":"上海","city":"市辖区","county":"徐汇区","town":"斜土路街道","village":"日晖七村居委会"    },
    {"level":"村","longitude":121.461383,"latitude":31.194829,"chinese_name":"日晖六村第一居委会","code1":"310104","code2":"021","code3":"310104007003","code4":"111","continent":"亚洲","country":"中国","province":"上海","city":"市辖区","county":"徐汇区","town":"斜土路街道","village":"日晖六村第一居委会"    },
    {"level":"村","longitude":121.461383,"latitude":31.194829,"chinese_name":"日晖六村第二居委会","code1":"310104","code2":"021","code3":"310104007004","code4":"111","continent":"亚洲","country":"中国","province":"上海","city":"市辖区","county":"徐汇区","town":"斜土路街道","village":"日晖六村第二居委会"    },
    {"level":"村","longitude":121.467785,"latitude":31.196777,"chinese_name":"康巨居委会","code1":"310104","code2":"021","code3":"310104007008","code4":"111","continent":"亚洲","country":"中国","province":"上海","city":"市辖区","county":"徐汇区","town":"斜土路街道","village":"康巨居委会"    },
    {"level":"村","longitude":121.463834,"latitude":31.200783,"chinese_name":"江南新村居委会","code1":"310104","code2":"021","code3":"310104007009","code4":"111","continent":"亚洲","country":"中国","province":"上海","city":"市辖区","county":"徐汇区","town":"斜土路街道","village":"江南新村居委会"    },
    {"level":"村","longitude":121.461422,"latitude":31.199567,"chinese_name":"大木桥路第三居委会","code1":"310104","code2":"021","code3":"310104007013","code4":"111","continent":"亚洲","country":"中国","province":"上海","city":"市辖区","county":"徐汇区","town":"斜土路街道","village":"大木桥路第三居委会"    },
    {"level":"村","longitude":121.46212,"latitude":31.201829,"chinese_name":"上影居委会","code1":"310104","code2":"021","code3":"310104007014","code4":"111","continent":"亚洲","country":"中国","province":"上海","city":"市辖区","county":"徐汇区","town":"斜土路街道","village":"上影居委会"    },
    {"level":"村","longitude":121.466824,"latitude":31.199851,"chinese_name":"茶陵居委会","code1":"310104","code2":"021","code3":"310104007015","code4":"111","continent":"亚洲","country":"中国","province":"上海","city":"市辖区","county":"徐汇区","town":"斜土路街道","village":"茶陵居委会"    },
    {"level":"村","longitude":121.463834,"latitude":31.200783,"chinese_name":"日晖二村居委会","code1":"310104","code2":"021","code3":"310104007018","code4":"111","continent":"亚洲","country":"中国","province":"上海","city":"市辖区","county":"徐汇区","town":"斜土路街道","village":"日晖二村居委会"    },
    {"level":"村","longitude":121.459828,"latitude":31.202028,"chinese_name":"肇嘉浜路第一居委会","code1":"310104","code2":"021","code3":"310104007021","code4":"111","continent":"亚洲","country":"中国","province":"上海","city":"市辖区","county":"徐汇区","town":"斜土路街道","village":"肇嘉浜路第一居委会"    },
    {"level":"村","longitude":121.45799,"latitude":31.201303,"chinese_name":"肇清居委会","code1":"310104","code2":"021","code3":"310104007022","code4":"111","continent":"亚洲","country":"中国","province":"上海","city":"市辖区","county":"徐汇区","town":"斜土路街道","village":"肇清居委会"    },
    {"level":"村","longitude":121.465367,"latitude":31.201525,"chinese_name":"景泰居委会","code1":"310104","code2":"021","code3":"310104007023","code4":"111","continent":"亚洲","country":"中国","province":"上海","city":"市辖区","county":"徐汇区","town":"斜土路街道","village":"景泰居委会"    },
    {"level":"村","longitude":121.461422,"latitude":31.199567,"chinese_name":"大木桥路第四居委会","code1":"310104","code2":"021","code3":"310104007024","code4":"111","continent":"亚洲","country":"中国","province":"上海","city":"市辖区","county":"徐汇区","town":"斜土路街道","village":"大木桥路第四居委会"    },
    {"level":"村","longitude":121.461422,"latitude":31.199567,"chinese_name":"大木桥路第五居委会","code1":"310104","code2":"021","code3":"310104007025","code4":"111","continent":"亚洲","country":"中国","province":"上海","city":"市辖区","county":"徐汇区","town":"斜土路街道","village":"大木桥路第五居委会"    },
    {"level":"村","longitude":121.463834,"latitude":31.200783,"chinese_name":"日晖五村居委会","code1":"310104","code2":"021","code3":"310104007026","code4":"111","continent":"亚洲","country":"中国","province":"上海","city":"市辖区","county":"徐汇区","town":"斜土路街道","village":"日晖五村居委会"    },
    {"level":"村","longitude":121.463834,"latitude":31.200783,"chinese_name":"恒益居委会","code1":"310104","code2":"021","code3":"310104007028","code4":"111","continent":"亚洲","country":"中国","province":"上海","city":"市辖区","county":"徐汇区","town":"斜土路街道","village":"恒益居委会"    },
    {"level":"村","longitude":121.463834,"latitude":31.200783,"chinese_name":"尚海湾居委会","code1":"310104","code2":"021","code3":"310104007049","code4":"111","continent":"亚洲","country":"中国","province":"上海","city":"市辖区","county":"徐汇区","town":"斜土路街道","village":"尚海湾居委会"    },
    {"level":"村","longitude":121.451725,"latitude":31.185289,"chinese_name":"张家浜居委会","code1":"310104","code2":"021","code3":"310104008001","code4":"111","continent":"亚洲","country":"中国","province":"上海","city":"市辖区","county":"徐汇区","town":"枫林路街道","village":"张家浜居委会"    },
    {"level":"村","longitude":121.449242,"latitude":31.193614,"chinese_name":"谨斜居委会","code1":"310104","code2":"021","code3":"310104008002","code4":"111","continent":"亚洲","country":"中国","province":"上海","city":"市辖区","county":"徐汇区","town":"枫林路街道","village":"谨斜居委会"    },
    {"level":"村","longitude":121.451725,"latitude":31.185289,"chinese_name":"东安一村北居委会","code1":"310104","code2":"021","code3":"310104008004","code4":"111","continent":"亚洲","country":"中国","province":"上海","city":"市辖区","county":"徐汇区","town":"枫林路街道","village":"东安一村北居委会"    },
    {"level":"村","longitude":121.451725,"latitude":31.185289,"chinese_name":"东安一村南居委会","code1":"310104","code2":"021","code3":"310104008005","code4":"111","continent":"亚洲","country":"中国","province":"上海","city":"市辖区","county":"徐汇区","town":"枫林路街道","village":"东安一村南居委会"    },
    {"level":"村","longitude":121.451811,"latitude":31.184802,"chinese_name":"黄家宅居委会","code1":"310104","code2":"021","code3":"310104008009","code4":"111","continent":"亚洲","country":"中国","province":"上海","city":"市辖区","county":"徐汇区","town":"枫林路街道","village":"黄家宅居委会"    },
    {"level":"村","longitude":121.458365,"latitude":31.195563,"chinese_name":"西木北居委会","code1":"310104","code2":"021","code3":"310104008010","code4":"111","continent":"亚洲","country":"中国","province":"上海","city":"市辖区","county":"徐汇区","town":"枫林路街道","village":"西木北居委会"    },
    {"level":"村","longitude":121.451725,"latitude":31.185289,"chinese_name":"西木南居委会","code1":"310104","code2":"021","code3":"310104008011","code4":"111","continent":"亚洲","country":"中国","province":"上海","city":"市辖区","county":"徐汇区","town":"枫林路街道","village":"西木南居委会"    },
    {"level":"村","longitude":121.454102,"latitude":31.190031,"chinese_name":"沈家里居委会","code1":"310104","code2":"021","code3":"310104008013","code4":"111","continent":"亚洲","country":"中国","province":"上海","city":"市辖区","county":"徐汇区","town":"枫林路街道","village":"沈家里居委会"    },
    {"level":"村","longitude":121.451725,"latitude":31.185289,"chinese_name":"振兴居委会","code1":"310104","code2":"021","code3":"310104008015","code4":"111","continent":"亚洲","country":"中国","province":"上海","city":"市辖区","county":"徐汇区","town":"枫林路街道","village":"振兴居委会"    },
    {"level":"村","longitude":121.451725,"latitude":31.185289,"chinese_name":"医清居委会","code1":"310104","code2":"021","code3":"310104008017","code4":"111","continent":"亚洲","country":"中国","province":"上海","city":"市辖区","county":"徐汇区","town":"枫林路街道","village":"医清居委会"    },
    {"level":"村","longitude":121.451892,"latitude":31.186549,"chinese_name":"东安四村居委会","code1":"310104","code2":"021","code3":"310104008020","code4":"111","continent":"亚洲","country":"中国","province":"上海","city":"市辖区","county":"徐汇区","town":"枫林路街道","village":"东安四村居委会"    },
    {"level":"村","longitude":121.451725,"latitude":31.185289,"chinese_name":"枫林新村居委会","code1":"310104","code2":"021","code3":"310104008022","code4":"111","continent":"亚洲","country":"中国","province":"上海","city":"市辖区","county":"徐汇区","town":"枫林路街道","village":"枫林新村居委会"    },
    {"level":"村","longitude":121.452787,"latitude":31.200035,"chinese_name":"平江居委会","code1":"310104","code2":"021","code3":"310104008023","code4":"111","continent":"亚洲","country":"中国","province":"上海","city":"市辖区","county":"徐汇区","town":"枫林路街道","village":"平江居委会"    },
    {"level":"村","longitude":121.444581,"latitude":31.179614,"chinese_name":"庄家宅居委会","code1":"310104","code2":"021","code3":"310104008024","code4":"111","continent":"亚洲","country":"中国","province":"上海","city":"市辖区","county":"徐汇区","town":"枫林路街道","village":"庄家宅居委会"    },
    {"level":"村","longitude":121.44077,"latitude":31.194349,"chinese_name":"宛南新村第一、二居委会","code1":"310104","code2":"021","code3":"310104008026","code4":"111","continent":"亚洲","country":"中国","province":"上海","city":"市辖区","county":"徐汇区","town":"枫林路街道","village":"宛南新村第一、二居委会"    },
    {"level":"村","longitude":121.451164,"latitude":31.181562,"chinese_name":"宛南三村居委会","code1":"310104","code2":"021","code3":"310104008027","code4":"111","continent":"亚洲","country":"中国","province":"上海","city":"市辖区","county":"徐汇区","town":"枫林路街道","village":"宛南三村居委会"    },
    {"level":"村","longitude":121.449659,"latitude":31.181448,"chinese_name":"宛南四村居委会","code1":"310104","code2":"021","code3":"310104008028","code4":"111","continent":"亚洲","country":"中国","province":"上海","city":"市辖区","county":"徐汇区","town":"枫林路街道","village":"宛南四村居委会"    },
    {"level":"村","longitude":121.451725,"latitude":31.185289,"chinese_name":"宛南五村居委会","code1":"310104","code2":"021","code3":"310104008029","code4":"111","continent":"亚洲","country":"中国","province":"上海","city":"市辖区","county":"徐汇区","town":"枫林路街道","village":"宛南五村居委会"    },
    {"level":"村","longitude":121.446404,"latitude":31.180252,"chinese_name":"宛南六村居委会","code1":"310104","code2":"021","code3":"310104008030","code4":"111","continent":"亚洲","country":"中国","province":"上海","city":"市辖区","county":"徐汇区","town":"枫林路街道","village":"宛南六村居委会"    },
    {"level":"村","longitude":121.446669,"latitude":31.18748,"chinese_name":"天钥新村第一、二居委会","code1":"310104","code2":"021","code3":"310104008032","code4":"111","continent":"亚洲","country":"中国","province":"上海","city":"市辖区","county":"徐汇区","town":"枫林路街道","village":"天钥新村第一、二居委会"    },
    {"level":"村","longitude":121.446669,"latitude":31.18748,"chinese_name":"天钥新村第三居委会","code1":"310104","code2":"021","code3":"310104008033","code4":"111","continent":"亚洲","country":"中国","province":"上海","city":"市辖区","county":"徐汇区","town":"枫林路街道","village":"天钥新村第三居委会"    },
    {"level":"村","longitude":121.446669,"latitude":31.18748,"chinese_name":"天钥新村第四居委会","code1":"310104","code2":"021","code3":"310104008034","code4":"111","continent":"亚洲","country":"中国","province":"上海","city":"市辖区","county":"徐汇区","town":"枫林路街道","village":"天钥新村第四居委会"    },
    {"level":"村","longitude":121.445813,"latitude":31.184286,"chinese_name":"龙山新村第一居委会","code1":"310104","code2":"021","code3":"310104008035","code4":"111","continent":"亚洲","country":"中国","province":"上海","city":"市辖区","county":"徐汇区","town":"枫林路街道","village":"龙山新村第一居委会"    },
    {"level":"村","longitude":121.445826,"latitude":31.184276,"chinese_name":"龙山新村第二居委会","code1":"310104","code2":"021","code3":"310104008036","code4":"111","continent":"亚洲","country":"中国","province":"上海","city":"市辖区","county":"徐汇区","town":"枫林路街道","village":"龙山新村第二居委会"    },
    {"level":"村","longitude":121.450249,"latitude":31.197689,"chinese_name":"张东居委会","code1":"310104","code2":"021","code3":"310104008037","code4":"111","continent":"亚洲","country":"中国","province":"上海","city":"市辖区","county":"徐汇区","town":"枫林路街道","village":"张东居委会"    },
    {"level":"村","longitude":121.451725,"latitude":31.185289,"chinese_name":"安康居委会","code1":"310104","code2":"021","code3":"310104008038","code4":"111","continent":"亚洲","country":"中国","province":"上海","city":"市辖区","county":"徐汇区","town":"枫林路街道","village":"安康居委会"    },
    {"level":"村","longitude":121.451755,"latitude":31.196085,"chinese_name":"四季园居委会","code1":"310104","code2":"021","code3":"310104008040","code4":"111","continent":"亚洲","country":"中国","province":"上海","city":"市辖区","county":"徐汇区","town":"枫林路街道","village":"四季园居委会"    },
    {"level":"村","longitude":121.451725,"latitude":31.185289,"chinese_name":"汇园居委会","code1":"310104","code2":"021","code3":"310104008041","code4":"111","continent":"亚洲","country":"中国","province":"上海","city":"市辖区","county":"徐汇区","town":"枫林路街道","village":"汇园居委会"    },
    {"level":"村","longitude":121.455101,"latitude":31.186954,"chinese_name":"东安二村居委会","code1":"310104","code2":"021","code3":"310104008042","code4":"111","continent":"亚洲","country":"中国","province":"上海","city":"市辖区","county":"徐汇区","town":"枫林路街道","village":"东安二村居委会"    },
    {"level":"村","longitude":121.444942,"latitude":31.178496,"chinese_name":"徐汇苑居委会","code1":"310104","code2":"021","code3":"310104008043","code4":"111","continent":"亚洲","country":"中国","province":"上海","city":"市辖区","county":"徐汇区","town":"枫林路街道","village":"徐汇苑居委会"    },
    {"level":"村","longitude":121.451725,"latitude":31.185289,"chinese_name":"东安苑居委会","code1":"310104","code2":"021","code3":"310104008044","code4":"111","continent":"亚洲","country":"中国","province":"上海","city":"市辖区","county":"徐汇区","town":"枫林路街道","village":"东安苑居委会"    },
    {"level":"村","longitude":121.440559,"latitude":31.137693,"chinese_name":"长桥新村第一居委会","code1":"310104","code2":"021","code3":"310104010001","code4":"111","continent":"亚洲","country":"中国","province":"上海","city":"市辖区","county":"徐汇区","town":"长桥街道","village":"长桥新村第一居委会"    },
    {"level":"村","longitude":121.436917,"latitude":31.131972,"chinese_name":"长桥新二村居委会","code1":"310104","code2":"021","code3":"310104010002","code4":"111","continent":"亚洲","country":"中国","province":"上海","city":"市辖区","county":"徐汇区","town":"长桥街道","village":"长桥新二村居委会"    },
    {"level":"村","longitude":121.45159,"latitude":31.143409,"chinese_name":"港口居委会","code1":"310104","code2":"021","code3":"310104010003","code4":"111","continent":"亚洲","country":"中国","province":"上海","city":"市辖区","county":"徐汇区","town":"长桥街道","village":"港口居委会"    },
    {"level":"村","longitude":121.436917,"latitude":31.131972,"chinese_name":"长桥一村居委会","code1":"310104","code2":"021","code3":"310104010004","code4":"111","continent":"亚洲","country":"中国","province":"上海","city":"市辖区","county":"徐汇区","town":"长桥街道","village":"长桥一村居委会"    },
    {"level":"村","longitude":121.441774,"latitude":31.134567,"chinese_name":"长桥三村第一居委会","code1":"310104","code2":"021","code3":"310104010007","code4":"111","continent":"亚洲","country":"中国","province":"上海","city":"市辖区","county":"徐汇区","town":"长桥街道","village":"长桥三村第一居委会"    },
    {"level":"村","longitude":121.441774,"latitude":31.134567,"chinese_name":"长桥三村第二居委会","code1":"310104","code2":"021","code3":"310104010008","code4":"111","continent":"亚洲","country":"中国","province":"上海","city":"市辖区","county":"徐汇区","town":"长桥街道","village":"长桥三村第二居委会"    },
    {"level":"村","longitude":121.433464,"latitude":31.135764,"chinese_name":"长桥五村居委会","code1":"310104","code2":"021","code3":"310104010011","code4":"111","continent":"亚洲","country":"中国","province":"上海","city":"市辖区","county":"徐汇区","town":"长桥街道","village":"长桥五村居委会"    },
    {"level":"村","longitude":121.436161,"latitude":31.133056,"chinese_name":"长桥七村居委会","code1":"310104","code2":"021","code3":"310104010012","code4":"111","continent":"亚洲","country":"中国","province":"上海","city":"市辖区","county":"徐汇区","town":"长桥街道","village":"长桥七村居委会"    },
    {"level":"村","longitude":121.436917,"latitude":31.131972,"chinese_name":"汇成一村居委会","code1":"310104","code2":"021","code3":"310104010013","code4":"111","continent":"亚洲","country":"中国","province":"上海","city":"市辖区","county":"徐汇区","town":"长桥街道","village":"汇成一村居委会"    },
    {"level":"村","longitude":121.435661,"latitude":31.146441,"chinese_name":"汇成二村居委会","code1":"310104","code2":"021","code3":"310104010014","code4":"111","continent":"亚洲","country":"中国","province":"上海","city":"市辖区","county":"徐汇区","town":"长桥街道","village":"汇成二村居委会"    },
    {"level":"村","longitude":121.43382,"latitude":31.14367,"chinese_name":"汇成三村居委会","code1":"310104","code2":"021","code3":"310104010015","code4":"111","continent":"亚洲","country":"中国","province":"上海","city":"市辖区","county":"徐汇区","town":"长桥街道","village":"汇成三村居委会"    },
    {"level":"村","longitude":121.436642,"latitude":31.142959,"chinese_name":"汇成四村居委会","code1":"310104","code2":"021","code3":"310104010016","code4":"111","continent":"亚洲","country":"中国","province":"上海","city":"市辖区","county":"徐汇区","town":"长桥街道","village":"汇成四村居委会"    },
    {"level":"村","longitude":121.436917,"latitude":31.131972,"chinese_name":"汇成五村居委会","code1":"310104","code2":"021","code3":"310104010017","code4":"111","continent":"亚洲","country":"中国","province":"上海","city":"市辖区","county":"徐汇区","town":"长桥街道","village":"汇成五村居委会"    },
    {"level":"村","longitude":121.436917,"latitude":31.131972,"chinese_name":"园南二村居委会","code1":"310104","code2":"021","code3":"310104010018","code4":"111","continent":"亚洲","country":"中国","province":"上海","city":"市辖区","county":"徐汇区","town":"长桥街道","village":"园南二村居委会"    },
    {"level":"村","longitude":121.444234,"latitude":31.141917,"chinese_name":"园南三村居委会","code1":"310104","code2":"021","code3":"310104010019","code4":"111","continent":"亚洲","country":"中国","province":"上海","city":"市辖区","county":"徐汇区","town":"长桥街道","village":"园南三村居委会"    },
    {"level":"村","longitude":121.43143,"latitude":31.139611,"chinese_name":"光华居委会","code1":"310104","code2":"021","code3":"310104010022","code4":"111","continent":"亚洲","country":"中国","province":"上海","city":"市辖区","county":"徐汇区","town":"长桥街道","village":"光华居委会"    },
    {"level":"村","longitude":121.450286,"latitude":31.144824,"chinese_name":"百龙居委会","code1":"310104","code2":"021","code3":"310104010023","code4":"111","continent":"亚洲","country":"中国","province":"上海","city":"市辖区","county":"徐汇区","town":"长桥街道","village":"百龙居委会"    },
    {"level":"村","longitude":121.436917,"latitude":31.131972,"chinese_name":"园南一村居委会","code1":"310104","code2":"021","code3":"310104010025","code4":"111","continent":"亚洲","country":"中国","province":"上海","city":"市辖区","county":"徐汇区","town":"长桥街道","village":"园南一村居委会"    },
    {"level":"村","longitude":121.4466,"latitude":31.134198,"chinese_name":"罗秀三村居委会","code1":"310104","code2":"021","code3":"310104010027","code4":"111","continent":"亚洲","country":"中国","province":"上海","city":"市辖区","county":"徐汇区","town":"长桥街道","village":"罗秀三村居委会"    },
    {"level":"村","longitude":121.431589,"latitude":31.144902,"chinese_name":"楼园居委会","code1":"310104","code2":"021","code3":"310104010028","code4":"111","continent":"亚洲","country":"中国","province":"上海","city":"市辖区","county":"徐汇区","town":"长桥街道","village":"楼园居委会"    },
    {"level":"村","longitude":121.436917,"latitude":31.131972,"chinese_name":"长桥八村居委会","code1":"310104","code2":"021","code3":"310104010031","code4":"111","continent":"亚洲","country":"中国","province":"上海","city":"市辖区","county":"徐汇区","town":"长桥街道","village":"长桥八村居委会"    },
    {"level":"村","longitude":121.436917,"latitude":31.131972,"chinese_name":"平福居委会","code1":"310104","code2":"021","code3":"310104010032","code4":"111","continent":"亚洲","country":"中国","province":"上海","city":"市辖区","county":"徐汇区","town":"长桥街道","village":"平福居委会"    },
    {"level":"村","longitude":121.430095,"latitude":31.143506,"chinese_name":"体育花苑居委会","code1":"310104","code2":"021","code3":"310104010033","code4":"111","continent":"亚洲","country":"中国","province":"上海","city":"市辖区","county":"徐汇区","town":"长桥街道","village":"体育花苑居委会"    },
    {"level":"村","longitude":121.435416,"latitude":31.14844,"chinese_name":"华东花苑第一居委会","code1":"310104","code2":"021","code3":"310104010034","code4":"111","continent":"亚洲","country":"中国","province":"上海","city":"市辖区","county":"徐汇区","town":"长桥街道","village":"华东花苑第一居委会"    },
    {"level":"村","longitude":121.435416,"latitude":31.14844,"chinese_name":"华东花苑第二居委会","code1":"310104","code2":"021","code3":"310104010035","code4":"111","continent":"亚洲","country":"中国","province":"上海","city":"市辖区","county":"徐汇区","town":"长桥街道","village":"华东花苑第二居委会"    },
    {"level":"村","longitude":121.430133,"latitude":31.147075,"chinese_name":"汇澜园居委会","code1":"310104","code2":"021","code3":"310104010036","code4":"111","continent":"亚洲","country":"中国","province":"上海","city":"市辖区","county":"徐汇区","town":"长桥街道","village":"汇澜园居委会"    },
    {"level":"村","longitude":121.451573,"latitude":31.131594,"chinese_name":"徐汇新城居委会","code1":"310104","code2":"021","code3":"310104010037","code4":"111","continent":"亚洲","country":"中国","province":"上海","city":"市辖区","county":"徐汇区","town":"长桥街道","village":"徐汇新城居委会"    },
    {"level":"村","longitude":121.453514,"latitude":31.136811,"chinese_name":"中海瀛台居委会","code1":"310104","code2":"021","code3":"310104010038","code4":"111","continent":"亚洲","country":"中国","province":"上海","city":"市辖区","county":"徐汇区","town":"长桥街道","village":"中海瀛台居委会"    },
    {"level":"村","longitude":121.449766,"latitude":31.139906,"chinese_name":"华滨居委会","code1":"310104","code2":"021","code3":"310104010039","code4":"111","continent":"亚洲","country":"中国","province":"上海","city":"市辖区","county":"徐汇区","town":"长桥街道","village":"华滨居委会"    },
    {"level":"村","longitude":121.450216,"latitude":31.137918,"chinese_name":"华沁居委会","code1":"310104","code2":"021","code3":"310104010040","code4":"111","continent":"亚洲","country":"中国","province":"上海","city":"市辖区","county":"徐汇区","town":"长桥街道","village":"华沁居委会"    },
    {"level":"村","longitude":121.438957,"latitude":31.133993,"chinese_name":"长桥四村居委会","code1":"310104","code2":"021","code3":"310104010041","code4":"111","continent":"亚洲","country":"中国","province":"上海","city":"市辖区","county":"徐汇区","town":"长桥街道","village":"长桥四村居委会"    },
    {"level":"村","longitude":121.436917,"latitude":31.131972,"chinese_name":"罗秀居委会","code1":"310104","code2":"021","code3":"310104010042","code4":"111","continent":"亚洲","country":"中国","province":"上海","city":"市辖区","county":"徐汇区","town":"长桥街道","village":"罗秀居委会"    },
    {"level":"村","longitude":121.437866,"latitude":31.19919,"chinese_name":"田林一、二村居委会","code1":"310104","code2":"021","code3":"310104011002","code4":"111","continent":"亚洲","country":"中国","province":"上海","city":"市辖区","county":"徐汇区","town":"田林街道","village":"田林一、二村居委会"    },
    {"level":"村","longitude":121.422265,"latitude":31.170429,"chinese_name":"田林三、四村居委会","code1":"310104","code2":"021","code3":"310104011004","code4":"111","continent":"亚洲","country":"中国","province":"上海","city":"市辖区","county":"徐汇区","town":"田林街道","village":"田林三、四村居委会"    },
    {"level":"村","longitude":121.428702,"latitude":31.172219,"chinese_name":"田林十二村居委会","code1":"310104","code2":"021","code3":"310104011013","code4":"111","continent":"亚洲","country":"中国","province":"上海","city":"市辖区","county":"徐汇区","town":"田林街道","village":"田林十二村居委会"    },
    {"level":"村","longitude":121.417032,"latitude":31.190583,"chinese_name":"锦馨苑居委会","code1":"310104","code2":"021","code3":"310104011016","code4":"111","continent":"亚洲","country":"中国","province":"上海","city":"市辖区","county":"徐汇区","town":"田林街道","village":"锦馨苑居委会"    },
    {"level":"村","longitude":121.426,"latitude":31.173625,"chinese_name":"新苑第一、二居委会","code1":"310104","code2":"021","code3":"310104011023","code4":"111","continent":"亚洲","country":"中国","province":"上海","city":"市辖区","county":"徐汇区","town":"田林街道","village":"新苑第一、二居委会"    },
    {"level":"村","longitude":121.437866,"latitude":31.19919,"chinese_name":"新苑第三、四居委会","code1":"310104","code2":"021","code3":"310104011024","code4":"111","continent":"亚洲","country":"中国","province":"上海","city":"市辖区","county":"徐汇区","town":"田林街道","village":"新苑第三、四居委会"    },
    {"level":"村","longitude":121.424694,"latitude":31.1733,"chinese_name":"田林十三村居委会","code1":"310104","code2":"021","code3":"310104011028","code4":"111","continent":"亚洲","country":"中国","province":"上海","city":"市辖区","county":"徐汇区","town":"田林街道","village":"田林十三村居委会"    },
    {"level":"村","longitude":121.437866,"latitude":31.19919,"chinese_name":"千鹤第三居委会","code1":"310104","code2":"021","code3":"310104011031","code4":"111","continent":"亚洲","country":"中国","province":"上海","city":"市辖区","county":"徐汇区","town":"田林街道","village":"千鹤第三居委会"    },
    {"level":"村","longitude":121.437866,"latitude":31.19919,"chinese_name":"千鹤第五居委会","code1":"310104","code2":"021","code3":"310104011033","code4":"111","continent":"亚洲","country":"中国","province":"上海","city":"市辖区","county":"徐汇区","town":"田林街道","village":"千鹤第五居委会"    },
    {"level":"村","longitude":121.428848,"latitude":31.169049,"chinese_name":"万科华尔兹居委会","code1":"310104","code2":"021","code3":"310104011035","code4":"111","continent":"亚洲","country":"中国","province":"上海","city":"市辖区","county":"徐汇区","town":"田林街道","village":"万科华尔兹居委会"    },
    {"level":"村","longitude":121.421938,"latitude":31.190747,"chinese_name":"古宜居委会","code1":"310104","code2":"021","code3":"310104011037","code4":"111","continent":"亚洲","country":"中国","province":"上海","city":"市辖区","county":"徐汇区","town":"田林街道","village":"古宜居委会"    },
    {"level":"村","longitude":121.426134,"latitude":31.171083,"chinese_name":"田林十一村居委会","code1":"310104","code2":"021","code3":"310104011038","code4":"111","continent":"亚洲","country":"中国","province":"上海","city":"市辖区","county":"徐汇区","town":"田林街道","village":"田林十一村居委会"    },
    {"level":"村","longitude":121.432607,"latitude":31.180011,"chinese_name":"华鼎居委会","code1":"310104","code2":"021","code3":"310104011039","code4":"111","continent":"亚洲","country":"中国","province":"上海","city":"市辖区","county":"徐汇区","town":"田林街道","village":"华鼎居委会"    },
    {"level":"村","longitude":121.420473,"latitude":31.17302,"chinese_name":"田林五、六、七村居委会","code1":"310104","code2":"021","code3":"310104011041","code4":"111","continent":"亚洲","country":"中国","province":"上海","city":"市辖区","county":"徐汇区","town":"田林街道","village":"田林五、六、七村居委会"    },
    {"level":"村","longitude":121.437866,"latitude":31.19919,"chinese_name":"田林八、九、十村居委会","code1":"310104","code2":"021","code3":"310104011042","code4":"111","continent":"亚洲","country":"中国","province":"上海","city":"市辖区","county":"徐汇区","town":"田林街道","village":"田林八、九、十村居委会"    },
    {"level":"村","longitude":121.437866,"latitude":31.19919,"chinese_name":"新苑第五、六、七居委会","code1":"310104","code2":"021","code3":"310104011043","code4":"111","continent":"亚洲","country":"中国","province":"上海","city":"市辖区","county":"徐汇区","town":"田林街道","village":"新苑第五、六、七居委会"    },
    {"level":"村","longitude":121.424057,"latitude":31.174607,"chinese_name":"田林十四村居委会","code1":"310104","code2":"021","code3":"310104011044","code4":"111","continent":"亚洲","country":"中国","province":"上海","city":"市辖区","county":"徐汇区","town":"田林街道","village":"田林十四村居委会"    },
    {"level":"村","longitude":121.425193,"latitude":31.182604,"chinese_name":"长春居委会","code1":"310104","code2":"021","code3":"310104011045","code4":"111","continent":"亚洲","country":"中国","province":"上海","city":"市辖区","county":"徐汇区","town":"田林街道","village":"长春居委会"    },
    {"level":"村","longitude":121.433265,"latitude":31.175037,"chinese_name":"爱建园居委会","code1":"310104","code2":"021","code3":"310104011046","code4":"111","continent":"亚洲","country":"中国","province":"上海","city":"市辖区","county":"徐汇区","town":"田林街道","village":"爱建园居委会"    },
    {"level":"村","longitude":121.423136,"latitude":31.18525,"chinese_name":"小安桥居委会","code1":"310104","code2":"021","code3":"310104011047","code4":"111","continent":"亚洲","country":"中国","province":"上海","city":"市辖区","county":"徐汇区","town":"田林街道","village":"小安桥居委会"    },
    {"level":"村","longitude":121.437866,"latitude":31.19919,"chinese_name":"千鹤二四居委会","code1":"310104","code2":"021","code3":"310104011048","code4":"111","continent":"亚洲","country":"中国","province":"上海","city":"市辖区","county":"徐汇区","town":"田林街道","village":"千鹤二四居委会"    },
    {"level":"村","longitude":121.437866,"latitude":31.19919,"chinese_name":"千鹤六居委会","code1":"310104","code2":"021","code3":"310104011049","code4":"111","continent":"亚洲","country":"中国","province":"上海","city":"市辖区","county":"徐汇区","town":"田林街道","village":"千鹤六居委会"    },
    {"level":"村","longitude":121.411222,"latitude":31.164411,"chinese_name":"东兰路居委会","code1":"310104","code2":"021","code3":"310104012001","code4":"111","continent":"亚洲","country":"中国","province":"上海","city":"市辖区","county":"徐汇区","town":"虹梅路街道","village":"东兰路居委会"    },
    {"level":"村","longitude":121.40078,"latitude":31.14522,"chinese_name":"古美路第一居委会","code1":"310112","code2":"021","code3":"310104012002","code4":"111","continent":"亚洲","country":"中国","province":"上海","city":"市辖区","county":"徐汇区","town":"虹梅路街道","village":"古美路第一居委会"    },
    {"level":"村","longitude":121.414394,"latitude":31.135327,"chinese_name":"古美路第二居委会","code1":"310112","code2":"021","code3":"310104012003","code4":"111","continent":"亚洲","country":"中国","province":"上海","city":"市辖区","county":"徐汇区","town":"虹梅路街道","village":"古美路第二居委会"    },
    {"level":"村","longitude":121.395485,"latitude":31.174905,"chinese_name":"钦北居委会","code1":"310104","code2":"021","code3":"310104012006","code4":"111","continent":"亚洲","country":"中国","province":"上海","city":"市辖区","county":"徐汇区","town":"虹梅路街道","village":"钦北居委会"    },
    {"level":"村","longitude":121.40008,"latitude":31.158103,"chinese_name":"古美路第三居委会","code1":"310112","code2":"021","code3":"310104012007","code4":"111","continent":"亚洲","country":"中国","province":"上海","city":"市辖区","county":"徐汇区","town":"虹梅路街道","village":"古美路第三居委会"    },
    {"level":"村","longitude":121.40008,"latitude":31.158103,"chinese_name":"古美路第四居委会","code1":"310112","code2":"021","code3":"310104012008","code4":"111","continent":"亚洲","country":"中国","province":"上海","city":"市辖区","county":"徐汇区","town":"虹梅路街道","village":"古美路第四居委会"    },
    {"level":"村","longitude":121.413319,"latitude":31.180569,"chinese_name":"桂林苑居委会","code1":"310104","code2":"021","code3":"310104012009","code4":"111","continent":"亚洲","country":"中国","province":"上海","city":"市辖区","county":"徐汇区","town":"虹梅路街道","village":"桂林苑居委会"    },
    {"level":"村","longitude":121.409913,"latitude":31.180851,"chinese_name":"虹南居委会","code1":"310104","code2":"021","code3":"310104012010","code4":"111","continent":"亚洲","country":"中国","province":"上海","city":"市辖区","county":"徐汇区","town":"虹梅路街道","village":"虹南居委会"    },
    {"level":"村","longitude":121.411788,"latitude":31.178115,"chinese_name":"虹星居委会","code1":"310104","code2":"021","code3":"310104012011","code4":"111","continent":"亚洲","country":"中国","province":"上海","city":"市辖区","county":"徐汇区","town":"虹梅路街道","village":"虹星居委会"    },
    {"level":"村","longitude":121.411222,"latitude":31.164411,"chinese_name":"航天新苑居委会","code1":"310104","code2":"021","code3":"310104012012","code4":"111","continent":"亚洲","country":"中国","province":"上海","city":"市辖区","county":"徐汇区","town":"虹梅路街道","village":"航天新苑居委会"    },
    {"level":"村","longitude":121.411222,"latitude":31.164411,"chinese_name":"怡桂苑居委会","code1":"310104","code2":"021","code3":"310104012013","code4":"111","continent":"亚洲","country":"中国","province":"上海","city":"市辖区","county":"徐汇区","town":"虹梅路街道","village":"怡桂苑居委会"    },
    {"level":"村","longitude":121.411222,"latitude":31.164411,"chinese_name":"永兆居委会","code1":"310104","code2":"021","code3":"310104012016","code4":"111","continent":"亚洲","country":"中国","province":"上海","city":"市辖区","county":"徐汇区","town":"虹梅路街道","village":"永兆居委会"    },
    {"level":"村","longitude":121.411222,"latitude":31.164411,"chinese_name":"华悦家园居委会","code1":"310104","code2":"021","code3":"310104012017","code4":"111","continent":"亚洲","country":"中国","province":"上海","city":"市辖区","county":"徐汇区","town":"虹梅路街道","village":"华悦家园居委会"    },
    {"level":"村","longitude":121.422967,"latitude":31.155922,"chinese_name":"寿昌山居委会","code1":"310104","code2":"021","code3":"310104013002","code4":"111","continent":"亚洲","country":"中国","province":"上海","city":"市辖区","county":"徐汇区","town":"康健新村街道","village":"寿昌山居委会"    },
    {"level":"村","longitude":121.422967,"latitude":31.155922,"chinese_name":"长虹坊居委会","code1":"310104","code2":"021","code3":"310104013004","code4":"111","continent":"亚洲","country":"中国","province":"上海","city":"市辖区","county":"徐汇区","town":"康健新村街道","village":"长虹坊居委会"    },
    {"level":"村","longitude":121.41402,"latitude":31.153042,"chinese_name":"紫鹃园居委会","code1":"310104","code2":"021","code3":"310104013006","code4":"111","continent":"亚洲","country":"中国","province":"上海","city":"市辖区","county":"徐汇区","town":"康健新村街道","village":"紫鹃园居委会"    },
    {"level":"村","longitude":121.422967,"latitude":31.155922,"chinese_name":"玉兰园居委会","code1":"310104","code2":"021","code3":"310104013008","code4":"111","continent":"亚洲","country":"中国","province":"上海","city":"市辖区","county":"徐汇区","town":"康健新村街道","village":"玉兰园居委会"    },
    {"level":"村","longitude":121.423949,"latitude":31.158477,"chinese_name":"康乐小区居委会","code1":"310104","code2":"021","code3":"310104013009","code4":"111","continent":"亚洲","country":"中国","province":"上海","city":"市辖区","county":"徐汇区","town":"康健新村街道","village":"康乐小区居委会"    },
    {"level":"村","longitude":121.41761,"latitude":31.154507,"chinese_name":"长青坊居委会","code1":"310104","code2":"021","code3":"310104013011","code4":"111","continent":"亚洲","country":"中国","province":"上海","city":"市辖区","county":"徐汇区","town":"康健新村街道","village":"长青坊居委会"    },
    {"level":"村","longitude":121.412362,"latitude":31.146629,"chinese_name":"樱花园居委会","code1":"310104","code2":"021","code3":"310104013015","code4":"111","continent":"亚洲","country":"中国","province":"上海","city":"市辖区","county":"徐汇区","town":"康健新村街道","village":"樱花园居委会"    },
    {"level":"村","longitude":121.427093,"latitude":31.158118,"chinese_name":"康宁强居委会","code1":"310104","code2":"021","code3":"310104013018","code4":"111","continent":"亚洲","country":"中国","province":"上海","city":"市辖区","county":"徐汇区","town":"康健新村街道","village":"康宁强居委会"    },
    {"level":"村","longitude":121.422967,"latitude":31.155922,"chinese_name":"寿祥坊居委会","code1":"310104","code2":"021","code3":"310104013019","code4":"111","continent":"亚洲","country":"中国","province":"上海","city":"市辖区","county":"徐汇区","town":"康健新村街道","village":"寿祥坊居委会"    },
    {"level":"村","longitude":121.410758,"latitude":31.151735,"chinese_name":"紫薇园居委会","code1":"310104","code2":"021","code3":"310104013020","code4":"111","continent":"亚洲","country":"中国","province":"上海","city":"市辖区","county":"徐汇区","town":"康健新村街道","village":"紫薇园居委会"    },
    {"level":"村","longitude":121.422967,"latitude":31.155922,"chinese_name":"茶花桂花居委会","code1":"310104","code2":"021","code3":"310104013021","code4":"111","continent":"亚洲","country":"中国","province":"上海","city":"市辖区","county":"徐汇区","town":"康健新村街道","village":"茶花桂花居委会"    },
    {"level":"村","longitude":121.419001,"latitude":31.157167,"chinese_name":"长顺海居委会","code1":"310104","code2":"021","code3":"310104013022","code4":"111","continent":"亚洲","country":"中国","province":"上海","city":"市辖区","county":"徐汇区","town":"康健新村街道","village":"长顺海居委会"    },
    {"level":"村","longitude":121.417088,"latitude":31.151388,"chinese_name":"寿益坊居委会","code1":"310104","code2":"021","code3":"310104013023","code4":"111","continent":"亚洲","country":"中国","province":"上海","city":"市辖区","county":"徐汇区","town":"康健新村街道","village":"寿益坊居委会"    },
    {"level":"村","longitude":121.410849,"latitude":31.149357,"chinese_name":"月季百藤居委会","code1":"310104","code2":"021","code3":"310104013026","code4":"111","continent":"亚洲","country":"中国","province":"上海","city":"市辖区","county":"徐汇区","town":"康健新村街道","village":"月季百藤居委会"    },
    {"level":"村","longitude":121.422967,"latitude":31.155922,"chinese_name":"丁香迎春居委会","code1":"310104","code2":"021","code3":"310104013027","code4":"111","continent":"亚洲","country":"中国","province":"上海","city":"市辖区","county":"徐汇区","town":"康健新村街道","village":"丁香迎春居委会"    },
    {"level":"村","longitude":121.418927,"latitude":31.159765,"chinese_name":"师大新村居委会","code1":"310104","code2":"021","code3":"310104013028","code4":"111","continent":"亚洲","country":"中国","province":"上海","city":"市辖区","county":"徐汇区","town":"康健新村街道","village":"师大新村居委会"    },
    {"level":"村","longitude":121.414394,"latitude":31.135327,"chinese_name":"桂林路第二居委会","code1":"310112","code2":"021","code3":"310104013029","code4":"111","continent":"亚洲","country":"中国","province":"上海","city":"市辖区","county":"徐汇区","town":"康健新村街道","village":"桂林路第二居委会"    },
    {"level":"村","longitude":121.419563,"latitude":31.164913,"chinese_name":"桂康居委会","code1":"310104","code2":"021","code3":"310104013032","code4":"111","continent":"亚洲","country":"中国","province":"上海","city":"市辖区","county":"徐汇区","town":"康健新村街道","village":"桂康居委会"    },
    {"level":"村","longitude":121.40749,"latitude":31.15759,"chinese_name":"欣园居委会","code1":"310104","code2":"021","code3":"310104013033","code4":"111","continent":"亚洲","country":"中国","province":"上海","city":"市辖区","county":"徐汇区","town":"康健新村街道","village":"欣园居委会"    },
    {"level":"村","longitude":121.40784,"latitude":31.159347,"chinese_name":"联莘居委会","code1":"310104","code2":"021","code3":"310104013034","code4":"111","continent":"亚洲","country":"中国","province":"上海","city":"市辖区","county":"徐汇区","town":"康健新村街道","village":"联莘居委会"    },
    {"level":"村","longitude":121.413574,"latitude":31.16242,"chinese_name":"金桂苑居委会","code1":"310104","code2":"021","code3":"310104013035","code4":"111","continent":"亚洲","country":"中国","province":"上海","city":"市辖区","county":"徐汇区","town":"康健新村街道","village":"金桂苑居委会"    },
    {"level":"村","longitude":121.416715,"latitude":31.154118,"chinese_name":"长丰坊居委会","code1":"310104","code2":"021","code3":"310104013037","code4":"111","continent":"亚洲","country":"中国","province":"上海","city":"市辖区","county":"徐汇区","town":"康健新村街道","village":"长丰坊居委会"    },
    {"level":"村","longitude":121.422967,"latitude":31.155922,"chinese_name":"长兴坊居委会","code1":"310104","code2":"021","code3":"310104013038","code4":"111","continent":"亚洲","country":"中国","province":"上海","city":"市辖区","county":"徐汇区","town":"康健新村街道","village":"长兴坊居委会"    },
    {"level":"村","longitude":121.422967,"latitude":31.155922,"chinese_name":"紫荆党校居委会","code1":"310104","code2":"021","code3":"310104013039","code4":"111","continent":"亚洲","country":"中国","province":"上海","city":"市辖区","county":"徐汇区","town":"康健新村街道","village":"紫荆党校居委会"    },
    {"level":"村","longitude":121.445796,"latitude":31.191316,"chinese_name":"东塘居委会","code1":"310104","code2":"021","code3":"310104014001","code4":"111","continent":"亚洲","country":"中国","province":"上海","city":"市辖区","county":"徐汇区","town":"徐家汇街道","village":"东塘居委会"    },
    {"level":"村","longitude":121.42716,"latitude":31.198155,"chinese_name":"番禺居委会","code1":"310104","code2":"021","code3":"310104014002","code4":"111","continent":"亚洲","country":"中国","province":"上海","city":"市辖区","county":"徐汇区","town":"徐家汇街道","village":"番禺居委会"    },
    {"level":"村","longitude":121.427486,"latitude":31.187767,"chinese_name":"柿子湾居委会","code1":"310104","code2":"021","code3":"310104014003","code4":"111","continent":"亚洲","country":"中国","province":"上海","city":"市辖区","county":"徐汇区","town":"徐家汇街道","village":"柿子湾居委会"    },
    {"level":"村","longitude":121.445796,"latitude":31.191316,"chinese_name":"南丹居委会","code1":"310104","code2":"021","code3":"310104014004","code4":"111","continent":"亚洲","country":"中国","province":"上海","city":"市辖区","county":"徐汇区","town":"徐家汇街道","village":"南丹居委会"    },
    {"level":"村","longitude":121.433444,"latitude":31.196172,"chinese_name":"虹交居委会","code1":"310104","code2":"021","code3":"310104014006","code4":"111","continent":"亚洲","country":"中国","province":"上海","city":"市辖区","county":"徐汇区","town":"徐家汇街道","village":"虹交居委会"    },
    {"level":"村","longitude":121.424356,"latitude":31.192537,"chinese_name":"西塘居委会","code1":"310104","code2":"021","code3":"310104014007","code4":"111","continent":"亚洲","country":"中国","province":"上海","city":"市辖区","county":"徐汇区","town":"徐家汇街道","village":"西塘居委会"    },
    {"level":"村","longitude":121.42981,"latitude":31.198278,"chinese_name":"乐山一村居委会","code1":"310104","code2":"021","code3":"310104014008","code4":"111","continent":"亚洲","country":"中国","province":"上海","city":"市辖区","county":"徐汇区","town":"徐家汇街道","village":"乐山一村居委会"    },
    {"level":"村","longitude":121.43133,"latitude":31.196746,"chinese_name":"乐山二、三村居委会","code1":"310104","code2":"021","code3":"310104014009","code4":"111","continent":"亚洲","country":"中国","province":"上海","city":"市辖区","county":"徐汇区","town":"徐家汇街道","village":"乐山二、三村居委会"    },
    {"level":"村","longitude":121.432289,"latitude":31.196931,"chinese_name":"乐山四、五村居委会","code1":"310104","code2":"021","code3":"310104014010","code4":"111","continent":"亚洲","country":"中国","province":"上海","city":"市辖区","county":"徐汇区","town":"徐家汇街道","village":"乐山四、五村居委会"    },
    {"level":"村","longitude":121.445796,"latitude":31.191316,"chinese_name":"乐山六、七村居委会","code1":"310104","code2":"021","code3":"310104014011","code4":"111","continent":"亚洲","country":"中国","province":"上海","city":"市辖区","county":"徐汇区","town":"徐家汇街道","village":"乐山六、七村居委会"    },
    {"level":"村","longitude":121.43049,"latitude":31.194787,"chinese_name":"乐山八、九村居委会","code1":"310104","code2":"021","code3":"310104014012","code4":"111","continent":"亚洲","country":"中国","province":"上海","city":"市辖区","county":"徐汇区","town":"徐家汇街道","village":"乐山八、九村居委会"    },
    {"level":"村","longitude":121.445796,"latitude":31.191316,"chinese_name":"虹二居委会","code1":"310104","code2":"021","code3":"310104014013","code4":"111","continent":"亚洲","country":"中国","province":"上海","city":"市辖区","county":"徐汇区","town":"徐家汇街道","village":"虹二居委会"    },
    {"level":"村","longitude":121.445796,"latitude":31.191316,"chinese_name":"交大新村居委会","code1":"310104","code2":"021","code3":"310104014015","code4":"111","continent":"亚洲","country":"中国","province":"上海","city":"市辖区","county":"徐汇区","town":"徐家汇街道","village":"交大新村居委会"    },
    {"level":"村","longitude":121.445796,"latitude":31.191316,"chinese_name":"潘家宅居委会","code1":"310104","code2":"021","code3":"310104014016","code4":"111","continent":"亚洲","country":"中国","province":"上海","city":"市辖区","county":"徐汇区","town":"徐家汇街道","village":"潘家宅居委会"    },
    {"level":"村","longitude":121.445796,"latitude":31.191316,"chinese_name":"汇站居委会","code1":"310104","code2":"021","code3":"310104014017","code4":"111","continent":"亚洲","country":"中国","province":"上海","city":"市辖区","county":"徐汇区","town":"徐家汇街道","village":"汇站居委会"    },
    {"level":"村","longitude":121.432564,"latitude":31.188986,"chinese_name":"文定居委会","code1":"310104","code2":"021","code3":"310104014018","code4":"111","continent":"亚洲","country":"中国","province":"上海","city":"市辖区","county":"徐汇区","town":"徐家汇街道","village":"文定居委会"    },
    {"level":"村","longitude":121.433499,"latitude":31.183534,"chinese_name":"陈家宅居委会","code1":"310104","code2":"021","code3":"310104014020","code4":"111","continent":"亚洲","country":"中国","province":"上海","city":"市辖区","county":"徐汇区","town":"徐家汇街道","village":"陈家宅居委会"    },
    {"level":"村","longitude":121.445796,"latitude":31.191316,"chinese_name":"沈马居委会","code1":"310104","code2":"021","code3":"310104014021","code4":"111","continent":"亚洲","country":"中国","province":"上海","city":"市辖区","county":"徐汇区","town":"徐家汇街道","village":"沈马居委会"    },