gcid,levelid,longitude,latitude,chinese_name,english_name,code1,code2,code3,code4,code5,alias1,alias2,alias3,alias4,alias5,area,population,continentid,countryid,provinceid,cityid,countyid,townid,villageid,buildingid,comments
676044,8,102.701281,25.04414,翠湖西路社区,,530102,0871,530102001001,111,,,,,,,,,2,100,1024,1468,4421,46034,676044,,
676045,8,102.708442,25.048579,水晶宫社区,,530102,0871,530102001002,111,,,,,,,,,2,100,1024,1468,4421,46034,676045,,
676046,8,102.711535,25.045,五华山社区,,530102,0871,530102001003,111,,,,,,,,,2,100,1024,1468,4421,46034,676046,,
676047,8,102.699006,25.052865,文化巷社区,,530102,0871,530102001004,111,,,,,,,,,2,100,1024,1468,4421,46034,676047,,
676048,8,102.701356,25.050861,翠湖北路社区,,530102,0871,530102001005,111,,,,,,,,,2,100,1024,1468,4421,46034,676048,,
676049,8,102.708041,25.052617,北门社区,,530102,0871,530102001006,111,,,,,,,,,2,100,1024,1468,4421,46034,676049,,
676050,8,102.70715,25.04663,翠湖社区,,530102,0871,530102001007,111,,,,,,,,,2,100,1024,1468,4421,46034,676050,,
676051,8,102.676393,25.050557,圆通西路社区,,530102,0871,530102001008,111,,,,,,,,,2,100,1024,1468,4421,46034,676051,,
676052,8,102.701292,25.043924,云南大学社区,,530102,0871,530102001009,111,,,,,,,,,2,100,1024,1468,4421,46034,676052,,
676053,8,102.710927,25.057237,圆通社区,,530102,0871,530102001010,111,,,,,,,,,2,100,1024,1468,4421,46034,676053,,
676054,8,102.694056,25.056257,云南师范大学社区,,530102,0871,530102001011,111,,,,,,,,,2,100,1024,1468,4421,46034,676054,,
676055,8,102.701292,25.043924,云南民族大学社区,,530102,0871,530102001012,111,,,,,,,,,2,100,1024,1468,4421,46034,676055,,
676056,8,102.71209,25.03976,威远街社区,,530102,0871,530102002001,111,,,,,,,,,2,100,1024,1468,4421,46035,676056,,
676057,8,102.711418,25.036319,南屏街社区,,530102,0871,530102002002,111,,,,,,,,,2,100,1024,1468,4421,46035,676057,,
676058,8,102.71248,25.03649,祥云街社区,,530102,0871,530102002003,111,,,,,,,,,2,100,1024,1468,4421,46035,676058,,
676059,8,102.71647,25.03948,青年路社区,,530102,0871,530102002004,111,,,,,,,,,2,100,1024,1468,4421,46035,676059,,
676060,8,102.707623,25.039667,景星街社区,,530102,0871,530102002005,111,,,,,,,,,2,100,1024,1468,4421,46035,676060,,
676061,8,102.715666,25.044951,金牛街社区,,530102,0871,530102002006,111,,,,,,,,,2,100,1024,1468,4421,46035,676061,,
676062,8,102.712508,25.045228,文庙社区,,530102,0871,530102002007,111,,,,,,,,,2,100,1024,1468,4421,46035,676062,,
676063,8,102.702386,25.041708,富春社区,,530102,0871,530102003001,111,,,,,,,,,2,100,1024,1468,4421,46036,676063,,
676064,8,102.697947,25.040502,东风西路中段社区,,530102,0871,530102003002,111,,,,,,,,,2,100,1024,1468,4421,46036,676064,,
676065,8,102.701374,25.039555,三合营社区,,530102,0871,530102003003,111,,,,,,,,,2,100,1024,1468,4421,46036,676065,,
676066,8,102.692304,25.034632,新闻里社区,,530102,0871,530102003004,111,,,,,,,,,2,100,1024,1468,4421,46036,676066,,
676067,8,102.694808,25.036631,篆塘社区,,530102,0871,530102003005,111,,,,,,,,,2,100,1024,1468,4421,46036,676067,,
676068,8,102.705794,25.034942,顺城社区,,530102,0871,530102003006,111,,,,,,,,,2,100,1024,1468,4421,46036,676068,,
676069,8,102.689655,25.043001,棕树营东区社区,,530102,0871,530102003007,111,,,,,,,,,2,100,1024,1468,4421,46036,676069,,
676070,8,102.691921,25.039391,建工社区,,530102,0871,530102003008,111,,,,,,,,,2,100,1024,1468,4421,46036,676070,,
676071,8,102.698103,25.041359,大观商业城社区,,530102,0871,530102003009,111,,,,,,,,,2,100,1024,1468,4421,46036,676071,,
676072,8,102.695746,25.044181,人民西路社区,,530102,0871,530102004001,111,,,,,,,,,2,100,1024,1468,4421,46037,676072,,
676073,8,102.694379,25.053038,西站社区,,530102,0871,530102004002,111,,,,,,,,,2,100,1024,1468,4421,46037,676073,,
676074,8,102.687428,25.048556,茭菱社区,,530102,0871,530102004003,111,,,,,,,,,2,100,1024,1468,4421,46037,676074,,
676075,8,102.695299,25.049844,凤翥社区,,530102,0871,530102004004,111,,,,,,,,,2,100,1024,1468,4421,46037,676075,,
676076,8,102.684813,25.050011,菱角塘社区,,530102,0871,530102004005,111,,,,,,,,,2,100,1024,1468,4421,46037,676076,,
676077,8,102.685065,25.048531,红菱社区,,530102,0871,530102004006,111,,,,,,,,,2,100,1024,1468,4421,46037,676077,,
676078,8,102.684417,25.050795,西园北路社区,,530102,0871,530102004007,111,,,,,,,,,2,100,1024,1468,4421,46037,676078,,
676079,8,102.681812,25.056825,昆建路社区,,530102,0871,530102005001,111,,,,,,,,,2,100,1024,1468,4421,46038,676079,,
676080,8,102.675888,25.050256,春晖社区,,530102,0871,530102005002,111,,,,,,,,,2,100,1024,1468,4421,46038,676080,,
676081,8,102.685001,25.061755,虹山东路社区,,530102,0871,530102005003,111,,,,,,,,,2,100,1024,1468,4421,46038,676081,,
676082,8,102.677842,25.061103,虹山中路社区,,530102,0871,530102005004,111,,,,,,,,,2,100,1024,1468,4421,46038,676082,,
676083,8,102.671028,25.060091,洪园社区,,530102,0871,530102005005,111,,,,,,,,,2,100,1024,1468,4421,46038,676083,,
676084,8,102.674371,25.050033,丰宁社区,,530102,0871,530102005006,111,,,,,,,,,2,100,1024,1468,4421,46038,676084,,
676085,8,102.674074,25.066468,黄土坡社区,,530102,0871,530102005007,111,,,,,,,,,2,100,1024,1468,4421,46038,676085,,
676086,8,102.687881,25.057367,虹山南路社区,,530102,0871,530102005008,111,,,,,,,,,2,100,1024,1468,4421,46038,676086,,
676087,8,102.700164,25.063977,教场中路社区,,530102,0871,530102006001,111,,,,,,,,,2,100,1024,1468,4421,46039,676087,,
676088,8,102.69821,25.07497,教场北路社区,,530102,0871,530102006002,111,,,,,,,,,2,100,1024,1468,4421,46039,676088,,
676089,8,102.697134,25.069189,昆明理工大学社区,,530102,0871,530102006003,111,,,,,,,,,2,100,1024,1468,4421,46039,676089,,
676090,8,102.690912,25.062515,苏家塘社区,,530102,0871,530102006004,111,,,,,,,,,2,100,1024,1468,4421,46039,676090,,
676091,8,102.697134,25.069189,马村社区,,530102,0871,530102006005,111,,,,,,,,,2,100,1024,1468,4421,46039,676091,,
676092,8,102.694544,25.066036,虹山社区,,530102,0871,530102006006,111,,,,,,,,,2,100,1024,1468,4421,46039,676092,,
676093,8,102.715147,25.078582,云南财经大学社区,,530102,0871,530102006007,111,,,,,,,,,2,100,1024,1468,4421,46039,676093,,
676094,8,102.712953,25.066709,江岸社区,,530102,0871,530102006008,111,,,,,,,,,2,100,1024,1468,4421,46039,676094,,
676095,8,102.711569,25.063229,江北社区,,530102,0871,530102006009,111,,,,,,,,,2,100,1024,1468,4421,46039,676095,,
676096,8,102.697134,25.069189,昆明冶金高等专科学校社区,,530102,0871,530102006010,111,,,,,,,,,2,100,1024,1468,4421,46039,676096,,
676097,8,102.702616,25.070544,教场东路社区,,530102,0871,530102006011,111,,,,,,,,,2,100,1024,1468,4421,46039,676097,,
676098,8,102.699592,25.060506,学府社区,,530102,0871,530102006012,111,,,,,,,,,2,100,1024,1468,4421,46039,676098,,
676099,8,102.697134,25.069189,云南省第二监狱社区,,530102,0871,530102006013,111,,,,,,,,,2,100,1024,1468,4421,46039,676099,,
676100,8,102.713667,25.120689,右营社区,,530102,0871,530102007001,111,,,,,,,,,2,100,1024,1468,4421,46040,676100,,
676101,8,102.720347,25.090168,岗头社区,,530102,0871,530102007002,112,,,,,,,,,2,100,1024,1468,4421,46040,676101,,
676102,8,102.739591,25.111254,北仓社区,,530102,0871,530102007003,111,,,,,,,,,2,100,1024,1468,4421,46040,676102,,
676103,8,102.73045,25.107206,红云社区,,530102,0871,530102007004,111,,,,,,,,,2,100,1024,1468,4421,46040,676103,,
676104,8,102.734916,25.097821,霖雨社区,,530102,0871,530102007005,111,,,,,,,,,2,100,1024,1468,4421,46040,676104,,
676105,8,102.7284,25.094863,月牙塘社区,,530102,0871,530102007006,111,,,,,,,,,2,100,1024,1468,4421,46040,676105,,
676106,8,102.737976,25.119616,幸福家园社区,,530102,0871,530102007007,111,,,,,,,,,2,100,1024,1468,4421,46040,676106,,
676107,8,102.73069,25.103273,银河社区,,530102,0871,530102007008,111,,,,,,,,,2,100,1024,1468,4421,46040,676107,,
676108,8,102.73791,25.117108,红锦社区居委会,,530102,0871,530102007009,111,,,,,,,,,2,100,1024,1468,4421,46040,676108,,
676109,8,102.73827,25.12006,龙锦社区,,530102,0871,530102007010,111,,,,,,,,,2,100,1024,1468,4421,46040,676109,,
676110,8,102.657043,25.059763,黑林铺社区,,530102,0871,530102008001,111,,,,,,,,,2,100,1024,1468,4421,46041,676110,,
676111,8,102.650097,25.083335,海源社区,,530102,0871,530102008002,112,,,,,,,,,2,100,1024,1468,4421,46041,676111,,
676112,8,102.629484,25.053181,昭宗社区,,530112,0871,530102008003,112,,,,,,,,,2,100,1024,1468,4421,46041,676112,,
676113,8,102.642998,25.077858,龙院社区,,530102,0871,530102008004,111,,,,,,,,,2,100,1024,1468,4421,46041,676113,,
676114,8,102.626129,25.070938,团山社区,,530112,0871,530102008005,112,,,,,,,,,2,100,1024,1468,4421,46041,676114,,
676115,8,102.637308,25.053332,眠山社区,,530112,0871,530102008006,111,,,,,,,,,2,100,1024,1468,4421,46041,676115,,
676116,8,102.65315,25.065376,西城社区,,530102,0871,530102008007,111,,,,,,,,,2,100,1024,1468,4421,46041,676116,,
676117,8,102.679184,25.086089,王家桥社区,,530102,0871,530102009001,111,,,,,,,,,2,100,1024,1468,4421,46042,676117,,
676118,8,102.654559,25.088537,大塘社区,,530102,0871,530102009002,111,,,,,,,,,2,100,1024,1468,4421,46042,676118,,
676119,8,102.677,25.07767,普吉社区,,530102,0871,530102009003,112,,,,,,,,,2,100,1024,1468,4421,46042,676119,,
676120,8,102.662566,25.10653,同心路社区,,530102,0871,530102009004,111,,,,,,,,,2,100,1024,1468,4421,46042,676120,,
676121,8,102.676121,25.084361,云冶社区,,530102,0871,530102009005,111,,,,,,,,,2,100,1024,1468,4421,46042,676121,,
676122,8,102.67498,25.087054,联家社区,,530102,0871,530102009006,112,,,,,,,,,2,100,1024,1468,4421,46042,676122,,
676123,8,102.674499,25.079349,观音寺社区,,530102,0871,530102009007,111,,,,,,,,,2,100,1024,1468,4421,46042,676123,,
676124,8,102.67183,25.08909,西景社区,,530102,0871,530102009008,111,,,,,,,,,2,100,1024,1468,4421,46042,676124,,
676125,8,102.662914,25.159909,东村居委会,,530102,0871,530102010001,111,,,,,,,,,2,100,1024,1468,4421,46043,676125,,
676126,8,102.662914,25.159909,大村居委会,,530102,0871,530102010002,220,,,,,,,,,2,100,1024,1468,4421,46043,676126,,
676127,8,102.691458,25.15604,桃园居委会,,530102,0871,530102010003,220,,,,,,,,,2,100,1024,1468,4421,46043,676127,,
676128,8,102.693928,25.190231,三多居委会,,530102,0871,530102010004,220,,,,,,,,,2,100,1024,1468,4421,46043,676128,,
676129,8,102.662914,25.159909,龙庆居委会,,530102,0871,530102010005,220,,,,,,,,,2,100,1024,1468,4421,46043,676129,,
676130,8,102.638167,25.129636,陡坡居委会,,530102,0871,530102010006,220,,,,,,,,,2,100,1024,1468,4421,46043,676130,,
676131,8,102.662914,25.159909,新民居委会,,530102,0871,530102010007,220,,,,,,,,,2,100,1024,1468,4421,46043,676131,,
676132,8,102.703015,25.260503,陡普鲁居委会,,530102,0871,530102010008,220,,,,,,,,,2,100,1024,1468,4421,46043,676132,,
676133,8,102.662914,25.159909,厂口居委会,,530102,0871,530102010009,220,,,,,,,,,2,100,1024,1468,4421,46043,676133,,
676134,8,102.662914,25.159909,迤六居委会,,530102,0871,530102010010,220,,,,,,,,,2,100,1024,1468,4421,46043,676134,,
676135,8,102.662914,25.159909,瓦恭居委会,,530102,0871,530102010011,220,,,,,,,,,2,100,1024,1468,4421,46043,676135,,
676136,8,102.662603,25.072031,锦兴苑社区,,530102,0871,530102401401,111,,,,,,,,,2,100,1024,1468,4421,46044,676136,,
676137,8,102.6594,25.045145,梁家河社区,,530112,0871,530102401402,111,,,,,,,,,2,100,1024,1468,4421,46044,676137,,
676138,8,102.724678,25.107674,沙沟村社区,,530102,0871,530102401403,111,,,,,,,,,2,100,1024,1468,4421,46044,676138,,
676139,8,102.670067,25.053795,康宏社区,,530102,0871,530102401404,111,,,,,,,,,2,100,1024,1468,4421,46044,676139,,
676140,8,102.665912,25.060865,万裕社区,,530102,0871,530102401405,111,,,,,,,,,2,100,1024,1468,4421,46044,676140,,
676141,8,102.66983,25.050004,鑫世社区,,530102,0871,530102401406,111,,,,,,,,,2,100,1024,1468,4421,46044,676141,,
676142,8,102.660471,25.062498,科澳社区,,530102,0871,530102401407,111,,,,,,,,,2,100,1024,1468,4421,46044,676142,,
676143,8,102.668502,25.057079,红盛园社区,,530102,0871,530102401408,111,,,,,,,,,2,100,1024,1468,4421,46044,676143,,
676144,8,102.658714,25.06795,国际花园社区,,530102,0871,530102401410,111,,,,,,,,,2,100,1024,1468,4421,46044,676144,,
676145,8,102.650344,25.076238,新域社区,,530102,0871,530102401411,111,,,,,,,,,2,100,1024,1468,4421,46044,676145,,
676146,8,102.721656,25.033807,尚义社区居委会,,530103,0871,530103001001,111,,,,,,,,,2,100,1024,1468,4422,46045,676146,,
676147,8,102.723261,25.034109,明通社区居委会,,530103,0871,530103001002,111,,,,,,,,,2,100,1024,1468,4422,46045,676147,,
676148,8,102.727249,25.035293,白塔社区居委会,,530103,0871,530103001003,111,,,,,,,,,2,100,1024,1468,4422,46045,676148,,
676149,8,102.729794,25.040031,东庄社区居委会,,530103,0871,530103001004,111,,,,,,,,,2,100,1024,1468,4422,46045,676149,,
676150,8,102.723261,25.034109,状元楼社区居委会,,530103,0871,530103001005,111,,,,,,,,,2,100,1024,1468,4422,46045,676150,,
676151,8,102.717193,25.048112,桃源社区居委会,,530103,0871,530103002001,111,,,,,,,,,2,100,1024,1468,4422,46046,676151,,
676152,8,102.717089,25.053763,灵光社区居委会,,530103,0871,530103002002,111,,,,,,,,,2,100,1024,1468,4422,46046,676152,,
676153,8,102.71966,25.046143,穿金社区居委会,,530103,0871,530103002003,111,,,,,,,,,2,100,1024,1468,4422,46046,676153,,
676154,8,102.726731,25.043847,交三桥社区居委会,,530103,0871,530103002004,111,,,,,,,,,2,100,1024,1468,4422,46046,676154,,
676155,8,102.728303,25.047913,栗树头社区居委会,,530103,0871,530103002005,111,,,,,,,,,2,100,1024,1468,4422,46046,676155,,
676156,8,102.72082,25.048608,凤凰社区居委会,,530103,0871,530103002006,111,,,,,,,,,2,100,1024,1468,4422,46046,676156,,
676157,8,102.734705,25.048733,小龙路社区居委会,,530103,0871,530103003001,111,,,,,,,,,2,100,1024,1468,4422,46047,676157,,
676158,8,102.731666,25.047808,新迎社区居委会,,530103,0871,530103003002,111,,,,,,,,,2,100,1024,1468,4422,46047,676158,,
676159,8,102.727928,25.051843,席子营社区居委会,,530103,0871,530103003004,111,,,,,,,,,2,100,1024,1468,4422,46047,676159,,
676160,8,102.738486,25.057664,白云社区居委会,,530103,0871,530103003005,111,,,,,,,,,2,100,1024,1468,4422,46047,676160,,
676161,8,102.731666,25.047808,田园路社区居委会,,530103,0871,530103003006,111,,,,,,,,,2,100,1024,1468,4422,46047,676161,,
676162,8,102.731666,25.047808,文艺路社区居委会,,530103,0871,530103003007,111,,,,,,,,,2,100,1024,1468,4422,46047,676162,,
676163,8,102.731666,25.047808,金色社区居委会,,530103,0871,530103003008,111,,,,,,,,,2,100,1024,1468,4422,46047,676163,,
676164,8,102.724982,25.050738,小坝社区居委会,,530103,0871,530103004001,111,,,,,,,,,2,100,1024,1468,4422,46048,676164,,
676165,8,102.724982,25.050738,长青社区居委会,,530103,0871,530103004002,111,,,,,,,,,2,100,1024,1468,4422,46048,676165,,
676166,8,102.7168,25.061403,北站社区居委会,,530103,0871,530103004003,111,,,,,,,,,2,100,1024,1468,4422,46048,676166,,
676167,8,102.724982,25.050738,长寿路社区居委会,,530103,0871,530103004004,111,,,,,,,,,2,100,1024,1468,4422,46048,676167,,
676168,8,102.716636,25.072068,颐华路社区居委会,,530103,0871,530103004005,111,,,,,,,,,2,100,1024,1468,4422,46048,676168,,
676169,8,102.720488,25.068908,金江路社区居委会,,530103,0871,530103004006,111,,,,,,,,,2,100,1024,1468,4422,46048,676169,,
676170,8,102.72984,25.080979,金星社区居委会,,530103,0871,530103004007,111,,,,,,,,,2,100,1024,1468,4422,46048,676170,,
676171,8,102.728389,25.063824,万宏路社区居委会,,530103,0871,530103004008,111,,,,,,,,,2,100,1024,1468,4422,46048,676171,,
676172,8,102.728954,25.060868,王旗营社区居委会,,530103,0871,530103004009,111,,,,,,,,,2,100,1024,1468,4422,46048,676172,,
676173,8,102.7365,25.071079,金菊路社区居委会,,530103,0871,530103004010,111,,,,,,,,,2,100,1024,1468,4422,46048,676173,,
676174,8,102.724982,25.050738,葵花社区居委会,,530103,0871,530103004011,111,,,,,,,,,2,100,1024,1468,4422,46048,676174,,
676175,8,102.726065,25.074135,金刀营社区居委会,,530103,0871,530103005001,111,,,,,,,,,2,100,1024,1468,4422,46049,676175,,
676176,8,102.747964,25.076625,云波社区居委会,,530103,0871,530103005002,111,,,,,,,,,2,100,1024,1468,4422,46049,676176,,
676177,8,102.741603,25.086725,任旗营社区居委会,,530103,0871,530103005003,111,,,,,,,,,2,100,1024,1468,4422,46049,676177,,
676178,8,102.730194,25.087198,罗丰社区居委会,,530103,0871,530103005004,111,,,,,,,,,2,100,1024,1468,4422,46049,676178,,
676179,8,102.731101,25.072863,金实社区居委会,,530103,0871,530103005005,111,,,,,,,,,2,100,1024,1468,4422,46049,676179,,
676180,8,102.740463,25.072892,天祥社区居委会,,530103,0871,530103005006,111,,,,,,,,,2,100,1024,1468,4422,46049,676180,,
676181,8,102.760936,25.090613,青龙山社区居委会,,530103,0871,530103005007,111,,,,,,,,,2,100,1024,1468,4422,46049,676181,,
676182,8,102.72616,25.07399,映象社区居委会,,530103,0871,530103005008,111,,,,,,,,,2,100,1024,1468,4422,46049,676182,,
676183,8,102.752128,25.063108,云山社区居委会,,530103,0871,530103006001,111,,,,,,,,,2,100,1024,1468,4422,46050,676183,,
676184,8,102.752401,25.064876,西林社区居委会,,530103,0871,530103006002,111,,,,,,,,,2,100,1024,1468,4422,46050,676184,,
676185,8,102.745039,25.057064,佳园社区居委会,,530103,0871,530103006003,111,,,,,,,,,2,100,1024,1468,4422,46050,676185,,
676186,8,102.752401,25.064876,昙华社区居委会,,530103,0871,530103006004,111,,,,,,,,,2,100,1024,1468,4422,46050,676186,,
676187,8,102.761829,25.041068,金沙社区居委会,,530103,0871,530103006005,111,,,,,,,,,2,100,1024,1468,4422,46050,676187,,
676188,8,102.779024,25.038415,白沙河社区居委会,,530103,0871,530103006006,111,,,,,,,,,2,100,1024,1468,4422,46050,676188,,
676189,8,102.790215,25.052507,青龙社区居委会,,530103,0871,530103006009,111,,,,,,,,,2,100,1024,1468,4422,46050,676189,,
676190,8,102.752401,25.064876,青裕社区居委会,,530103,0871,530103006010,111,,,,,,,,,2,100,1024,1468,4422,46050,676190,,
676191,8,102.754829,25.111454,宝云社区居委会,,530103,0871,530103007001,111,,,,,,,,,2,100,1024,1468,4422,46051,676191,,
676192,8,102.746649,25.126323,兴龙社区居委会,,530103,0871,530103007002,111,,,,,,,,,2,100,1024,1468,4422,46051,676192,,
676193,8,102.767599,25.109602,源清社区居委会,,530103,0871,530103007003,111,,,,,,,,,2,100,1024,1468,4422,46051,676193,,
676194,8,102.769642,25.13157,上坝社区居委会,,530103,0871,530103007004,112,,,,,,,,,2,100,1024,1468,4422,46051,676194,,
676195,8,102.775251,25.139804,中坝社区居委会,,530103,0871,530103007005,112,,,,,,,,,2,100,1024,1468,4422,46051,676195,,
676196,8,102.742541,25.11213,盘江社区居委会,,530103,0871,530103007006,111,,,,,,,,,2,100,1024,1468,4422,46051,676196,,
676197,8,102.743948,25.109203,林清社区居委会,,530103,0871,530103007007,112,,,,,,,,,2,100,1024,1468,4422,46051,676197,,
676198,8,102.743948,25.109203,龙江社区居委会,,530103,0871,530103007008,111,,,,,,,,,2,100,1024,1468,4422,46051,676198,,
676199,8,102.739109,25.143372,黑龙潭社区居委会,,530103,0871,530103008001,111,,,,,,,,,2,100,1024,1468,4422,46052,676199,,
676200,8,102.727092,25.124004,和平社区居委会,,530103,0871,530103008002,111,,,,,,,,,2,100,1024,1468,4422,46052,676200,,
676201,8,102.739541,25.1446,重工社区居委会,,530103,0871,530103008003,111,,,,,,,,,2,100,1024,1468,4422,46052,676201,,
676202,8,102.739395,25.153989,昆机社区居委会,,530103,0871,530103008004,111,,,,,,,,,2,100,1024,1468,4422,46052,676202,,
676203,8,102.739541,25.1446,兰龙潭社区居委会,,530103,0871,530103008005,111,,,,,,,,,2,100,1024,1468,4422,46052,676203,,
676204,8,102.736419,25.147379,花渔沟社区居委会,,530103,0871,530103008006,112,,,,,,,,,2,100,1024,1468,4422,46052,676204,,
676205,8,102.739541,25.1446,青松路社区居委会,,530103,0871,530103008007,111,,,,,,,,,2,100,1024,1468,4422,46052,676205,,
676206,8,102.850998,25.111017,乌龙社区居委会,,530103,0871,530103009001,111,,,,,,,,,2,100,1024,1468,4422,46053,676206,,
676207,8,102.792659,25.087267,麦冲社区居委会,,530103,0871,530103009002,220,,,,,,,,,2,100,1024,1468,4422,46053,676207,,
676208,8,102.83295,25.094653,麦地塘社区居委会,,530103,0871,530103009003,220,,,,,,,,,2,100,1024,1468,4422,46053,676208,,
676209,8,102.877548,25.159232,庄房社区居委会,,530103,0871,530103009004,220,,,,,,,,,2,100,1024,1468,4422,46053,676209,,
676210,8,102.833541,25.194081,小河社区居委会,,530103,0871,530103010001,111,,,,,,,,,2,100,1024,1468,4422,46054,676210,,
676211,8,102.860949,25.190072,三家社区居委会,,530103,0871,530103010002,220,,,,,,,,,2,100,1024,1468,4422,46054,676211,,
676212,8,102.790305,25.202904,团结社区居委会,,530103,0871,530103010003,220,,,,,,,,,2,100,1024,1468,4422,46054,676212,,
676213,8,102.740159,25.243259,双玉社区居委会,,530103,0871,530103010005,111,,,,,,,,,2,100,1024,1468,4422,46054,676213,,
676214,8,102.751907,25.116106,大摆社区居委会,,530103,0871,530103010006,220,,,,,,,,,2,100,1024,1468,4422,46054,676214,,
676215,8,102.772562,25.397746,新街社区居委会,,530103,0871,530103010007,220,,,,,,,,,2,100,1024,1468,4422,46054,676215,,
676216,8,102.751907,25.116106,大哨社区居委会,,530103,0871,530103010008,220,,,,,,,,,2,100,1024,1468,4422,46054,676216,,
676217,8,102.87775,25.293054,白邑村委会,,530103,0871,530103011201,111,,,,,,,,,2,100,1024,1468,4422,46055,676217,,
676218,8,102.92329,25.29349,周达村委会,,530103,0871,530103011202,220,,,,,,,,,2,100,1024,1468,4422,46055,676218,,
676219,8,102.91913,25.277589,老坝村委会,,530103,0871,530103011203,220,,,,,,,,,2,100,1024,1468,4422,46055,676219,,
676220,8,102.87842,25.265436,南营村委会,,530103,0871,530103011204,220,,,,,,,,,2,100,1024,1468,4422,46055,676220,,
676221,8,102.878483,25.241205,中所村委会,,530103,0871,530103011205,220,,,,,,,,,2,100,1024,1468,4422,46055,676221,,
676222,8,102.870651,25.21023,甸尾村委会,,530103,0871,530103011206,220,,,,,,,,,2,100,1024,1468,4422,46055,676222,,
676223,8,102.87775,25.293054,金钟村委会,,530103,0871,530103011207,220,,,,,,,,,2,100,1024,1468,4422,46055,676223,,
676224,8,102.80981,25.23979,迤者村委会,,530103,0871,530103011208,220,,,,,,,,,2,100,1024,1468,4422,46055,676224,,
676225,8,102.85844,25.24552,小营村委会,,530103,0871,530103011209,220,,,,,,,,,2,100,1024,1468,4422,46055,676225,,
676226,8,102.86147,25.263329,前所村委会,,530103,0871,530103011210,220,,,,,,,,,2,100,1024,1468,4422,46055,676226,,
676227,8,102.87775,25.293054,团结村委会,,530103,0871,530103011211,220,,,,,,,,,2,100,1024,1468,4422,46055,676227,,
676228,8,102.87775,25.293054,苏海村委会,,530103,0871,530103011212,220,,,,,,,,,2,100,1024,1468,4422,46055,676228,,
676229,8,102.87775,25.293054,麦地冲村委会,,530103,0871,530103011213,220,,,,,,,,,2,100,1024,1468,4422,46055,676229,,
676230,8,102.87775,25.293054,三转弯村委会,,530103,0871,530103011214,220,,,,,,,,,2,100,1024,1468,4422,46055,676230,,
676231,8,102.87775,25.293054,菜子地村委会,,530103,0871,530103011215,220,,,,,,,,,2,100,1024,1468,4422,46055,676231,,
676232,8,102.969681,25.427504,大哨村委会,,530103,0871,530103011216,220,,,,,,,,,2,100,1024,1468,4422,46055,676232,,
676233,8,102.9916,25.451551,竹箐口村委会,,530103,0871,530103011217,220,,,,,,,,,2,100,1024,1468,4422,46055,676233,,
676234,8,102.92403,25.41196,竹园村委会,,530103,0871,530103011218,220,,,,,,,,,2,100,1024,1468,4422,46055,676234,,
676235,8,102.783402,25.338959,阿子营村委会,,530103,0871,530103012201,111,,,,,,,,,2,100,1024,1468,4422,46056,676235,,
676236,8,102.777743,25.340095,马军村委会,,530103,0871,530103012202,220,,,,,,,,,2,100,1024,1468,4422,46056,676236,,
676237,8,102.777743,25.340095,侯家营村委会,,530103,0871,530103012203,220,,,,,,,,,2,100,1024,1468,4422,46056,676237,,
676238,8,102.77026,25.306769,鼠街村委会,,530103,0871,530103012204,220,,,,,,,,,2,100,1024,1468,4422,46056,676238,,
676239,8,102.75089,25.30816,羊街村委会,,530103,0871,530103012205,220,,,,,,,,,2,100,1024,1468,4422,46056,676239,,
676240,8,102.723431,25.396,果东村委会,,530103,0871,530103012206,220,,,,,,,,,2,100,1024,1468,4422,46056,676240,,
676241,8,102.747209,25.36216,大竹园村委会,,530103,0871,530103012207,220,,,,,,,,,2,100,1024,1468,4422,46056,676241,,
676242,8,102.81749,25.361251,者纳村委会,,530103,0871,530103012208,220,,,,,,,,,2,100,1024,1468,4422,46056,676242,,
676243,8,102.8195,25.38158,铁冲村委会,,530103,0871,530103012209,220,,,,,,,,,2,100,1024,1468,4422,46056,676243,,
676244,8,102.777743,25.340095,牧羊村委会,,530103,0871,530103012210,220,,,,,,,,,2,100,1024,1468,4422,46056,676244,,
676245,8,102.777743,25.340095,甸头村委会,,530103,0871,530103012211,220,,,,,,,,,2,100,1024,1468,4422,46056,676245,,
676246,8,102.777743,25.340095,阿达龙村委会,,530103,0871,530103012212,220,,,,,,,,,2,100,1024,1468,4422,46056,676246,,
676247,8,102.777743,25.340095,岩峰哨村委会,,530103,0871,530103012213,220,,,,,,,,,2,100,1024,1468,4422,46056,676247,,
676248,8,102.905641,25.42513,朵格村委会,,530103,0871,530103012214,220,,,,,,,,,2,100,1024,1468,4422,46056,676248,,
676249,8,102.754494,25.011463,关上社区居委会,,530111,0871,530111001001,112,,,,,,,,,2,100,1024,1468,4423,46057,676249,,
676250,8,102.734718,25.005455,双桥社区居委会,,530111,0871,530111001002,111,,,,,,,,,2,100,1024,1468,4423,46057,676250,,
676251,8,102.728874,24.997699,日新社区居委会,,530111,0871,530111001003,112,,,,,,,,,2,100,1024,1468,4423,46057,676251,,
676252,8,102.729766,25.006486,福德社区居委会,,530111,0871,530111001004,111,,,,,,,,,2,100,1024,1468,4423,46057,676252,,
676253,8,102.729278,24.991841,双凤社区居委会,,530111,0871,530111001005,111,,,,,,,,,2,100,1024,1468,4423,46057,676253,,
676254,8,102.725032,24.990993,小街社区居委会,,530111,0871,530111001006,111,,,,,,,,,2,100,1024,1468,4423,46057,676254,,
676255,8,102.729766,25.006486,福发社区居委会,,530111,0871,530111001007,111,,,,,,,,,2,100,1024,1468,4423,46057,676255,,
676256,8,102.723403,25.012542,福达社区居委会,,530111,0871,530111001008,111,,,,,,,,,2,100,1024,1468,4423,46057,676256,,
676257,8,102.743713,25.002777,关上中心社区,,530111,0871,530111001009,111,,,,,,,,,2,100,1024,1468,4423,46057,676257,,
676258,8,102.741889,25.011739,彩云社区居民委员会,,530111,0871,530111001010,111,,,,,,,,,2,100,1024,1468,4423,46057,676258,,
676259,8,102.741889,25.011739,石虎关社区居民委员会,,530111,0871,530111001011,111,,,,,,,,,2,100,1024,1468,4423,46057,676259,,
676260,8,102.741889,25.011739,巫家坝社区居民委员会,,530111,0871,530111001012,111,,,,,,,,,2,100,1024,1468,4423,46057,676260,,
676261,8,102.72161,25.026132,和平路社区居委会,,530111,0871,530111002001,111,,,,,,,,,2,100,1024,1468,4423,46058,676261,,
676262,8,102.725067,25.023309,永胜路社区居委会,,530111,0871,530111002002,111,,,,,,,,,2,100,1024,1468,4423,46058,676262,,
676263,8,102.720024,25.023517,明通路社区居委会,,530111,0871,530111002003,111,,,,,,,,,2,100,1024,1468,4423,46058,676263,,
676264,8,102.719907,25.029347,前卫路社区居委会,,530111,0871,530111002004,111,,,,,,,,,2,100,1024,1468,4423,46058,676264,,
676265,8,102.715718,25.028011,双龙桥社区居委会,,530111,0871,530111002005,111,,,,,,,,,2,100,1024,1468,4423,46058,676265,,
676266,8,102.723981,25.029686,黄家庄社区居委会,,530111,0871,530111002006,111,,,,,,,,,2,100,1024,1468,4423,46058,676266,,
676267,8,102.716339,25.019725,吴井社区居委会,,530111,0871,530111002007,111,,,,,,,,,2,100,1024,1468,4423,46058,676267,,
676268,8,102.728271,25.017173,佴家湾社区居委会,,530111,0871,530111002008,111,,,,,,,,,2,100,1024,1468,4423,46058,676268,,
676269,8,102.731414,25.030668,铁路新村社区居委会,,530111,0871,530111003001,111,,,,,,,,,2,100,1024,1468,4423,46059,676269,,
676270,8,102.730863,25.023264,吴井路社区居委会,,530111,0871,530111003002,111,,,,,,,,,2,100,1024,1468,4423,46059,676270,,
676271,8,102.730552,25.02502,民航路社区居委会,,530111,0871,530111003003,111,,,,,,,,,2,100,1024,1468,4423,46059,676271,,
676272,8,102.739875,25.027685,东郊路社区居委会,,530111,0871,530111003004,111,,,,,,,,,2,100,1024,1468,4423,46059,676272,,
676273,8,102.734504,25.025436,五里多社区居委会,,530111,0871,530111003005,111,,,,,,,,,2,100,1024,1468,4423,46059,676273,,
676274,8,102.731932,25.030758,四零三厂社区居委会,,530111,0871,530111003006,111,,,,,,,,,2,100,1024,1468,4423,46059,676274,,
676275,8,102.728477,25.027961,吴井新村社区居委会,,530111,0871,530111003007,111,,,,,,,,,2,100,1024,1468,4423,46059,676275,,
676276,8,102.739227,25.034776,董家湾北段社区居委会,,530111,0871,530111003008,111,,,,,,,,,2,100,1024,1468,4423,46059,676276,,
676277,8,102.735557,25.031669,董家湾南段社区居委会,,530111,0871,530111003009,111,,,,,,,,,2,100,1024,1468,4423,46059,676277,,
676278,8,102.729244,25.032101,石井社区居委会,,530111,0871,530111003010,111,,,,,,,,,2,100,1024,1468,4423,46059,676278,,
676279,8,102.739456,25.028143,五里社区居委会,,530111,0871,530111003011,111,,,,,,,,,2,100,1024,1468,4423,46059,676279,,
676280,8,102.747563,25.036091,金马社区居委会,,530111,0871,530111004001,111,,,,,,,,,2,100,1024,1468,4423,46060,676280,,
676281,8,102.734829,25.043018,东华路社区居委会,,530111,0871,530111004002,111,,,,,,,,,2,100,1024,1468,4423,46060,676281,,
676282,8,102.744263,25.040819,大树营社区居委会,,530111,0871,530111004003,111,,,,,,,,,2,100,1024,1468,4423,46060,676282,,
676283,8,102.787549,25.022457,方旺社区居委会,,530111,0871,530111004004,111,,,,,,,,,2,100,1024,1468,4423,46060,676283,,
676284,8,102.778075,25.031546,十里社区居委会,,530111,0871,530111004005,111,,,,,,,,,2,100,1024,1468,4423,46060,676284,,
676285,8,102.771729,25.007397,牛街社区居委会,,530111,0871,530111004006,111,,,,,,,,,2,100,1024,1468,4423,46060,676285,,
676286,8,102.755767,25.02133,黑土凹社区居委会,,530111,0871,530111004007,111,,,,,,,,,2,100,1024,1468,4423,46060,676286,,
676287,8,102.743873,25.035217,曙光社区居民委员会,,530111,0871,530111004008,111,,,,,,,,,2,100,1024,1468,4423,46060,676287,,
676288,8,102.753215,25.032364,东骧社区居委会,,530111,0871,530111004009,111,,,,,,,,,2,100,1024,1468,4423,46060,676288,,
676289,8,102.689461,25.042999,建工社区居委会,,530102,0871,530111004010,111,,,,,,,,,2,100,1024,1468,4423,46060,676289,,
676290,8,102.747563,25.036091,凤凰山社区居民委员会,,530111,0871,530111004011,111,,,,,,,,,2,100,1024,1468,4423,46060,676290,,
676291,8,102.747563,25.036091,幸福邻里社区居民委员会,,530111,0871,530111004012,111,,,,,,,,,2,100,1024,1468,4423,46060,676291,,
676292,8,102.747563,25.036091,昆东社区居民委员会,,530111,0871,530111004013,111,,,,,,,,,2,100,1024,1468,4423,46060,676292,,
676293,8,102.777951,24.97734,小板桥社区居委会,,530111,0871,530111005001,111,,,,,,,,,2,100,1024,1468,4423,46061,676293,,
676294,8,102.778045,24.990599,鸣泉社区居委会,,530111,0871,530111005002,111,,,,,,,,,2,100,1024,1468,4423,46061,676294,,
676295,8,102.779193,24.96688,羊甫社区居委会,,530111,0871,530111005003,111,,,,,,,,,2,100,1024,1468,4423,46061,676295,,
676296,8,102.75926,24.988926,晓东社区居委会,,530111,0871,530111005004,111,,,,,,,,,2,100,1024,1468,4423,46061,676296,,
676297,8,102.750049,24.980744,云溪社区居委会,,530111,0871,530111005005,111,,,,,,,,,2,100,1024,1468,4423,46061,676297,,
676298,8,102.753222,24.971734,金刚社区居委会,,530111,0871,530111005006,111,,,,,,,,,2,100,1024,1468,4423,46061,676298,,
676299,8,102.734851,24.96751,四甲社区居委会,,530111,0871,530111005007,111,,,,,,,,,2,100,1024,1468,4423,46061,676299,,
676300,8,102.739634,24.972204,中闸社区居委会,,530111,0871,530111005008,111,,,,,,,,,2,100,1024,1468,4423,46061,676300,,
676301,8,102.773033,24.960806,林岸馨宸社区居委会,,530111,0871,530111005009,111,,,,,,,,,2,100,1024,1468,4423,46061,676301,,
676302,8,102.752676,24.976049,海云社区居委会,,530111,0871,530111005010,111,,,,,,,,,2,100,1024,1468,4423,46061,676302,,
676303,8,102.774791,24.977125,海祥社区居委会,,530111,0871,530111005011,111,,,,,,,,,2,100,1024,1468,4423,46061,676303,,
676304,8,102.760333,24.957963,官渡社区居委会,,530111,0871,530111006001,111,,,,,,,,,2,100,1024,1468,4423,46062,676304,,
676305,8,102.76621,24.962951,西庄社区居委会,,530111,0871,530111006002,111,,,,,,,,,2,100,1024,1468,4423,46062,676305,,
676306,8,102.718177,24.922211,宝丰社区居委会,,530111,0871,530111006003,112,,,,,,,,,2,100,1024,1468,4423,46062,676306,,
676307,8,102.735752,24.921834,海东社区居委会,,530111,0871,530111006004,112,,,,,,,,,2,100,1024,1468,4423,46062,676307,,
676308,8,102.733429,24.938332,龙马社区居委会,,530111,0871,530111006005,111,,,,,,,,,2,100,1024,1468,4423,46062,676308,,
676309,8,102.740433,24.946408,中营社区居委会,,530111,0871,530111006006,111,,,,,,,,,2,100,1024,1468,4423,46062,676309,,
676310,8,102.736911,24.952265,后所社区居委会,,530111,0871,530111006007,111,,,,,,,,,2,100,1024,1468,4423,46062,676310,,
676311,8,102.732306,24.955265,罗衙社区居委会,,530111,0871,530111006008,112,,,,,,,,,2,100,1024,1468,4423,46062,676311,,
676312,8,102.747888,24.955497,季官社区居委会,,530111,0871,530111006009,111,,,,,,,,,2,100,1024,1468,4423,46062,676312,,
676313,8,102.760597,24.957345,世纪城社区居委会,,530111,0871,530111006010,111,,,,,,,,,2,100,1024,1468,4423,46062,676313,,
676314,8,102.760597,24.957345,云秀社区居委会,,530111,0871,530111006011,111,,,,,,,,,2,100,1024,1468,4423,46062,676314,,
676315,8,102.760597,24.957345,艺术家园社区居委会,,530111,0871,530111006012,111,,,,,,,,,2,100,1024,1468,4423,46062,676315,,
676316,8,102.763054,24.943683,新亚洲体育城社区居委会,,530111,0871,530111007001,111,,,,,,,,,2,100,1024,1468,4423,46063,676316,,
676317,8,102.779123,24.936483,螺蛳湾国际商贸城社区居委会,,530111,0871,530111007002,111,,,,,,,,,2,100,1024,1468,4423,46063,676317,,
676318,8,102.7695,24.95004,子君社区居委会,,530111,0871,530111007003,111,,,,,,,,,2,100,1024,1468,4423,46063,676318,,
676319,8,102.764233,24.91233,矣六社区居委会,,530111,0871,530111007004,112,,,,,,,,,2,100,1024,1468,4423,46063,676319,,
676320,8,102.776801,24.913991,自卫社区居委会,,530111,0871,530111007005,112,,,,,,,,,2,100,1024,1468,4423,46063,676320,,
676321,8,102.758963,24.906872,王官社区居委会,,530111,0871,530111007006,112,,,,,,,,,2,100,1024,1468,4423,46063,676321,,
676322,8,102.751959,24.924296,渔村社区居委会会,,530111,0871,530111007007,112,,,,,,,,,2,100,1024,1468,4423,46063,676322,,
676323,8,102.757598,24.920662,关锁社区居委会,,530111,0871,530111007008,112,,,,,,,,,2,100,1024,1468,4423,46063,676323,,
676324,8,102.768531,24.937789,宏仁社区居委会,,530111,0871,530111007009,111,,,,,,,,,2,100,1024,1468,4423,46063,676324,,
676325,8,102.779123,24.936483,普自社区居委会,,530111,0871,530111007010,111,,,,,,,,,2,100,1024,1468,4423,46063,676325,,
676326,8,102.779956,24.957228,广卫社区居委会,,530111,0871,530111007011,111,,,,,,,,,2,100,1024,1468,4423,46063,676326,,
676327,8,102.779123,24.936483,五腊社区居委会,,530111,0871,530111007012,111,,,,,,,,,2,100,1024,1468,4423,46063,676327,,
676328,8,102.780084,24.933263,塔密社区居委会,,530111,0871,530111007013,111,,,,,,,,,2,100,1024,1468,4423,46063,676328,,
676329,8,102.771955,24.955954,星宇社区居委会,,530111,0871,530111007014,111,,,,,,,,,2,100,1024,1468,4423,46063,676329,,
676330,8,102.778999,24.950762,欣景社区居委会,,530111,0871,530111007015,111,,,,,,,,,2,100,1024,1468,4423,46063,676330,,
676331,8,102.779949,24.957235,映华社区居委会,,530111,0871,530111007016,111,,,,,,,,,2,100,1024,1468,4423,46063,676331,,
676332,8,102.779123,24.936483,花田社区居委会,,530111,0871,530111007017,111,,,,,,,,,2,100,1024,1468,4423,46063,676332,,
676333,8,102.750605,24.938704,云翔社区居委会,,530111,0871,530111007018,111,,,,,,,,,2,100,1024,1468,4423,46063,676333,,
676334,8,102.712808,24.963537,六甲社区居委会,,530111,0871,530111008001,111,,,,,,,,,2,100,1024,1468,4423,46064,676334,,
676335,8,102.699451,24.95207,新一社区居委会,,530111,0871,530111008002,111,,,,,,,,,2,100,1024,1468,4423,46064,676335,,
676336,8,102.711356,24.962608,新二社区居委会,,530111,0871,530111008003,111,,,,,,,,,2,100,1024,1468,4423,46064,676336,,
676337,8,102.69521,24.93426,福保社区居委会,,530111,0871,530111008004,112,,,,,,,,,2,100,1024,1468,4423,46064,676337,,
676338,8,102.708167,24.936337,小河咀社区居委会,,530111,0871,530111008005,111,,,,,,,,,2,100,1024,1468,4423,46064,676338,,
676339,8,102.714716,24.957158,永胜社区居委会,,530111,0871,530111008006,112,,,,,,,,,2,100,1024,1468,4423,46064,676339,,
676340,8,102.719414,24.983117,陈家社区居委会,,530111,0871,530111008007,111,,,,,,,,,2,100,1024,1468,4423,46064,676340,,
676341,8,102.715759,24.973637,盘龙社区居委会,,530111,0871,530111008008,111,,,,,,,,,2,100,1024,1468,4423,46064,676341,,
676342,8,102.69261,24.955389,金家社区居委会,,530112,0871,530111008009,111,,,,,,,,,2,100,1024,1468,4423,46064,676342,,
676343,8,102.690562,24.953477,星海社区居委会,,530112,0871,530111008010,111,,,,,,,,,2,100,1024,1468,4423,46064,676343,,
676344,8,102.711356,24.962608,海华社区居民委员会,,530111,0871,530111008011,111,,,,,,,,,2,100,1024,1468,4423,46064,676344,,
676345,8,102.880181,25.046857,板桥社区居委会,,530111,0871,530111009001,111,,,,,,,,,2,100,1024,1468,4423,46065,676345,,
676346,8,102.869372,25.055882,李其社区居委会,,530111,0871,530111009002,112,,,,,,,,,2,100,1024,1468,4423,46065,676346,,
676347,8,102.871023,25.034507,西冲社区居委会,,530111,0871,530111009003,112,,,,,,,,,2,100,1024,1468,4423,46065,676347,,
676348,8,102.9034,25.04559,沙沟社区居委会,,530111,0871,530111009004,112,,,,,,,,,2,100,1024,1468,4423,46065,676348,,
676349,8,102.888146,25.09491,复兴社区居委会,,530111,0871,530111009005,112,,,,,,,,,2,100,1024,1468,4423,46065,676349,,
676350,8,102.881098,25.04567,花箐社区居委会,,530111,0871,530111009006,112,,,,,,,,,2,100,1024,1468,4423,46065,676350,,
676351,8,102.979859,25.123085,长水社区居委会,,530111,0871,530111009007,112,,,,,,,,,2,100,1024,1468,4423,46065,676351,,
676352,8,102.881098,25.04567,沙井社区居委会,,530111,0871,530111009008,112,,,,,,,,,2,100,1024,1468,4423,46065,676352,,
676353,8,102.931174,25.059268,新发社区居委会,,530111,0871,530111009009,112,,,,,,,,,2,100,1024,1468,4423,46065,676353,,
676354,8,102.993402,25.040003,阿底社区居委会,,530111,0871,530111009010,220,,,,,,,,,2,100,1024,1468,4423,46065,676354,,
676355,8,102.96608,24.994995,一朵云社区居委会,,530111,0871,530111009011,220,,,,,,,,,2,100,1024,1468,4423,46065,676355,,
676356,8,103.00643,25.140872,云桥社区居委会,,530111,0871,530111009012,112,,,,,,,,,2,100,1024,1468,4423,46065,676356,,
676357,8,102.961607,25.161817,白汉场社区居委会,,530111,0871,530111009013,112,,,,,,,,,2,100,1024,1468,4423,46065,676357,,
676358,8,102.881098,25.04567,矣纳社区居委会,,530111,0871,530111009014,220,,,,,,,,,2,100,1024,1468,4423,46065,676358,,
676359,8,102.954354,25.126078,乌西社区居委会,,530111,0871,530111009015,112,,,,,,,,,2,100,1024,1468,4423,46065,676359,,
676360,8,102.967412,25.175099,小哨社区居委会,,530111,0871,530111009016,220,,,,,,,,,2,100,1024,1468,4423,46065,676360,,
676361,8,102.921559,25.187485,兔耳社区居委会,,530111,0871,530111009017,220,,,,,,,,,2,100,1024,1468,4423,46065,676361,,
676362,8,102.952269,25.228492,上对龙社区居委会,,530111,0871,530111009018,220,,,,,,,,,2,100,1024,1468,4423,46065,676362,,
676363,8,102.96278,25.218034,中对龙社区居委会,,530111,0871,530111009019,220,,,,,,,,,2,100,1024,1468,4423,46065,676363,,
676364,8,102.881098,25.04567,云瑞社区居委会,,530111,0871,530111009020,112,,,,,,,,,2,100,1024,1468,4423,46065,676364,,
676365,8,102.804058,24.992121,普照居委会,,530111,0871,530111010001,111,,,,,,,,,2,100,1024,1468,4423,46066,676365,,
676366,8,102.821571,24.995859,石坝居委会,,530111,0871,530111010002,112,,,,,,,,,2,100,1024,1468,4423,46066,676366,,
676367,8,102.85071,25.01089,阿拉居委会,,530111,0871,530111010003,112,,,,,,,,,2,100,1024,1468,4423,46066,676367,,
676368,8,102.842669,25.020295,高坡居委会,,530111,0871,530111010004,112,,,,,,,,,2,100,1024,1468,4423,46066,676368,,
676369,8,102.843007,25.020697,海子居委会,,530111,0871,530111010005,112,,,,,,,,,2,100,1024,1468,4423,46066,676369,,
676370,8,102.885065,24.989533,清水居委会,,530111,0871,530111010006,112,,,,,,,,,2,100,1024,1468,4423,46066,676370,,
676371,8,102.793806,24.998889,八公里社区居委会,,530111,0871,530111010007,111,,,,,,,,,2,100,1024,1468,4423,46066,676371,,
676372,8,102.793806,24.998889,长春社区居民委员会,,530111,0871,530111010008,111,,,,,,,,,2,100,1024,1468,4423,46066,676372,,
676373,8,102.82113,24.982351,昌宏社区居民委员会,,530111,0871,530111402001,111,,,,,,,,,2,100,1024,1468,4423,46067,676373,,
676374,8,102.82113,24.982351,昆船社区居民委员会,,530111,0871,530111402002,111,,,,,,,,,2,100,1024,1468,4423,46067,676374,,
676375,8,102.804504,24.982842,云南航天社区居民委员会,,530111,0871,530111402003,111,,,,,,,,,2,100,1024,1468,4423,46067,676375,,
676376,8,102.82113,24.982351,顺通社区居民委员会,,530111,0871,530111402004,111,,,,,,,,,2,100,1024,1468,4423,46067,676376,,
676377,8,102.82113,24.982351,云知社区居民委员会,,530111,0871,530111402005,111,,,,,,,,,2,100,1024,1468,4423,46067,676377,,
676378,8,102.667788,25.040889,凯苑社区居委会,,530112,0871,530112001001,111,,,,,,,,,2,100,1024,1468,4424,46068,676378,,
676379,8,102.656544,25.037551,丽苑社区居委会,,530112,0871,530112001002,111,,,,,,,,,2,100,1024,1468,4424,46068,676379,,
676380,8,102.669006,25.038278,秋苑社区居委会,,530112,0871,530112001003,111,,,,,,,,,2,100,1024,1468,4424,46068,676380,,
676381,8,102.667037,25.034834,秀苑社区居委会,,530112,0871,530112001004,111,,,,,,,,,2,100,1024,1468,4424,46068,676381,,
676382,8,102.672485,25.042997,春苑社区居委会,,530112,0871,530112001005,111,,,,,,,,,2,100,1024,1468,4424,46068,676382,,
676383,8,102.659624,25.046127,张峰社区居委会,,530112,0871,530112002001,111,,,,,,,,,2,100,1024,1468,4424,46069,676383,,
676384,8,102.663586,25.026102,明波社区居委会,,530112,0871,530112002002,111,,,,,,,,,2,100,1024,1468,4424,46069,676384,,
676385,8,102.6406,25.030868,马街社区居委会,,530112,0871,530112002003,111,,,,,,,,,2,100,1024,1468,4424,46069,676385,,
676386,8,102.657153,25.025579,积善社区居委会,,530112,0871,530112002004,111,,,,,,,,,2,100,1024,1468,4424,46069,676386,,
676387,8,102.663103,25.042526,梁源社区居委会,,530112,0871,530112002005,111,,,,,,,,,2,100,1024,1468,4424,46069,676387,,
676388,8,102.642823,25.037566,大渔社区居委会,,530112,0871,530112002006,111,,,,,,,,,2,100,1024,1468,4424,46069,676388,,
676389,8,102.627089,25.018488,普坪社区居委会,,530112,0871,530112002007,111,,,,,,,,,2,100,1024,1468,4424,46069,676389,,
676390,8,102.647229,25.040251,德缘社区居委会,,530112,0871,530112002008,111,,,,,,,,,2,100,1024,1468,4424,46069,676390,,
676391,8,102.647354,25.045973,西丽园社区居委会,,530112,0871,530112002009,111,,,,,,,,,2,100,1024,1468,4424,46069,676391,,
676392,8,102.647229,25.040251,马街北路社区居委会,,530112,0871,530112002010,111,,,,,,,,,2,100,1024,1468,4424,46069,676392,,
676393,8,102.636372,25.038071,春雨路社区居委会,,530112,0871,530112002011,111,,,,,,,,,2,100,1024,1468,4424,46069,676393,,
676394,8,102.704849,25.026532,气象路社区居委会,,530112,0871,530112003001,111,,,,,,,,,2,100,1024,1468,4424,46070,676394,,
676395,8,102.708671,25.030751,金碧社区居委会,,530112,0871,530112003002,111,,,,,,,,,2,100,1024,1468,4424,46070,676395,,
676396,8,102.709633,25.027465,书林街社区居委会,,530112,0871,530112003003,111,,,,,,,,,2,100,1024,1468,4424,46070,676396,,
676397,8,102.712248,25.031334,得胜桥社区居委会,,530112,0871,530112003004,111,,,,,,,,,2,100,1024,1468,4424,46070,676397,,
676398,8,102.712948,25.027195,巡津新村社区居委会,,530112,0871,530112003005,111,,,,,,,,,2,100,1024,1468,4424,46070,676398,,
676399,8,102.694941,25.022212,严家地社区居委会,,530112,0871,530112003006,111,,,,,,,,,2,100,1024,1468,4424,46070,676399,,
676400,8,102.708264,25.023579,西岳庙社区居委会,,530112,0871,530112003007,111,,,,,,,,,2,100,1024,1468,4424,46070,676400,,
676401,8,102.706076,25.032634,复兴社区居委会,,530112,0871,530112003008,111,,,,,,,,,2,100,1024,1468,4424,46070,676401,,
676402,8,102.701118,25.028688,弥勒寺社区居委会,,530112,0871,530112003009,111,,,,,,,,,2,100,1024,1468,4424,46070,676402,,
676403,8,102.692321,25.029197,西坝南社区居委会,,530112,0871,530112003010,111,,,,,,,,,2,100,1024,1468,4424,46070,676403,,
676404,8,102.704849,25.026532,西坝北社区居委会,,530112,0871,530112003011,111,,,,,,,,,2,100,1024,1468,4424,46070,676404,,
676405,8,102.689033,25.034805,卢家营社区居委会,,530112,0871,530112003012,111,,,,,,,,,2,100,1024,1468,4424,46070,676405,,
676406,8,102.704399,25.027286,工人新村社区居委会,,530112,0871,530112003013,111,,,,,,,,,2,100,1024,1468,4424,46070,676406,,
676407,8,102.69018,25.030503,河南社区居委会,,530112,0871,530112003014,111,,,,,,,,,2,100,1024,1468,4424,46070,676407,,
676408,8,102.704849,25.026532,立夏社区居委会,,530112,0871,530112003015,111,,,,,,,,,2,100,1024,1468,4424,46070,676408,,
676409,8,102.698875,25.018207,永顺里社区居委会,,530112,0871,530112004001,111,,,,,,,,,2,100,1024,1468,4424,46071,676409,,
676410,8,102.703043,25.020996,永兴路社区居委会,,530112,0871,530112004002,111,,,,,,,,,2,100,1024,1468,4424,46071,676410,,
676411,8,102.704108,25.018035,益康路社区居委会,,530112,0871,530112004003,111,,,,,,,,,2,100,1024,1468,4424,46071,676411,,
676412,8,102.70889,25.015223,黄瓜营社区居委会,,530112,0871,530112004004,111,,,,,,,,,2,100,1024,1468,4424,46071,676412,,
676413,8,102.706344,25.017868,螺蛳湾社区居委会,,530112,0871,530112004005,111,,,,,,,,,2,100,1024,1468,4424,46071,676413,,
676414,8,102.701545,25.016685,永宁里社区居委会,,530112,0871,530112004006,111,,,,,,,,,2,100,1024,1468,4424,46071,676414,,
676415,8,102.71172,25.019664,云纺社区居委会,,530112,0871,530112004007,111,,,,,,,,,2,100,1024,1468,4424,46071,676415,,
676416,8,102.705601,25.020148,金花针织社区居委会,,530112,0871,530112004008,111,,,,,,,,,2,100,1024,1468,4424,46071,676416,,
676417,8,102.705676,25.014209,永和里社区居委会,,530112,0871,530112004009,111,,,,,,,,,2,100,1024,1468,4424,46071,676417,,
676418,8,102.706925,25.011339,马家社区居委会,,530112,0871,530112004010,111,,,,,,,,,2,100,1024,1468,4424,46071,676418,,
676419,8,102.705238,25.016582,永联社区居委会,,530112,0871,530112004011,111,,,,,,,,,2,100,1024,1468,4424,46071,676419,,
676420,8,102.6972,25.0114,金牛社区居委会,,530112,0871,530112004012,111,,,,,,,,,2,100,1024,1468,4424,46071,676420,,
676421,8,102.705601,25.020148,盛高大城社区居委会,,530112,0871,530112004013,111,,,,,,,,,2,100,1024,1468,4424,46071,676421,,
676422,8,102.711008,25.011558,马洒营社区居委会,,530112,0871,530112004014,111,,,,,,,,,2,100,1024,1468,4424,46071,676422,,
676423,8,102.705601,25.020148,华昌路社区居委会,,530112,0871,530112004015,111,,,,,,,,,2,100,1024,1468,4424,46071,676423,,
676424,8,102.698006,25.007956,金坤社区居委会,,530112,0871,530112004016,111,,,,,,,,,2,100,1024,1468,4424,46071,676424,,
676425,8,102.705917,25.004259,官庄社区居委会,,530112,0871,530112005001,111,,,,,,,,,2,100,1024,1468,4424,46072,676425,,
676426,8,102.700096,24.987035,拥护社区居委会,,530112,0871,530112005002,111,,,,,,,,,2,100,1024,1468,4424,46072,676426,,
676427,8,102.714222,25.00595,南坝社区居委会,,530112,0871,530112005003,111,,,,,,,,,2,100,1024,1468,4424,46072,676427,,
676428,8,102.692147,24.992469,红庙社区居委会,,530112,0871,530112005004,111,,,,,,,,,2,100,1024,1468,4424,46072,676428,,
676429,8,102.709875,25.002116,广福社区居委会,,530112,0871,530112005005,111,,,,,,,,,2,100,1024,1468,4424,46072,676429,,
676430,8,102.692497,24.993283,世纪半岛社区居委会,,530112,0871,530112005007,111,,,,,,,,,2,100,1024,1468,4424,46072,676430,,
676431,8,102.715712,24.989332,同德锦江社区居委会,,530112,0871,530112005008,111,,,,,,,,,2,100,1024,1468,4424,46072,676431,,
676432,8,102.71874,24.995014,望江路社区居委会,,530112,0871,530112005009,111,,,,,,,,,2,100,1024,1468,4424,46072,676432,,
676433,8,102.709875,25.002116,四道坝社区居委会,,530112,0871,530112005010,111,,,,,,,,,2,100,1024,1468,4424,46072,676433,,
676434,8,102.684098,25.019989,船房社区居委会,,530112,0871,530112006001,111,,,,,,,,,2,100,1024,1468,4424,46073,676434,,
676435,8,102.679433,25.024689,河北社区居委会,,530112,0871,530112006002,111,,,,,,,,,2,100,1024,1468,4424,46073,676435,,
676436,8,102.683152,25.004322,杨家社区居委会,,530112,0871,530112006003,111,,,,,,,,,2,100,1024,1468,4424,46073,676436,,
676437,8,102.69369,25.00433,陆家社区居委会,,530112,0871,530112006004,111,,,,,,,,,2,100,1024,1468,4424,46073,676437,,
676438,8,102.6652,25.000149,福海社区居委会,,530112,0871,530112006005,111,,,,,,,,,2,100,1024,1468,4424,46073,676438,,
676439,8,102.655662,24.997437,新河社区居委会,,530112,0871,530112006006,111,,,,,,,,,2,100,1024,1468,4424,46073,676439,,
676440,8,102.680643,25.001488,滇池路社区居委会,,530112,0871,530112006009,111,,,,,,,,,2,100,1024,1468,4424,46073,676440,,
676441,8,102.671362,25.005715,阳光社区居委会,,530112,0871,530112006010,111,,,,,,,,,2,100,1024,1468,4424,46073,676441,,
676442,8,102.681908,25.010759,红星社区居委会,,530112,0871,530112006011,111,,,,,,,,,2,100,1024,1468,4424,46073,676442,,
676443,8,102.682766,25.038282,棕树营南区社区居委会,,530112,0871,530112007001,111,,,,,,,,,2,100,1024,1468,4424,46074,676443,,
676444,8,102.681448,25.039468,棕树营北区社区居委会,,530112,0871,530112007002,111,,,,,,,,,2,100,1024,1468,4424,46074,676444,,
676445,8,102.686741,25.038885,白马东区社区居委会,,530112,0871,530112007003,111,,,,,,,,,2,100,1024,1468,4424,46074,676445,,
676446,8,102.677282,25.032871,白马西区社区居委会,,530112,0871,530112007004,111,,,,,,,,,2,100,1024,1468,4424,46074,676446,,
676447,8,102.678097,25.033916,近华社区居委会,,530112,0871,530112007005,111,,,,,,,,,2,100,1024,1468,4424,46074,676447,,
676448,8,102.67944,25.040815,鱼翅路社区居委会,,530112,0871,530112007006,111,,,,,,,,,2,100,1024,1468,4424,46074,676448,,
676449,8,102.670211,25.035015,土堆社区居委会,,530112,0871,530112007007,111,,,,,,,,,2,100,1024,1468,4424,46074,676449,,
676450,8,102.686741,25.038885,医大社区居委会,,530112,0871,530112007008,111,,,,,,,,,2,100,1024,1468,4424,46074,676450,,
676451,8,102.686741,25.038885,六合社区居委会,,530112,0871,530112007009,111,,,,,,,,,2,100,1024,1468,4424,46074,676451,,
676452,8,102.613702,24.994502,碧鸡社区居委会,,530112,0871,530112008001,111,,,,,,,,,2,100,1024,1468,4424,46075,676452,,
676453,8,102.66127,24.836161,观音山社区居委会,,530112,0871,530112008002,220,,,,,,,,,2,100,1024,1468,4424,46075,676453,,
676454,8,102.654853,24.873593,西华社区居委会,,530112,0871,530112008003,220,,,,,,,,,2,100,1024,1468,4424,46075,676454,,
676455,8,102.633316,24.969264,龙门社区居委会,,530112,0871,530112008004,112,,,,,,,,,2,100,1024,1468,4424,46075,676455,,
676456,8,102.653749,24.899381,富善社区居委会,,530112,0871,530112008005,220,,,,,,,,,2,100,1024,1468,4424,46075,676456,,
676457,8,102.59292,24.96792,长坡社区居委会,,530112,0871,530112008006,220,,,,,,,,,2,100,1024,1468,4424,46075,676457,,
676458,8,102.62582,24.932666,猫猫箐社区居委会,,530112,0871,530112008007,220,,,,,,,,,2,100,1024,1468,4424,46075,676458,,
676459,8,102.64503,24.861663,黑荞母社区居委会,,530112,0871,530112008008,220,,,,,,,,,2,100,1024,1468,4424,46075,676459,,
676460,8,102.624776,24.982891,赤甲社区居委会,,530112,0871,530112008009,111,,,,,,,,,2,100,1024,1468,4424,46075,676460,,
676461,8,102.607729,24.785733,海门社区居委会,,530112,0871,530112009001,111,,,,,,,,,2,100,1024,1468,4424,46076,676461,,
676462,8,102.58762,24.79303,里仁社区居委会,,530112,0871,530112009002,112,,,,,,,,,2,100,1024,1468,4424,46076,676462,,
676463,8,102.651421,24.80623,白鱼社区居委会,,530112,0871,530112009003,220,,,,,,,,,2,100,1024,1468,4424,46076,676463,,
676464,8,102.608982,24.784034,海丰社区居委会,,530112,0871,530112009004,112,,,,,,,,,2,100,1024,1468,4424,46076,676464,,
676465,8,102.563093,24.789329,中新社区居委会,,530112,0871,530112009005,220,,,,,,,,,2,100,1024,1468,4424,46076,676465,,
676466,8,102.54716,24.791159,中宝社区居委会,,530112,0871,530112009006,220,,,,,,,,,2,100,1024,1468,4424,46076,676466,,
676467,8,102.608982,24.784034,桃树社区居委会,,530112,0871,530112009007,220,,,,,,,,,2,100,1024,1468,4424,46076,676467,,
676468,8,102.546302,24.794372,中平社区居委会,,530112,0871,530112009008,220,,,,,,,,,2,100,1024,1468,4424,46076,676468,,
676469,8,102.539974,24.821481,云龙社区居委会,,530112,0871,530112009009,220,,,,,,,,,2,100,1024,1468,4424,46076,676469,,
676470,8,102.51552,24.838761,青鱼社区居委会,,530112,0871,530112009010,220,,,,,,,,,2,100,1024,1468,4424,46076,676470,,
676471,8,102.608982,24.784034,双哨社区居委会,,530112,0871,530112009011,220,,,,,,,,,2,100,1024,1468,4424,46076,676471,,
676472,8,102.585244,24.799953,山冲社区居委会,,530112,0871,530112009012,112,,,,,,,,,2,100,1024,1468,4424,46076,676472,,
676473,8,102.53337,25.072983,龙潭社区居委会,,530112,0871,530112010001,111,,,,,,,,,2,100,1024,1468,4424,46077,676473,,
676474,8,102.542842,25.069749,和平社区居委会,,530112,0871,530112010002,112,,,,,,,,,2,100,1024,1468,4424,46077,676474,,
676475,8,102.558025,24.992666,大兴社区居委会,,530112,0871,530112010003,220,,,,,,,,,2,100,1024,1468,4424,46077,676475,,
676476,8,102.561454,25.013757,白眉社区居委会,,530112,0871,530112010004,220,,,,,,,,,2,100,1024,1468,4424,46077,676476,,
676477,8,102.5341,25.071749,棋台社区居委会,,530112,0871,530112010005,220,,,,,,,,,2,100,1024,1468,4424,46077,676477,,
676478,8,102.5341,25.071749,妥吉社区居委会,,530112,0871,530112010006,220,,,,,,,,,2,100,1024,1468,4424,46077,676478,,
676479,8,102.588274,25.080284,雨花社区居委会,,530112,0871,530112010007,220,,,,,,,,,2,100,1024,1468,4424,46077,676479,,
676480,8,102.606265,25.051239,花红园社区居委会,,530112,0871,530112010008,220,,,,,,,,,2,100,1024,1468,4424,46077,676480,,
676481,8,102.5341,25.071749,永靖社区居委会,,530112,0871,530112010009,220,,,,,,,,,2,100,1024,1468,4424,46077,676481,,
676482,8,102.535029,25.131714,下冲社区居委会,,530112,0871,530112010010,220,,,,,,,,,2,100,1024,1468,4424,46077,676482,,
676483,8,102.434251,25.148878,朵亩社区居委会,,530112,0871,530112010011,220,,,,,,,,,2,100,1024,1468,4424,46077,676483,,
676484,8,102.521461,25.149123,谷律社区居委会,,530112,0871,530112010012,220,,,,,,,,,2,100,1024,1468,4424,46077,676484,,
676485,8,102.5341,25.071749,妥排社区居委会,,530112,0871,530112010013,220,,,,,,,,,2,100,1024,1468,4424,46077,676485,,
676486,8,102.5341,25.071749,律则社区居委会,,530112,0871,530112010014,220,,,,,,,,,2,100,1024,1468,4424,46077,676486,,
676487,8,102.5341,25.071749,乐亩社区居委会,,530112,0871,530112010015,220,,,,,,,,,2,100,1024,1468,4424,46077,676487,,
676488,8,102.441202,25.170191,蔡家社区居委会,,530112,0871,530112010016,220,,,,,,,,,2,100,1024,1468,4424,46077,676488,,
676489,8,102.679389,24.976836,太河社区居委会,,530112,0871,530112403002,112,,,,,,,,,2,100,1024,1468,4424,46078,676489,,
676490,8,102.701793,24.974784,金河社区居委会,,530112,0871,530112403004,112,,,,,,,,,2,100,1024,1468,4424,46078,676490,,
676491,8,102.670021,24.996053,大坝社区居委会,,530112,0871,530112403007,111,,,,,,,,,2,100,1024,1468,4424,46078,676491,,
676492,8,102.680527,24.996122,周家社区居委会,,530112,0871,530112403008,111,,,,,,,,,2,100,1024,1468,4424,46078,676492,,
676493,8,102.673186,24.97534,星海社区居委会,,530112,0871,530112403009,111,,,,,,,,,2,100,1024,1468,4424,46078,676493,,
676494,8,102.673186,24.97534,金家社区居委会,,530112,0871,530112403010,112,,,,,,,,,2,100,1024,1468,4424,46078,676494,,
676495,8,102.673186,24.97534,怡景社区居委会,,530112,0871,530112403401,111,,,,,,,,,2,100,1024,1468,4424,46078,676495,,
676496,8,102.692332,24.971834,卫城社区居委会,,530112,0871,530112403402,111,,,,,,,,,2,100,1024,1468,4424,46078,676496,,
676497,8,102.665232,24.985965,采莲社区居委会,,530112,0871,530112403403,111,,,,,,,,,2,100,1024,1468,4424,46078,676497,,
676498,8,102.709459,24.97346,滨江社区居委会,,530112,0871,530112403404,111,,,,,,,,,2,100,1024,1468,4424,46078,676498,,
676499,8,103.188881,26.07221,京铜社区居委会,,530113,0871,530113001001,111,,,,,,,,,2,100,1024,1468,4425,46079,676499,,
676500,8,103.189749,26.06688,碧云社区居委会,,530113,0871,530113001002,111,,,,,,,,,2,100,1024,1468,4425,46079,676500,,
676501,8,103.189749,26.06688,桂苑社区居委会,,530113,0871,530113001003,111,,,,,,,,,2,100,1024,1468,4425,46079,676501,,
676502,8,103.189749,26.06688,沙坝社区居委会,,530113,0871,530113001004,111,,,,,,,,,2,100,1024,1468,4425,46079,676502,,
676503,8,103.187486,26.07787,白云社区居委会,,530113,0871,530113001005,111,,,,,,,,,2,100,1024,1468,4425,46079,676503,,
676504,8,103.167917,26.111814,新街社区居委会,,530113,0871,530113001006,111,,,,,,,,,2,100,1024,1468,4425,46079,676504,,
676505,8,103.189749,26.06688,桥北社区居委会,,530113,0871,530113001007,111,,,,,,,,,2,100,1024,1468,4425,46079,676505,,
676506,8,103.185946,26.088936,深沟社区居委会,,530113,0871,530113001008,112,,,,,,,,,2,100,1024,1468,4425,46079,676506,,
676507,8,103.18347,26.088274,集义社区居委会,,530113,0871,530113001009,112,,,,,,,,,2,100,1024,1468,4425,46079,676507,,
676508,8,103.182869,26.079996,炎山社区居委会,,530113,0871,530113001010,111,,,,,,,,,2,100,1024,1468,4425,46079,676508,,
676509,8,103.19504,26.070202,腊利社区居委会,,530113,0871,530113001011,112,,,,,,,,,2,100,1024,1468,4425,46079,676509,,
676510,8,103.184315,26.083251,团结社区居委会,,530113,0871,530113001012,111,,,,,,,,,2,100,1024,1468,4425,46079,676510,,
676511,8,103.189749,26.06688,金桥社区居委会,,530113,0871,530113001013,111,,,,,,,,,2,100,1024,1468,4425,46079,676511,,
676512,8,103.189749,26.06688,祥和社区居委会,,530113,0871,530113001014,111,,,,,,,,,2,100,1024,1468,4425,46079,676512,,
676513,8,103.189749,26.06688,达贝社区居委会,,530113,0871,530113001015,112,,,,,,,,,2,100,1024,1468,4425,46079,676513,,
676514,8,103.189749,26.06688,尼拉姑社区居委会,,530113,0871,530113001016,112,,,,,,,,,2,100,1024,1468,4425,46079,676514,,
676515,8,103.189749,26.06688,石羊社区居委会,,530113,0871,530113001017,112,,,,,,,,,2,100,1024,1468,4425,46079,676515,,
676516,8,103.159097,26.128421,龙潭社区居委会,,530113,0871,530113001018,112,,,,,,,,,2,100,1024,1468,4425,46079,676516,,
676517,8,103.16224,26.112239,小新街社区居委会,,530113,0871,530113001019,112,,,,,,,,,2,100,1024,1468,4425,46079,676517,,
676518,8,103.189749,26.06688,洗尾嘎社区居委会,,530113,0871,530113001020,112,,,,,,,,,2,100,1024,1468,4425,46079,676518,,
676519,8,103.189749,26.06688,糯谷田社区居委会,,530113,0871,530113001021,112,,,,,,,,,2,100,1024,1468,4425,46079,676519,,
676520,8,103.189749,26.06688,起嘎社区居委会,,530113,0871,530113001022,112,,,,,,,,,2,100,1024,1468,4425,46079,676520,,
676521,8,103.189749,26.06688,营盘社区居委会,,530113,0871,530113001023,220,,,,,,,,,2,100,1024,1468,4425,46079,676521,,
676522,8,103.189749,26.06688,翔鹏社区居委会,,530113,0871,530113001024,111,,,,,,,,,2,100,1024,1468,4425,46079,676522,,
676523,8,103.189749,26.06688,嘉和社区居委会,,530113,0871,530113001025,111,,,,,,,,,2,100,1024,1468,4425,46079,676523,,
676524,8,103.189749,26.06688,铜晖社区,,530113,0871,530113001026,111,,,,,,,,,2,100,1024,1468,4425,46079,676524,,
676525,8,103.189749,26.06688,鲁嘎社区,,530113,0871,530113001027,111,,,,,,,,,2,100,1024,1468,4425,46079,676525,,
676526,8,103.189749,26.06688,铜润社区,,530113,0871,530113001028,111,,,,,,,,,2,100,1024,1468,4425,46079,676526,,
676527,8,103.189749,26.06688,铜源社区,,530113,0871,530113001029,111,,,,,,,,,2,100,1024,1468,4425,46079,676527,,
676528,8,103.189749,26.06688,木树朗村委会,,530113,0871,530113001201,220,,,,,,,,,2,100,1024,1468,4425,46079,676528,,
676529,8,103.189749,26.06688,小牛厂村委会,,530113,0871,530113001202,220,,,,,,,,,2,100,1024,1468,4425,46079,676529,,
676530,8,103.189749,26.06688,奔多村委会,,530113,0871,530113001203,220,,,,,,,,,2,100,1024,1468,4425,46079,676530,,
676531,8,103.189749,26.06688,赖石窝村委会,,530113,0871,530113001204,220,,,,,,,,,2,100,1024,1468,4425,46079,676531,,
676532,8,103.189749,26.06688,岩脚村委会,,530113,0871,530113001205,220,,,,,,,,,2,100,1024,1468,4425,46079,676532,,
676533,8,103.158644,26.063936,龙洞村委会,,530113,0871,530113001206,220,,,,,,,,,2,100,1024,1468,4425,46079,676533,,
676534,8,103.148601,26.05335,梨坪村委会,,530113,0871,530113001207,220,,,,,,,,,2,100,1024,1468,4425,46079,676534,,
676535,8,103.12966,26.036876,块河村委会,,530113,0871,530113001208,220,,,,,,,,,2,100,1024,1468,4425,46079,676535,,
676536,8,103.15588,26.157517,大寨村委会,,530113,0871,530113001209,220,,,,,,,,,2,100,1024,1468,4425,46079,676536,,
676537,8,103.189749,26.06688,中殿村委会,,530113,0871,530113001210,220,,,,,,,,,2,100,1024,1468,4425,46079,676537,,
676538,8,103.189749,26.06688,李子沟村委会,,530113,0871,530113001211,220,,,,,,,,,2,100,1024,1468,4425,46079,676538,,
676539,8,103.189749,26.06688,箐口村委会,,530113,0871,530113001212,220,,,,,,,,,2,100,1024,1468,4425,46079,676539,,
676540,8,103.17873,26.15427,梅子村委会,,530113,0871,530113001213,220,,,,,,,,,2,100,1024,1468,4425,46079,676540,,
676541,8,103.189749,26.06688,嘎德村委会,,530113,0871,530113001214,220,,,,,,,,,2,100,1024,1468,4425,46079,676541,,
676542,8,103.189749,26.06688,鲁嘎箐村委会,,530113,0871,530113001215,220,,,,,,,,,2,100,1024,1468,4425,46079,676542,,
676543,8,103.231007,25.990316,姑海村委会,,530113,0871,530113001216,220,,,,,,,,,2,100,1024,1468,4425,46079,676543,,
676544,8,103.189749,26.06688,达德村委会,,530113,0871,530113001217,220,,,,,,,,,2,100,1024,1468,4425,46079,676544,,
676545,8,103.187825,26.082873,新村村委会,,530113,0871,530113001218,220,,,,,,,,,2,100,1024,1468,4425,46079,676545,,
676546,8,103.189749,26.06688,野牛村委会,,530113,0871,530113001219,220,,,,,,,,,2,100,1024,1468,4425,46079,676546,,
676547,8,103.189749,26.06688,陷塘村委会,,530113,0871,530113001220,220,,,,,,,,,2,100,1024,1468,4425,46079,676547,,
676548,8,103.12575,26.216882,绿茂村委会,,530113,0871,530113001221,220,,,,,,,,,2,100,1024,1468,4425,46079,676548,,
676549,8,103.189749,26.06688,磨盘山村委会,,530113,0871,530113001222,220,,,,,,,,,2,100,1024,1468,4425,46079,676549,,
676550,8,103.12382,26.22854,紫牛村委会,,530113,0871,530113001223,220,,,,,,,,,2,100,1024,1468,4425,46079,676550,,
676551,8,103.1496,26.167279,老村村委会,,530113,0871,530113001224,220,,,,,,,,,2,100,1024,1468,4425,46079,676551,,
676552,8,103.189749,26.06688,河里湾村委会,,530113,0871,530113001225,220,,,,,,,,,2,100,1024,1468,4425,46079,676552,,
676553,8,103.066855,26.177783,菜园社区居委会,,530113,0871,530113102001,121,,,,,,,,,2,100,1024,1468,4425,46080,676553,,
676554,8,103.066855,26.177783,大坪地社区居委会,,530113,0871,530113102002,122,,,,,,,,,2,100,1024,1468,4425,46080,676554,,
676555,8,103.09315,26.18791,洒海村委会,,530113,0871,530113102201,220,,,,,,,,,2,100,1024,1468,4425,46080,676555,,
676556,8,103.079328,26.198467,梨坪村委会,,530113,0871,530113102202,220,,,,,,,,,2,100,1024,1468,4425,46080,676556,,
676557,8,103.06788,26.17696,元宝村委会,,530113,0871,530113102203,122,,,,,,,,,2,100,1024,1468,4425,46080,676557,,
676558,8,103.066855,26.177783,中河村委会,,530113,0871,530113102204,220,,,,,,,,,2,100,1024,1468,4425,46080,676558,,
676559,8,103.066855,26.177783,田坝村委会,,530113,0871,530113102205,220,,,,,,,,,2,100,1024,1468,4425,46080,676559,,
676560,8,103.066855,26.177783,新发村委会,,530113,0871,530113102206,220,,,,,,,,,2,100,1024,1468,4425,46080,676560,,
676561,8,103.04113,26.13375,小河村委会,,530113,0871,530113102207,220,,,,,,,,,2,100,1024,1468,4425,46080,676561,,
676562,8,103.04462,26.11653,新桥村委会,,530113,0871,530113102208,220,,,,,,,,,2,100,1024,1468,4425,46080,676562,,
676563,8,103.066855,26.177783,石庄村委会,,530113,0871,530113102209,220,,,,,,,,,2,100,1024,1468,4425,46080,676563,,
676564,8,103.066855,26.177783,大地坡村委会,,530113,0871,530113102210,220,,,,,,,,,2,100,1024,1468,4425,46080,676564,,
676565,8,103.066855,26.177783,海子村委会,,530113,0871,530113102211,220,,,,,,,,,2,100,1024,1468,4425,46080,676565,,
676566,8,103.066855,26.177783,黄草坪村委会,,530113,0871,530113102212,220,,,,,,,,,2,100,1024,1468,4425,46080,676566,,
676567,8,103.066855,26.177783,姑庄村委会,,530113,0871,530113102213,220,,,,,,,,,2,100,1024,1468,4425,46080,676567,,
676568,8,103.066855,26.177783,同心村委会,,530113,0871,530113102214,220,,,,,,,,,2,100,1024,1468,4425,46080,676568,,
676569,8,103.066855,26.177783,三家村村委会,,530113,0871,530113102215,220,,,,,,,,,2,100,1024,1468,4425,46080,676569,,
676570,8,103.066855,26.177783,风景村委会,,530113,0871,530113102216,220,,,,,,,,,2,100,1024,1468,4425,46080,676570,,
676571,8,103.066855,26.177783,兴隆村委会,,530113,0871,530113102217,220,,,,,,,,,2,100,1024,1468,4425,46080,676571,,
676572,8,103.066855,26.177783,望厂村委会,,530113,0871,530113102218,220,,,,,,,,,2,100,1024,1468,4425,46080,676572,,
676573,8,103.05823,26.25818,杉木村委会,,530113,0871,530113102219,220,,,,,,,,,2,100,1024,1468,4425,46080,676573,,
676574,8,103.066855,26.177783,弯腰树村委会,,530113,0871,530113102220,220,,,,,,,,,2,100,1024,1468,4425,46080,676574,,
676575,8,103.066855,26.177783,中山村委会,,530113,0871,530113102221,220,,,,,,,,,2,100,1024,1468,4425,46080,676575,,
676576,8,103.066855,26.177783,江西村委会,,530113,0871,530113102222,220,,,,,,,,,2,100,1024,1468,4425,46080,676576,,
676577,8,103.066855,26.177783,达朵村委会,,530113,0871,530113102223,220,,,,,,,,,2,100,1024,1468,4425,46080,676577,,
676578,8,103.066855,26.177783,新塘村委会,,530113,0871,530113102224,220,,,,,,,,,2,100,1024,1468,4425,46080,676578,,
676579,8,103.066855,26.177783,新寨村委会,,530113,0871,530113102225,220,,,,,,,,,2,100,1024,1468,4425,46080,676579,,
676580,8,103.066855,26.177783,竹山村委会,,530113,0871,530113102226,220,,,,,,,,,2,100,1024,1468,4425,46080,676580,,
676581,8,102.97016,26.246859,老来红社区居委会,,530113,0871,530113103001,121,,,,,,,,,2,100,1024,1468,4425,46081,676581,,
676582,8,102.924193,26.327923,因民社区居委会,,530113,0871,530113103002,121,,,,,,,,,2,100,1024,1468,4425,46081,676582,,
676583,8,102.924193,26.327923,牛厂坪社区居委会,,530113,0871,530113103003,220,,,,,,,,,2,100,1024,1468,4425,46081,676583,,
676584,8,102.924193,26.327923,田坝社区居委会,,530113,0871,530113103004,121,,,,,,,,,2,100,1024,1468,4425,46081,676584,,
676585,8,102.924193,26.327923,桃树坪村委会,,530113,0871,530113103203,220,,,,,,,,,2,100,1024,1468,4425,46081,676585,,
676586,8,102.924193,26.327923,小水井村委会,,530113,0871,530113103204,220,,,,,,,,,2,100,1024,1468,4425,46081,676586,,
676587,8,102.924193,26.327923,炉灯村委会,,530113,0871,530113103205,220,,,,,,,,,2,100,1024,1468,4425,46081,676587,,
676588,8,102.924193,26.327923,青龙山村委会,,530113,0871,530113103206,220,,,,,,,,,2,100,1024,1468,4425,46081,676588,,
676589,8,102.924193,26.327923,槽子街村委会,,530113,0871,530113103207,220,,,,,,,,,2,100,1024,1468,4425,46081,676589,,
676590,8,102.924193,26.327923,大箐村委会,,530113,0871,530113103208,220,,,,,,,,,2,100,1024,1468,4425,46081,676590,,
676591,8,102.933169,26.27143,红山村委会,,530113,0871,530113103209,220,,,,,,,,,2,100,1024,1468,4425,46081,676591,,
676592,8,102.924193,26.327923,瓦岗寨村委会,,530113,0871,530113103210,220,,,,,,,,,2,100,1024,1468,4425,46081,676592,,
676593,8,102.924193,26.327923,天生塘村委会,,530113,0871,530113103211,220,,,,,,,,,2,100,1024,1468,4425,46081,676593,,
676594,8,102.924193,26.327923,火麻箐村委会,,530113,0871,530113103212,220,,,,,,,,,2,100,1024,1468,4425,46081,676594,,
676595,8,102.924193,26.327923,联盟村委会,,530113,0871,530113103213,220,,,,,,,,,2,100,1024,1468,4425,46081,676595,,
676596,8,103.25315,25.916645,向阳社区居委会,,530113,0871,530113104001,121,,,,,,,,,2,100,1024,1468,4425,46082,676596,,
676597,8,103.253849,25.916335,阿旺村委会,,530113,0871,530113104201,122,,,,,,,,,2,100,1024,1468,4425,46082,676597,,
676598,8,103.253849,25.916335,长岭子村委会,,530113,0871,530113104202,220,,,,,,,,,2,100,1024,1468,4425,46082,676598,,
676599,8,103.253849,25.916335,关中村委会,,530113,0871,530113104203,220,,,,,,,,,2,100,1024,1468,4425,46082,676599,,
676600,8,103.253849,25.916335,木多村委会,,530113,0871,530113104204,220,,,,,,,,,2,100,1024,1468,4425,46082,676600,,
676601,8,103.253849,25.916335,石门村委会,,530113,0871,530113104205,220,,,,,,,,,2,100,1024,1468,4425,46082,676601,,
676602,8,103.253849,25.916335,发罗村委会,,530113,0871,530113104206,220,,,,,,,,,2,100,1024,1468,4425,46082,676602,,
676603,8,103.253849,25.916335,双龙村委会,,530113,0871,530113104207,220,,,,,,,,,2,100,1024,1468,4425,46082,676603,,
676604,8,103.253849,25.916335,安乐村委会,,530113,0871,530113104208,220,,,,,,,,,2,100,1024,1468,4425,46082,676604,,
676605,8,103.253849,25.916335,鲁纳村委会,,530113,0871,530113104209,220,,,,,,,,,2,100,1024,1468,4425,46082,676605,,
676606,8,103.253849,25.916335,拖落村委会,,530113,0871,530113104210,220,,,,,,,,,2,100,1024,1468,4425,46082,676606,,
676607,8,103.253849,25.916335,海科村委会,,530113,0871,530113104211,220,,,,,,,,,2,100,1024,1468,4425,46082,676607,,
676608,8,103.253849,25.916335,新碧嘎村委会,,530113,0871,530113104212,220,,,,,,,,,2,100,1024,1468,4425,46082,676608,,
676609,8,103.250316,25.943092,大石头村委会,,530113,0871,530113104213,220,,,,,,,,,2,100,1024,1468,4425,46082,676609,,
676610,8,103.253849,25.916335,小营村委会,,530113,0871,530113104214,220,,,,,,,,,2,100,1024,1468,4425,46082,676610,,
676611,8,103.253849,25.916335,芋头塘村委会,,530113,0871,530113104215,220,,,,,,,,,2,100,1024,1468,4425,46082,676611,,
676612,8,103.277147,25.86665,岩头村委会,,530113,0871,530113104216,220,,,,,,,,,2,100,1024,1468,4425,46082,676612,,
676613,8,103.097649,26.022585,碑棋社区居委会,,530113,0871,530113105001,121,,,,,,,,,2,100,1024,1468,4425,46083,676613,,
676614,8,103.097649,26.022585,店房社区居委会,,530113,0871,530113105002,122,,,,,,,,,2,100,1024,1468,4425,46083,676614,,
676615,8,103.097649,26.022585,跑马社区居委会,,530113,0871,530113105003,122,,,,,,,,,2,100,1024,1468,4425,46083,676615,,
676616,8,103.097649,26.022585,大村子村委会,,530113,0871,530113105204,220,,,,,,,,,2,100,1024,1468,4425,46083,676616,,
676617,8,103.097649,26.022585,马店村委会,,530113,0871,530113105205,220,,,,,,,,,2,100,1024,1468,4425,46083,676617,,
676618,8,103.097649,26.022585,土城村委会,,530113,0871,530113105206,220,,,,,,,,,2,100,1024,1468,4425,46083,676618,,
676619,8,103.097649,26.022585,园子村委会,,530113,0871,530113105207,220,,,,,,,,,2,100,1024,1468,4425,46083,676619,,
676620,8,103.0892,26.072769,半坡村委会,,530113,0871,530113105208,220,,,,,,,,,2,100,1024,1468,4425,46083,676620,,
676621,8,103.097649,26.022585,坪子村委会,,530113,0871,530113105209,220,,,,,,,,,2,100,1024,1468,4425,46083,676621,,
676622,8,103.097649,26.022585,坝塘村委会,,530113,0871,530113105210,220,,,,,,,,,2,100,1024,1468,4425,46083,676622,,
676623,8,103.097649,26.022585,水井村委会,,530113,0871,530113105211,220,,,,,,,,,2,100,1024,1468,4425,46083,676623,,
676624,8,103.097649,26.022585,包包村委会,,530113,0871,530113105212,220,,,,,,,,,2,100,1024,1468,4425,46083,676624,,
676625,8,103.097649,26.022585,大水井村委会,,530113,0871,530113105213,220,,,,,,,,,2,100,1024,1468,4425,46083,676625,,
676626,8,103.097649,26.022585,瓦房村委会,,530113,0871,530113105214,220,,,,,,,,,2,100,1024,1468,4425,46083,676626,,
676627,8,103.017471,26.024765,法者村委会,,530113,0871,530113106201,121,,,,,,,,,2,100,1024,1468,4425,46084,676627,,
676628,8,103.017471,26.024765,花沟村委会,,530113,0871,530113106202,220,,,,,,,,,2,100,1024,1468,4425,46084,676628,,
676629,8,103.11252,25.94009,松毛棚村委会,,530113,0871,530113106203,220,,,,,,,,,2,100,1024,1468,4425,46084,676629,,
676630,8,103.017471,26.024765,仓房村委会,,530113,0871,530113106204,220,,,,,,,,,2,100,1024,1468,4425,46084,676630,,
676631,8,103.10322,25.957459,新田村委会,,530113,0871,530113106205,220,,,,,,,,,2,100,1024,1468,4425,46084,676631,,
676632,8,103.017471,26.024765,龙树村委会,,530113,0871,530113106206,220,,,,,,,,,2,100,1024,1468,4425,46084,676632,,
676633,8,103.017471,26.024765,银水箐村委会,,530113,0871,530113106207,220,,,,,,,,,2,100,1024,1468,4425,46084,676633,,
676634,8,103.017471,26.024765,蚂蟥箐村委会,,530113,0871,530113106208,220,,,,,,,,,2,100,1024,1468,4425,46084,676634,,
676635,8,103.017471,26.024765,二坪子村委会,,530113,0871,530113106209,220,,,,,,,,,2,100,1024,1468,4425,46084,676635,,
676636,8,102.92217,26.094429,炭房村委会,,530113,0871,530113106210,220,,,,,,,,,2,100,1024,1468,4425,46084,676636,,
676637,8,103.01894,26.04299,蚌德村委会,,530113,0871,530113106211,220,,,,,,,,,2,100,1024,1468,4425,46084,676637,,
676638,8,103.035841,26.064789,大坪子村委会,,530113,0871,530113106212,220,,,,,,,,,2,100,1024,1468,4425,46084,676638,,
676639,8,103.017471,26.024765,石羊厩村委会,,530113,0871,530113106213,220,,,,,,,,,2,100,1024,1468,4425,46084,676639,,
676640,8,103.017471,26.024765,茅坝子村委会,,530113,0871,530113106214,220,,,,,,,,,2,100,1024,1468,4425,46084,676640,,
676641,8,102.983621,26.06678,新乐村委会,,530113,0871,530113106215,220,,,,,,,,,2,100,1024,1468,4425,46084,676641,,
676642,8,103.044116,26.371358,新街村委会,,530113,0871,530113107201,121,,,,,,,,,2,100,1024,1468,4425,46085,676642,,
676643,8,103.05023,26.32568,松坪村委会,,530113,0871,530113107202,220,,,,,,,,,2,100,1024,1468,4425,46085,676643,,
676644,8,103.044116,26.371358,布卡村委会,,530113,0871,530113107203,122,,,,,,,,,2,100,1024,1468,4425,46085,676644,,
676645,8,103.044116,26.371358,安乐箐村委会,,530113,0871,530113107204,220,,,,,,,,,2,100,1024,1468,4425,46085,676645,,
676646,8,103.044116,26.371358,大荒地村委会,,530113,0871,530113107205,220,,,,,,,,,2,100,1024,1468,4425,46085,676646,,
676647,8,103.02172,26.393519,小陷塘村委会,,530113,0871,530113107206,220,,,,,,,,,2,100,1024,1468,4425,46085,676647,,
676648,8,103.044116,26.371358,西瓜地村委会,,530113,0871,530113107207,220,,,,,,,,,2,100,1024,1468,4425,46085,676648,,
676649,8,103.082345,26.352767,新店房村委会,,530113,0871,530113107208,220,,,,,,,,,2,100,1024,1468,4425,46085,676649,,
676650,8,103.044116,26.371358,桃园村委会,,530113,0871,530113107209,220,,,,,,,,,2,100,1024,1468,4425,46085,676650,,
676651,8,103.044116,26.371358,树桔村委会,,530113,0871,530113107210,220,,,,,,,,,2,100,1024,1468,4425,46085,676651,,
676652,8,103.044116,26.371358,奚家坪村委会,,530113,0871,530113107211,220,,,,,,,,,2,100,1024,1468,4425,46085,676652,,
676653,8,103.044116,26.371358,上水坪村委会,,530113,0871,530113107212,220,,,,,,,,,2,100,1024,1468,4425,46085,676653,,
676654,8,103.03582,26.420829,播卡村委会,,530113,0871,530113107213,220,,,,,,,,,2,100,1024,1468,4425,46085,676654,,
676655,8,103.044116,26.371358,苦桃树村委会,,530113,0871,530113107214,220,,,,,,,,,2,100,1024,1468,4425,46085,676655,,
676656,8,103.044116,26.371358,坡头村委会,,530113,0871,530113107215,220,,,,,,,,,2,100,1024,1468,4425,46085,676656,,
676657,8,103.044116,26.371358,大树脚村委会,,530113,0871,530113107216,220,,,,,,,,,2,100,1024,1468,4425,46085,676657,,
676658,8,103.03542,26.456249,象鼻村委会,,530113,0871,530113107217,220,,,,,,,,,2,100,1024,1468,4425,46085,676658,,
676659,8,103.056206,26.516188,格勒村委会,,530113,0871,530113107218,220,,,,,,,,,2,100,1024,1468,4425,46085,676659,,
676660,8,102.82983,26.238982,舍块村委会,,530113,0871,530113201201,210,,,,,,,,,2,100,1024,1468,4425,46086,676660,,
676661,8,102.82983,26.238982,团结村委会,,530113,0871,530113201202,220,,,,,,,,,2,100,1024,1468,4425,46086,676661,,
676662,8,102.82983,26.238982,新和村委会,,530113,0871,530113201203,220,,,,,,,,,2,100,1024,1468,4425,46086,676662,,
676663,8,102.82983,26.238982,九龙村委会,,530113,0871,530113201204,220,,,,,,,,,2,100,1024,1468,4425,46086,676663,,
676664,8,102.82983,26.238982,云坪村委会,,530113,0871,530113201205,220,,,,,,,,,2,100,1024,1468,4425,46086,676664,,
676665,8,102.82983,26.238982,茂炉村委会,,530113,0871,530113201206,220,,,,,,,,,2,100,1024,1468,4425,46086,676665,,
676666,8,102.82983,26.238982,白鹤村委会,,530113,0871,530113201207,220,,,,,,,,,2,100,1024,1468,4425,46086,676666,,
676667,8,102.82983,26.238982,新山村委会,,530113,0871,530113201208,220,,,,,,,,,2,100,1024,1468,4425,46086,676667,,
676668,8,102.801531,24.895421,城内社区居民委员会,,530114,0871,530114001001,111,,,,,,,,,2,100,1024,1468,4426,46087,676668,,
676669,8,102.794827,24.887513,古城社区居民委员会,,530114,0871,530114001002,111,,,,,,,,,2,100,1024,1468,4426,46087,676669,,
676670,8,102.803671,24.883978,龙街社区居民委员会,,530114,0871,530114001003,111,,,,,,,,,2,100,1024,1468,4426,46087,676670,,
676671,8,102.798573,24.891228,洛龙湖社区居民委员会,,530114,0871,530114001004,111,,,,,,,,,2,100,1024,1468,4426,46087,676671,,
676672,8,102.798573,24.891228,龙城社区居民委员会,,530114,0871,530114001005,111,,,,,,,,,2,100,1024,1468,4426,46087,676672,,
676673,8,102.798573,24.891228,众合社区居民委员会,,530114,0871,530114001006,111,,,,,,,,,2,100,1024,1468,4426,46087,676673,,
676674,8,102.826355,24.893349,洛龙社区居民委员会,,530114,0871,530114002001,112,,,,,,,,,2,100,1024,1468,4426,46088,676674,,
676675,8,102.84572,24.86774,王家营社区居民委员会,,530114,0871,530114002002,112,,,,,,,,,2,100,1024,1468,4426,46088,676675,,
676676,8,102.84548,24.869799,吴家营社区居民委员会,,530114,0871,530114002003,111,,,,,,,,,2,100,1024,1468,4426,46088,676676,,
676677,8,102.84572,24.86774,白龙潭社区居民委员会,,530114,0871,530114002004,111,,,,,,,,,2,100,1024,1468,4426,46088,676677,,
676678,8,102.84572,24.86774,碧潭社区居民委员会,,530114,0871,530114002005,111,,,,,,,,,2,100,1024,1468,4426,46088,676678,,
676679,8,102.792512,24.909932,殷联社区居民委员会,,530114,0871,530114003001,111,,,,,,,,,2,100,1024,1468,4426,46089,676679,,
676680,8,102.791511,24.911975,江尾社区居民委员会,,530114,0871,530114003002,112,,,,,,,,,2,100,1024,1468,4426,46089,676680,,
676681,8,102.78839,24.89302,梅子社区居民委员会,,530114,0871,530114003003,112,,,,,,,,,2,100,1024,1468,4426,46089,676681,,
676682,8,102.778885,24.897057,斗南社区居民委员会,,530114,0871,530114003004,111,,,,,,,,,2,100,1024,1468,4426,46089,676682,,
676683,8,102.791511,24.911975,小古城社区居民委员会,,530114,0871,530114003005,112,,,,,,,,,2,100,1024,1468,4426,46089,676683,,
676684,8,102.790261,24.856704,乌龙社区居民委员会,,530114,0871,530114004001,111,,,,,,,,,2,100,1024,1468,4426,46090,676684,,
676685,8,102.795081,24.866658,上可乐社区居民委员会,,530114,0871,530114004002,220,,,,,,,,,2,100,1024,1468,4426,46090,676685,,
676686,8,102.8077,24.86153,下可乐社区居民委员会,,530114,0871,530114004003,220,,,,,,,,,2,100,1024,1468,4426,46090,676686,,
676687,8,102.798346,24.839838,松花社区居民委员会,,530114,0871,530114004004,220,,,,,,,,,2,100,1024,1468,4426,46090,676687,,
676688,8,102.8077,24.86153,三岔口社区居民委员会,,530114,0871,530114004005,111,,,,,,,,,2,100,1024,1468,4426,46090,676688,,
676689,8,102.81472,24.872243,七步场社区居民委员会,,530114,0871,530114004006,111,,,,,,,,,2,100,1024,1468,4426,46090,676689,,
676690,8,102.8077,24.86153,星浦社区居民委员会,,530114,0871,530114004007,111,,,,,,,,,2,100,1024,1468,4426,46090,676690,,
676691,8,102.8077,24.86153,春融社区居民委员会,,530114,0871,530114004008,111,,,,,,,,,2,100,1024,1468,4426,46090,676691,,
676692,8,102.8077,24.86153,彩云社区居民委员会,,530114,0871,530114004009,111,,,,,,,,,2,100,1024,1468,4426,46090,676692,,
676693,8,102.842085,24.85675,中庄社区居民委员会,,530114,0871,530114005001,111,,,,,,,,,2,100,1024,1468,4426,46091,676693,,
676694,8,102.863295,24.860023,柏枝营社区居民委员会,,530114,0871,530114005002,111,,,,,,,,,2,100,1024,1468,4426,46091,676694,,
676695,8,102.841747,24.843746,前卫营社区居民委员会,,530114,0871,530114005003,111,,,,,,,,,2,100,1024,1468,4426,46091,676695,,
676696,8,102.841747,24.843746,郎家营社区居民委员会,,530114,0871,530114005004,220,,,,,,,,,2,100,1024,1468,4426,46091,676696,,
676697,8,102.88118,24.818801,万溪冲社区居民委员会,,530114,0871,530114005005,220,,,,,,,,,2,100,1024,1468,4426,46091,676697,,
676698,8,102.864565,24.856008,缪家营社区居民委员会,,530114,0871,530114005006,111,,,,,,,,,2,100,1024,1468,4426,46091,676698,,
676699,8,102.841747,24.843746,段家营社区居民委员会,,530114,0871,530114005007,220,,,,,,,,,2,100,1024,1468,4426,46091,676699,,
676700,8,102.841747,24.843746,刘家营社区居民委员会,,530114,0871,530114005008,220,,,,,,,,,2,100,1024,1468,4426,46091,676700,,
676701,8,102.841747,24.843746,毓和社区居民委员会,,530114,0871,530114005009,111,,,,,,,,,2,100,1024,1468,4426,46091,676701,,
676702,8,102.841747,24.843746,致远社区居民委员会,,530114,0871,530114005010,111,,,,,,,,,2,100,1024,1468,4426,46091,676702,,
676703,8,102.841747,24.843746,万青社区居民委员会,,530114,0871,530114005011,111,,,,,,,,,2,100,1024,1468,4426,46091,676703,,
676704,8,102.814768,24.832823,雨花社区居民委员会,,530114,0871,530114006001,220,,,,,,,,,2,100,1024,1468,4426,46092,676704,,
676705,8,102.831852,24.835918,下庄社区居民委员会,,530114,0871,530114006002,111,,,,,,,,,2,100,1024,1468,4426,46092,676705,,
676706,8,102.81911,24.837606,回回营社区居民委员会,,530114,0871,530114006003,112,,,,,,,,,2,100,1024,1468,4426,46092,676706,,
676707,8,102.81911,24.837606,营盘社区居民委员会,,530114,0871,530114006004,111,,,,,,,,,2,100,1024,1468,4426,46092,676707,,
676708,8,102.81911,24.837606,明潭社区居民委员会,,530114,0871,530114006005,111,,,,,,,,,2,100,1024,1468,4426,46092,676708,,
676709,8,102.94931,24.953434,七甸社区居民委员会,,530114,0871,530114007001,111,,,,,,,,,2,100,1024,1468,4426,46093,676709,,
676710,8,102.933807,24.952781,头甸社区居民委员会,,530114,0871,530114007002,112,,,,,,,,,2,100,1024,1468,4426,46093,676710,,
676711,8,102.915587,24.936635,广南社区居民委员会,,530114,0871,530114007003,220,,,,,,,,,2,100,1024,1468,4426,46093,676711,,
676712,8,102.945882,24.951972,松茂社区居民委员会,,530114,0871,530114007004,220,,,,,,,,,2,100,1024,1468,4426,46093,676712,,
676713,8,102.937171,24.897109,马郎社区居民委员会,,530114,0871,530114007005,220,,,,,,,,,2,100,1024,1468,4426,46093,676713,,
676714,8,102.945882,24.951972,野竹社区居民委员会,,530114,0871,530114007006,220,,,,,,,,,2,100,1024,1468,4426,46093,676714,,
676715,8,102.945882,24.951972,胡家庄社区居民委员会,,530114,0871,530114007007,220,,,,,,,,,2,100,1024,1468,4426,46093,676715,,
676716,8,102.968868,24.95336,大哨社区居民委员会,,530114,0871,530114007008,220,,,,,,,,,2,100,1024,1468,4426,46093,676716,,
676717,8,102.945882,24.951972,水塘社区居民委员会,,530114,0871,530114007009,220,,,,,,,,,2,100,1024,1468,4426,46093,676717,,
676718,8,102.814662,24.933249,倪家营社区居民委员会,,530114,0871,530114008001,112,,,,,,,,,2,100,1024,1468,4426,46094,676718,,
676719,8,102.829034,24.94213,大冲社区居民委员会,,530114,0871,530114008002,111,,,,,,,,,2,100,1024,1468,4426,46094,676719,,
676720,8,102.807619,24.915669,大洛羊社区居民委员会,,530114,0871,530114008003,112,,,,,,,,,2,100,1024,1468,4426,46094,676720,,
676721,8,102.806628,24.912298,小洛羊社区居民委员会,,530114,0871,530114008004,112,,,,,,,,,2,100,1024,1468,4426,46094,676721,,
676722,8,102.84476,24.89983,大新册社区居民委员会,,530114,0871,530114008005,112,,,,,,,,,2,100,1024,1468,4426,46094,676722,,
676723,8,102.83866,24.89956,小新册社区居民委员会,,530114,0871,530114008006,111,,,,,,,,,2,100,1024,1468,4426,46094,676723,,
676724,8,102.883293,24.960302,黄土坡社区居民委员会,,530114,0871,530114008007,112,,,,,,,,,2,100,1024,1468,4426,46094,676724,,
676725,8,102.830449,24.901527,果林社区居民委员会,,530114,0871,530114008008,111,,,,,,,,,2,100,1024,1468,4426,46094,676725,,
676726,8,102.830449,24.901527,春漫社区居民委员会,,530114,0871,530114008009,111,,,,,,,,,2,100,1024,1468,4426,46094,676726,,
676727,8,102.830449,24.901527,石龙湖社区居民委员会,,530114,0871,530114008010,111,,,,,,,,,2,100,1024,1468,4426,46094,676727,,
676728,8,102.830449,24.901527,水井山社区居民委员会,,530114,0871,530114008011,111,,,,,,,,,2,100,1024,1468,4426,46094,676728,,
676729,8,102.796044,24.829064,月角社区居民委员会,,530114,0871,530114009001,111,,,,,,,,,2,100,1024,1468,4426,46095,676729,,
676730,8,102.790234,24.815369,大渔社区居民委员会,,530114,0871,530114009002,111,,,,,,,,,2,100,1024,1468,4426,46095,676730,,
676731,8,102.796044,24.829064,大河社区居民委员会,,530114,0871,530114009003,111,,,,,,,,,2,100,1024,1468,4426,46095,676731,,
676732,8,102.796044,24.829064,新村社区居民委员会,,530114,0871,530114009004,111,,,,,,,,,2,100,1024,1468,4426,46095,676732,,
676733,8,102.796044,24.829064,海宴社区居民委员会,,530114,0871,530114009005,111,,,,,,,,,2,100,1024,1468,4426,46095,676733,,
676734,8,102.779853,24.792619,石城社区居民委员会,,530114,0871,530114009006,220,,,,,,,,,2,100,1024,1468,4426,46095,676734,,
676735,8,102.78122,24.8002,常乐社区居民委员会,,530114,0871,530114009007,220,,,,,,,,,2,100,1024,1468,4426,46095,676735,,
676736,8,102.806948,24.785637,化城社区居民委员会,,530114,0871,530114010001,111,,,,,,,,,2,100,1024,1468,4426,46096,676736,,
676737,8,102.801562,24.785682,化古城社区居民委员会,,530114,0871,530114010002,112,,,,,,,,,2,100,1024,1468,4426,46096,676737,,
676738,8,102.801562,24.785682,马金铺社区居民委员会,,530114,0871,530114010003,220,,,,,,,,,2,100,1024,1468,4426,46096,676738,,
676739,8,102.801562,24.785682,高登社区居民委员会,,530114,0871,530114010004,220,,,,,,,,,2,100,1024,1468,4426,46096,676739,,
676740,8,102.801562,24.785682,中卫社区居民委员会,,530114,0871,530114010005,220,,,,,,,,,2,100,1024,1468,4426,46096,676740,,
676741,8,102.801562,24.785682,白云社区居民委员会,,530114,0871,530114010006,220,,,,,,,,,2,100,1024,1468,4426,46096,676741,,
676742,8,102.801562,24.785682,林塘社区居民委员会,,530114,0871,530114010007,220,,,,,,,,,2,100,1024,1468,4426,46096,676742,,
676743,8,102.8282,24.784769,大营社区居民委员会,,530114,0871,530114010008,220,,,,,,,,,2,100,1024,1468,4426,46096,676743,,
676744,8,102.801562,24.785682,庄子社区居民委员会,,530114,0871,530114010009,220,,,,,,,,,2,100,1024,1468,4426,46096,676744,,
676745,8,102.801562,24.785682,小营社区居民委员会,,530114,0871,530114010010,220,,,,,,,,,2,100,1024,1468,4426,46096,676745,,
676746,8,102.801562,24.785682,横冲社区居民委员会,,530114,0871,530114010011,220,,,,,,,,,2,100,1024,1468,4426,46096,676746,,
676747,8,102.801562,24.785682,风口社区居民委员会,,530114,0871,530114010012,220,,,,,,,,,2,100,1024,1468,4426,46096,676747,,
676748,8,102.801562,24.785682,秋木箐社区居民委员会,,530114,0871,530114010013,220,,,,,,,,,2,100,1024,1468,4426,46096,676748,,
676749,8,102.594149,24.666049,郑和路社区居民委员会,,530115,0871,530115001001,111,,,,,,,,,2,100,1024,1468,4427,46097,676749,,
676750,8,102.594149,24.666049,月山社区居民委员会,,530115,0871,530115001002,111,,,,,,,,,2,100,1024,1468,4427,46097,676750,,
676751,8,102.594149,24.666049,云轮社区居民委员会,,530115,0871,530115001003,111,,,,,,,,,2,100,1024,1468,4427,46097,676751,,
676752,8,102.594149,24.666049,中和社区居民委员会,,530115,0871,530115001004,111,,,,,,,,,2,100,1024,1468,4427,46097,676752,,
676753,8,102.594149,24.666049,磷肥厂社区居委会,,530115,0871,530115001005,123,,,,,,,,,2,100,1024,1468,4427,46097,676753,,
676754,8,102.5945,24.666689,仁义村委会,,530115,0871,530115001201,111,,,,,,,,,2,100,1024,1468,4427,46097,676754,,
676755,8,102.593544,24.661701,礼智村委会,,530115,0871,530115001202,112,,,,,,,,,2,100,1024,1468,4427,46097,676755,,
676756,8,102.594149,24.666049,恢厂村委会,,530115,0871,530115001203,220,,,,,,,,,2,100,1024,1468,4427,46097,676756,,
676757,8,102.594149,24.666049,汉营村委会,,530115,0871,530115001204,220,,,,,,,,,2,100,1024,1468,4427,46097,676757,,
676758,8,102.594149,24.666049,甸心村委会,,530115,0871,530115001205,220,,,,,,,,,2,100,1024,1468,4427,46097,676758,,
676759,8,102.594149,24.666049,旧寨村委会,,530115,0871,530115001206,220,,,,,,,,,2,100,1024,1468,4427,46097,676759,,
676760,8,102.594149,24.666049,中谊村委会,,530115,0871,530115001207,220,,,,,,,,,2,100,1024,1468,4427,46097,676760,,
676761,8,102.594149,24.666049,下方古城村委会,,530115,0871,530115001208,220,,,,,,,,,2,100,1024,1468,4427,46097,676761,,
676762,8,102.588714,24.674234,田心村委会,,530115,0871,530115001209,112,,,,,,,,,2,100,1024,1468,4427,46097,676762,,
676763,8,102.594149,24.666049,太史村委会,,530115,0871,530115001210,112,,,,,,,,,2,100,1024,1468,4427,46097,676763,,
676764,8,102.593362,24.684891,兴隆村委会,,530115,0871,530115001211,112,,,,,,,,,2,100,1024,1468,4427,46097,676764,,
676765,8,102.594149,24.666049,大新村委会,,530115,0871,530115001212,112,,,,,,,,,2,100,1024,1468,4427,46097,676765,,
676766,8,102.603886,24.659192,堡孜村委会,,530115,0871,530115001213,111,,,,,,,,,2,100,1024,1468,4427,46097,676766,,
676767,8,102.611777,24.661453,储英村委会,,530115,0871,530115001214,112,,,,,,,,,2,100,1024,1468,4427,46097,676767,,
676768,8,102.594149,24.666049,墩子村委会,,530115,0871,530115001215,112,,,,,,,,,2,100,1024,1468,4427,46097,676768,,
676769,8,102.631668,24.678651,兴旺村委会,,530115,0871,530115001216,112,,,,,,,,,2,100,1024,1468,4427,46097,676769,,
676770,8,102.594149,24.666049,渠东村委会,,530115,0871,530115001217,220,,,,,,,,,2,100,1024,1468,4427,46097,676770,,
676771,8,102.594149,24.666049,凤踪村委会,,530115,0871,530115001218,112,,,,,,,,,2,100,1024,1468,4427,46097,676771,,
676772,8,102.594149,24.666049,普达村委会,,530115,0871,530115001219,112,,,,,,,,,2,100,1024,1468,4427,46097,676772,,
676773,8,102.594149,24.666049,南村村委会,,530115,0871,530115001220,112,,,,,,,,,2,100,1024,1468,4427,46097,676773,,
676774,8,102.594149,24.666049,安企村委会,,530115,0871,530115001221,112,,,,,,,,,2,100,1024,1468,4427,46097,676774,,
676775,8,102.594149,24.666049,回龙村委会,,530115,0871,530115001222,112,,,,,,,,,2,100,1024,1468,4427,46097,676775,,
676776,8,102.594149,24.666049,瓦窑村委会,,530115,0871,530115001223,112,,,,,,,,,2,100,1024,1468,4427,46097,676776,,
676777,8,102.594149,24.666049,乌龙村委会,,530115,0871,530115001224,220,,,,,,,,,2,100,1024,1468,4427,46097,676777,,
676778,8,102.594149,24.666049,余家海村委会,,530115,0871,530115001225,220,,,,,,,,,2,100,1024,1468,4427,46097,676778,,
676779,8,102.554912,24.553981,上方新街村委会,,530115,0871,530115002201,111,,,,,,,,,2,100,1024,1468,4427,46098,676779,,
676780,8,102.554148,24.615734,青龙村委会,,530115,0871,530115002202,220,,,,,,,,,2,100,1024,1468,4427,46098,676780,,
676781,8,102.590733,24.67113,宝峰村委会,,530115,0871,530115002203,220,,,,,,,,,2,100,1024,1468,4427,46098,676781,,
676782,8,102.537051,24.561588,前卫村委会,,530115,0871,530115002204,112,,,,,,,,,2,100,1024,1468,4427,46098,676782,,
676783,8,102.541963,24.545017,挖矿坡村委会,,530115,0871,530115002205,112,,,,,,,,,2,100,1024,1468,4427,46098,676783,,
676784,8,102.553123,24.560194,上方古城村委会,,530115,0871,530115002206,112,,,,,,,,,2,100,1024,1468,4427,46098,676784,,
676785,8,102.548532,24.568892,小河口村委会,,530115,0871,530115002207,220,,,,,,,,,2,100,1024,1468,4427,46098,676785,,
676786,8,102.564876,24.581489,韩家营村委会,,530115,0871,530115002208,220,,,,,,,,,2,100,1024,1468,4427,46098,676786,,
676787,8,102.587863,24.596781,中和铺村委会,,530115,0871,530115002209,220,,,,,,,,,2,100,1024,1468,4427,46098,676787,,
676788,8,102.569999,24.570293,昌家营村委会,,530115,0871,530115002210,112,,,,,,,,,2,100,1024,1468,4427,46098,676788,,
676789,8,102.575989,24.55994,清水河村委会,,530115,0871,530115002211,220,,,,,,,,,2,100,1024,1468,4427,46098,676789,,
676790,8,102.620416,24.556094,海龙村委会,,530115,0871,530115002212,220,,,,,,,,,2,100,1024,1468,4427,46098,676790,,
676791,8,102.832891,24.880095,酸水塘村委会,,530100,0871,530115002213,220,,,,,,,,,2,100,1024,1468,4427,46098,676791,,
676792,8,102.752792,24.706706,城北居委会,,530115,0871,530115100001,121,,,,,,,,,2,100,1024,1468,4427,46099,676792,,
676793,8,102.746849,24.699702,城南居委会,,530115,0871,530115100002,121,,,,,,,,,2,100,1024,1468,4427,46099,676793,,
676794,8,102.752792,24.706706,益州社区居委会,,530115,0871,530115100003,121,,,,,,,,,2,100,1024,1468,4427,46099,676794,,
676795,8,102.751905,24.706002,北门村委会,,530115,0871,530115100201,121,,,,,,,,,2,100,1024,1468,4427,46099,676795,,
676796,8,102.749594,24.701224,西门村委会,,530115,0871,530115100202,122,,,,,,,,,2,100,1024,1468,4427,46099,676796,,
676797,8,102.752792,24.706706,南门村委会,,530115,0871,530115100203,122,,,,,,,,,2,100,1024,1468,4427,46099,676797,,
676798,8,102.753461,24.700497,东门村委会,,530115,0871,530115100204,122,,,,,,,,,2,100,1024,1468,4427,46099,676798,,
676799,8,102.752527,24.713117,草村村委会,,530115,0871,530115100205,122,,,,,,,,,2,100,1024,1468,4427,46099,676799,,
676800,8,102.752792,24.706706,小海村委会,,530115,0871,530115100206,220,,,,,,,,,2,100,1024,1468,4427,46099,676800,,
676801,8,102.752792,24.706706,永和村委会,,530115,0871,530115100207,220,,,,,,,,,2,100,1024,1468,4427,46099,676801,,
676802,8,102.752792,24.706706,柴河村委会,,530115,0871,530115100208,220,,,,,,,,,2,100,1024,1468,4427,46099,676802,,
676803,8,102.752792,24.706706,天城门村委会,,530115,0871,530115100209,220,,,,,,,,,2,100,1024,1468,4427,46099,676803,,
676804,8,102.752792,24.706706,新庄村委会,,530115,0871,530115100210,122,,,,,,,,,2,100,1024,1468,4427,46099,676804,,
676805,8,102.728974,24.688945,小寨村委会,,530115,0871,530115100211,220,,,,,,,,,2,100,1024,1468,4427,46099,676805,,
676806,8,102.745211,24.669387,石碑村委会,,530115,0871,530115100212,220,,,,,,,,,2,100,1024,1468,4427,46099,676806,,
676807,8,102.752792,24.706706,五里村委会,,530115,0871,530115100213,220,,,,,,,,,2,100,1024,1468,4427,46099,676807,,
676808,8,102.76826,24.732397,富有村委会,,530115,0871,530115100214,220,,,,,,,,,2,100,1024,1468,4427,46099,676808,,
676809,8,102.752792,24.706706,广济村委会,,530115,0871,530115100215,220,,,,,,,,,2,100,1024,1468,4427,46099,676809,,
676810,8,102.777643,24.743783,白沙村委会,,530115,0871,530115100216,220,,,,,,,,,2,100,1024,1468,4427,46099,676810,,
676811,8,102.752792,24.706706,雨孜雾村委会,,530115,0871,530115100217,220,,,,,,,,,2,100,1024,1468,4427,46099,676811,,
676812,8,102.752792,24.706706,化乐村委会,,530115,0871,530115100218,220,,,,,,,,,2,100,1024,1468,4427,46099,676812,,
676813,8,102.752792,24.706706,关岭村委会,,530115,0871,530115100219,220,,,,,,,,,2,100,1024,1468,4427,46099,676813,,
676814,8,102.752792,24.706706,火石坡村委会,,530115,0871,530115100220,220,,,,,,,,,2,100,1024,1468,4427,46099,676814,,
676815,8,102.762035,24.59097,八家村委会,,530115,0871,530115100221,220,,,,,,,,,2,100,1024,1468,4427,46099,676815,,
676816,8,102.752792,24.706706,南山村委会,,530115,0871,530115100222,220,,,,,,,,,2,100,1024,1468,4427,46099,676816,,
676817,8,102.752792,24.706706,盐井村委会,,530115,0871,530115100223,220,,,,,,,,,2,100,1024,1468,4427,46099,676817,,
676818,8,102.752792,24.706706,十里村委会,,530115,0871,530115100224,220,,,,,,,,,2,100,1024,1468,4427,46099,676818,,
676819,8,102.7223,24.742146,新街村委会,,530115,0871,530115100225,220,,,,,,,,,2,100,1024,1468,4427,46099,676819,,
676820,8,102.752792,24.706706,文河村委会,,530115,0871,530115100226,220,,,,,,,,,2,100,1024,1468,4427,46099,676820,,
676821,8,102.752792,24.706706,回龙村委会,,530115,0871,530115100227,220,,,,,,,,,2,100,1024,1468,4427,46099,676821,,
676822,8,102.752792,24.706706,三合村委会,,530115,0871,530115100228,220,,,,,,,,,2,100,1024,1468,4427,46099,676822,,
676823,8,102.752792,24.706706,古城村委会,,530115,0871,530115100229,220,,,,,,,,,2,100,1024,1468,4427,46099,676823,,
676824,8,102.740275,24.751138,安江村委会,,530115,0871,530115100230,220,,,,,,,,,2,100,1024,1468,4427,46099,676824,,
676825,8,102.752792,24.706706,安乐村委会,,530115,0871,530115100231,220,,,,,,,,,2,100,1024,1468,4427,46099,676825,,
676826,8,102.75157,24.70076,沙堤村委会,,530115,0871,530115100232,220,,,,,,,,,2,100,1024,1468,4427,46099,676826,,
676827,8,102.752792,24.706706,团山村委会,,530115,0871,530115100233,220,,,,,,,,,2,100,1024,1468,4427,46099,676827,,
676828,8,102.710945,24.734118,三槐村委会,,530115,0871,530115100234,220,,,,,,,,,2,100,1024,1468,4427,46099,676828,,
676829,8,102.752792,24.706706,梁王村委会,,530115,0871,530115100235,220,,,,,,,,,2,100,1024,1468,4427,46099,676829,,
676830,8,102.752792,24.706706,海晏村委会,,530115,0871,530115100236,220,,,,,,,,,2,100,1024,1468,4427,46099,676830,,
676831,8,102.752792,24.706706,孙家坝村委会,,530115,0871,530115100237,220,,,,,,,,,2,100,1024,1468,4427,46099,676831,,
676832,8,102.734877,24.73373,宋家营村委会,,530115,0871,530115100238,220,,,,,,,,,2,100,1024,1468,4427,46099,676832,,
676833,8,102.752792,24.706706,钟贵村委会,,530115,0871,530115100239,220,,,,,,,,,2,100,1024,1468,4427,46099,676833,,
676834,8,102.752792,24.706706,大西村委会,,530115,0871,530115100240,220,,,,,,,,,2,100,1024,1468,4427,46099,676834,,
676835,8,102.752792,24.706706,福安村委会,,530115,0871,530115100241,220,,,,,,,,,2,100,1024,1468,4427,46099,676835,,
676836,8,102.752792,24.706706,石龙村委会,,530115,0871,530115100242,220,,,,,,,,,2,100,1024,1468,4427,46099,676836,,
676837,8,102.492598,24.694747,肖家村委会,,530115,0871,530115101201,121,,,,,,,,,2,100,1024,1468,4427,46100,676837,,
676838,8,102.489667,24.696084,朱家村委会,,530115,0871,530115101202,220,,,,,,,,,2,100,1024,1468,4427,46100,676838,,
676839,8,102.489667,24.696084,锁溪村委会,,530115,0871,530115101203,220,,,,,,,,,2,100,1024,1468,4427,46100,676839,,
676840,8,102.489667,24.696084,老高村委会,,530115,0871,530115101204,220,,,,,,,,,2,100,1024,1468,4427,46100,676840,,
676841,8,102.449947,24.676923,鲁黑村委会,,530115,0871,530115101205,220,,,,,,,,,2,100,1024,1468,4427,46100,676841,,
676842,8,102.489667,24.696084,甸头村委会,,530115,0871,530115101206,220,,,,,,,,,2,100,1024,1468,4427,46100,676842,,
676843,8,102.50449,24.6591,三家村委会,,530115,0871,530115101207,220,,,,,,,,,2,100,1024,1468,4427,46100,676843,,
676844,8,102.489667,24.696084,栗庙村委会,,530115,0871,530115101208,220,,,,,,,,,2,100,1024,1468,4427,46100,676844,,
676845,8,102.489667,24.696084,响水村委会,,530115,0871,530115101209,220,,,,,,,,,2,100,1024,1468,4427,46100,676845,,
676846,8,102.714791,24.698866,下石美村委会,,530115,0871,530115102201,220,,,,,,,,,2,100,1024,1468,4427,46101,676846,,
676847,8,102.709313,24.680212,石寨村委会,,530115,0871,530115102202,220,,,,,,,,,2,100,1024,1468,4427,46101,676847,,
676848,8,102.709313,24.680212,河泊村委会,,530115,0871,530115102203,220,,,,,,,,,2,100,1024,1468,4427,46101,676848,,
676849,8,102.709313,24.680212,金沙村委会,,530115,0871,530115102204,220,,,,,,,,,2,100,1024,1468,4427,46101,676849,,
676850,8,102.709313,24.680212,牛恋村委会,,530115,0871,530115102205,121,,,,,,,,,2,100,1024,1468,4427,46101,676850,,
676851,8,102.709313,24.680212,小朴村委会,,530115,0871,530115102206,220,,,,,,,,,2,100,1024,1468,4427,46101,676851,,
676852,8,102.69885,24.65235,宝兴村委会,,530115,0871,530115102207,220,,,,,,,,,2,100,1024,1468,4427,46101,676852,,
676853,8,102.709313,24.680212,竹园村委会,,530115,0871,530115102208,220,,,,,,,,,2,100,1024,1468,4427,46101,676853,,
676854,8,102.709313,24.680212,上蒜村委会,,530115,0871,530115102209,220,,,,,,,,,2,100,1024,1468,4427,46101,676854,,
676855,8,102.709313,24.680212,三多村委会,,530115,0871,530115102210,220,,,,,,,,,2,100,1024,1468,4427,46101,676855,,
676856,8,102.709313,24.680212,柳坝村委会,,530115,0871,530115102211,220,,,,,,,,,2,100,1024,1468,4427,46101,676856,,
676857,8,102.709313,24.680212,科地村委会,,530115,0871,530115102212,220,,,,,,,,,2,100,1024,1468,4427,46101,676857,,
676858,8,102.709313,24.680212,段七村委会,,530115,0871,530115102213,220,,,,,,,,,2,100,1024,1468,4427,46101,676858,,
676859,8,102.709313,24.680212,洗澡塘村委会,,530115,0871,530115102214,220,,,,,,,,,2,100,1024,1468,4427,46101,676859,,
676860,8,102.709313,24.680212,鲁纳村委会,,530115,0871,530115102215,220,,,,,,,,,2,100,1024,1468,4427,46101,676860,,
676861,8,102.6862,24.53157,六街村委会,,530115,0871,530115103201,121,,,,,,,,,2,100,1024,1468,4427,46102,676861,,
676862,8,102.68038,24.530309,大营村委会,,530115,0871,530115103202,122,,,,,,,,,2,100,1024,1468,4427,46102,676862,,
676863,8,102.685374,24.531918,龙王塘村委会,,530115,0871,530115103203,220,,,,,,,,,2,100,1024,1468,4427,46102,676863,,
676864,8,102.685374,24.531918,三印村委会,,530115,0871,530115103204,220,,,,,,,,,2,100,1024,1468,4427,46102,676864,,
676865,8,102.685374,24.531918,大庄村委会,,530115,0871,530115103205,220,,,,,,,,,2,100,1024,1468,4427,46102,676865,,
676866,8,102.69785,24.48485,新寨村委会,,530115,0871,530115103206,220,,,,,,,,,2,100,1024,1468,4427,46102,676866,,
676867,8,102.685374,24.531918,干海村委会,,530115,0871,530115103207,220,,,,,,,,,2,100,1024,1468,4427,46102,676867,,
676868,8,102.685374,24.531918,青菜村委会,,530115,0871,530115103208,220,,,,,,,,,2,100,1024,1468,4427,46102,676868,,
676869,8,102.685374,24.531918,王家湾村委会,,530115,0871,530115103209,220,,,,,,,,,2,100,1024,1468,4427,46102,676869,,
676870,8,102.433876,24.563234,双河村委会,,530115,0871,530115200201,210,,,,,,,,,2,100,1024,1468,4427,46103,676870,,
676871,8,102.433876,24.563234,田坝村委会,,530115,0871,530115200202,220,,,,,,,,,2,100,1024,1468,4427,46103,676871,,
676872,8,102.433876,24.563234,荒川村委会,,530115,0871,530115200203,220,,,,,,,,,2,100,1024,1468,4427,46103,676872,,
676873,8,102.433876,24.563234,干河村委会,,530115,0871,530115200204,220,,,,,,,,,2,100,1024,1468,4427,46103,676873,,
676874,8,102.433876,24.563234,老江河村委会,,530115,0871,530115200205,220,,,,,,,,,2,100,1024,1468,4427,46103,676874,,
676875,8,102.433876,24.563234,核桃园村委会,,530115,0871,530115200206,220,,,,,,,,,2,100,1024,1468,4427,46103,676875,,
676876,8,102.28708,24.4603,夕阳村委会,,530115,0871,530115201201,210,,,,,,,,,2,100,1024,1468,4427,46104,676876,,
676877,8,102.289255,24.460677,保安村委会,,530115,0871,530115201202,220,,,,,,,,,2,100,1024,1468,4427,46104,676877,,
676878,8,102.289255,24.460677,田房村委会,,530115,0871,530115201203,220,,,,,,,,,2,100,1024,1468,4427,46104,676878,,
676879,8,102.289255,24.460677,新山村委会,,530115,0871,530115201204,220,,,,,,,,,2,100,1024,1468,4427,46104,676879,,
676880,8,102.289255,24.460677,打黑村委会,,530115,0871,530115201205,220,,,,,,,,,2,100,1024,1468,4427,46104,676880,,
676881,8,102.289255,24.460677,一字格村委会,,530115,0871,530115201206,220,,,,,,,,,2,100,1024,1468,4427,46104,676881,,
676882,8,102.289255,24.460677,绿溪村委会,,530115,0871,530115201207,220,,,,,,,,,2,100,1024,1468,4427,46104,676882,,
676883,8,102.289255,24.460677,木杵榔村委会,,530115,0871,530115201208,220,,,,,,,,,2,100,1024,1468,4427,46104,676883,,
676884,8,102.289255,24.460677,木鲊村委会,,530115,0871,530115201209,220,,,,,,,,,2,100,1024,1468,4427,46104,676884,,
676885,8,102.289255,24.460677,高梁地村委会,,530115,0871,530115201210,220,,,,,,,,,2,100,1024,1468,4427,46104,676885,,
676886,8,102.499217,25.212957,城南社区,,530124,0871,530124001001,121,,,,,,,,,2,100,1024,1468,4428,46105,676886,,
676887,8,102.498046,25.221025,城北社区,,530124,0871,530124001002,121,,,,,,,,,2,100,1024,1468,4428,46105,676887,,
676888,8,102.498046,25.221025,永二社区居民委员会,,530124,0871,530124001003,121,,,,,,,,,2,100,1024,1468,4428,46105,676888,,
676889,8,102.498046,25.221025,永一社区居民委员会,,530124,0871,530124001004,121,,,,,,,,,2,100,1024,1468,4428,46105,676889,,
676890,8,102.492303,25.214807,瓦窑村委会,,530124,0871,530124001203,121,,,,,,,,,2,100,1024,1468,4428,46105,676890,,
676891,8,102.498046,25.221025,北邑村委会,,530124,0871,530124001204,122,,,,,,,,,2,100,1024,1468,4428,46105,676891,,
676892,8,102.49071,25.24056,西邑村委会,,530124,0871,530124001205,122,,,,,,,,,2,100,1024,1468,4428,46105,676892,,
676893,8,102.498046,25.221025,兴贡村委会,,530124,0871,530124001206,220,,,,,,,,,2,100,1024,1468,4428,46105,676893,,
676894,8,102.498046,25.221025,清河村委会,,530124,0871,530124001207,220,,,,,,,,,2,100,1024,1468,4428,46105,676894,,
676895,8,102.498046,25.221025,拖担村委会,,530124,0871,530124001208,220,,,,,,,,,2,100,1024,1468,4428,46105,676895,,
676896,8,102.467451,25.273323,南营村委会,,530124,0871,530124001216,220,,,,,,,,,2,100,1024,1468,4428,46105,676896,,
676897,8,102.4976,25.221934,北营村委会,,530124,0871,530124001217,220,,,,,,,,,2,100,1024,1468,4428,46105,676897,,
676898,8,102.498046,25.221025,龙马村委会,,530124,0871,530124001218,220,,,,,,,,,2,100,1024,1468,4428,46105,676898,,
676899,8,102.47217,25.276179,河东村委会,,530124,0871,530124001228,220,,,,,,,,,2,100,1024,1468,4428,46105,676899,,
676900,8,102.498046,25.221025,白石岩村委会,,530124,0871,530124001229,220,,,,,,,,,2,100,1024,1468,4428,46105,676900,,
676901,8,102.524455,25.223286,大营社区,,530124,0871,530124002001,121,,,,,,,,,2,100,1024,1468,4428,46106,676901,,
676902,8,102.524455,25.223286,奎南村委会,,530124,0871,530124002202,122,,,,,,,,,2,100,1024,1468,4428,46106,676902,,
676903,8,102.51218,25.24741,麦竜村委会,,530124,0871,530124002203,122,,,,,,,,,2,100,1024,1468,4428,46106,676903,,
676904,8,102.55417,25.283659,麦依甸村委会,,530124,0871,530124002204,220,,,,,,,,,2,100,1024,1468,4428,46106,676904,,
676905,8,102.613071,25.24611,束刻村委会,,530124,0871,530124002205,220,,,,,,,,,2,100,1024,1468,4428,46106,676905,,
676906,8,102.600055,25.216451,茨塘村委会,,530124,0871,530124002206,220,,,,,,,,,2,100,1024,1468,4428,46106,676906,,
676907,8,102.524455,25.223286,三村村委会,,530124,0871,530124002207,220,,,,,,,,,2,100,1024,1468,4428,46106,676907,,
676908,8,102.549421,25.221231,东元村委会,,530124,0871,530124002208,122,,,,,,,,,2,100,1024,1468,4428,46106,676908,,
676909,8,102.524455,25.223286,麦场村委会,,530124,0871,530124002209,220,,,,,,,,,2,100,1024,1468,4428,46106,676909,,
676910,8,102.524455,25.223286,松林村委会,,530124,0871,530124002210,220,,,,,,,,,2,100,1024,1468,4428,46106,676910,,
676911,8,102.512996,25.183356,永安村委会,,530124,0871,530124002211,220,,,,,,,,,2,100,1024,1468,4428,46106,676911,,
676912,8,102.524455,25.223286,黄坡村委会,,530124,0871,530124002212,220,,,,,,,,,2,100,1024,1468,4428,46106,676912,,
676913,8,102.507687,25.197548,元山村委会,,530124,0871,530124002213,220,,,,,,,,,2,100,1024,1468,4428,46106,676913,,
676914,8,102.524455,25.223286,仓前村委会,,530124,0871,530124002214,220,,,,,,,,,2,100,1024,1468,4428,46106,676914,,
676915,8,102.504358,25.205766,西山村委会,,530124,0871,530124002215,122,,,,,,,,,2,100,1024,1468,4428,46106,676915,,
676916,8,102.519438,25.21175,旧县村委会,,530124,0871,530124002216,220,,,,,,,,,2,100,1024,1468,4428,46106,676916,,
676917,8,102.45804,25.336581,者北村委会,,530124,0871,530124103201,121,,,,,,,,,2,100,1024,1468,4428,46107,676917,,
676918,8,102.459801,25.304617,高仓村委会,,530124,0871,530124103202,220,,,,,,,,,2,100,1024,1468,4428,46107,676918,,
676919,8,102.45804,25.336581,罗免村委会,,530124,0871,530124103203,220,,,,,,,,,2,100,1024,1468,4428,46107,676919,,
676920,8,102.45804,25.336581,小甸村委会,,530124,0871,530124103204,220,,,,,,,,,2,100,1024,1468,4428,46107,676920,,
676921,8,102.45804,25.336581,麦家营村委会,,530124,0871,530124103205,220,,,,,,,,,2,100,1024,1468,4428,46107,676921,,
676922,8,102.45804,25.336581,麻地村委会,,530124,0871,530124103206,220,,,,,,,,,2,100,1024,1468,4428,46107,676922,,
676923,8,102.45804,25.336581,糯支村委会,,530124,0871,530124103207,220,,,,,,,,,2,100,1024,1468,4428,46107,676923,,
676924,8,102.45804,25.336581,石板沟村委会,,530124,0871,530124103208,220,,,,,,,,,2,100,1024,1468,4428,46107,676924,,
676925,8,102.45804,25.336581,则核村委会,,530124,0871,530124103209,220,,,,,,,,,2,100,1024,1468,4428,46107,676925,,
676926,8,102.45804,25.336581,西核村委会,,530124,0871,530124103210,220,,,,,,,,,2,100,1024,1468,4428,46107,676926,,
676927,8,102.51114,25.35482,永富村委会,,530124,0871,530124104201,121,,,,,,,,,2,100,1024,1468,4428,46108,676927,,
676928,8,102.500941,25.346632,赤鹫村委会,,530124,0871,530124104202,220,,,,,,,,,2,100,1024,1468,4428,46108,676928,,
676929,8,102.510039,25.353408,龙潭村委会,,530124,0871,530124104203,220,,,,,,,,,2,100,1024,1468,4428,46108,676929,,
676930,8,102.53535,25.34658,玉屏村委会,,530124,0871,530124104204,220,,,,,,,,,2,100,1024,1468,4428,46108,676930,,
676931,8,102.510039,25.353408,东核村委会,,530124,0871,530124104205,220,,,,,,,,,2,100,1024,1468,4428,46108,676931,,
676932,8,102.510039,25.353408,咀咪哩村委会,,530124,0871,530124104206,220,,,,,,,,,2,100,1024,1468,4428,46108,676932,,
676933,8,102.510039,25.353408,平地村委会,,530124,0871,530124104207,220,,,,,,,,,2,100,1024,1468,4428,46108,676933,,
676934,8,102.510039,25.353408,普黑泥村委会,,530124,0871,530124104208,220,,,,,,,,,2,100,1024,1468,4428,46108,676934,,
676935,8,102.55574,25.373128,普桥村委会,,530124,0871,530124104209,220,,,,,,,,,2,100,1024,1468,4428,46108,676935,,
676936,8,102.510039,25.353408,阿纳宰村委会,,530124,0871,530124104210,220,,,,,,,,,2,100,1024,1468,4428,46108,676936,,
676937,8,102.674667,25.516667,东村村委会,,530124,0871,530124105201,121,,,,,,,,,2,100,1024,1468,4428,46109,676937,,
676938,8,102.674667,25.516667,新庄村委会,,530124,0871,530124105202,220,,,,,,,,,2,100,1024,1468,4428,46109,676938,,
676939,8,102.674667,25.516667,杜朗村委会,,530124,0871,530124105203,220,,,,,,,,,2,100,1024,1468,4428,46109,676939,,
676940,8,102.671655,25.525781,乐在村委会,,530124,0871,530124105204,220,,,,,,,,,2,100,1024,1468,4428,46109,676940,,
676941,8,102.674667,25.516667,石桥村委会,,530124,0871,530124105205,220,,,,,,,,,2,100,1024,1468,4428,46109,676941,,
