dataid,levelid,longitude,latitude,chinese_name,english_name,code1,code2,code3,code4,code5,alias1,alias2,alias3,alias4,alias5,area,population,continentid,countryid,provinceid,cityid,countyid,townid,villageid,buildingid,comments
490988,8,114.289922,30.584002,保成社区,,420102,027,420102002003,111,,,,,,,,,2,100,1016,1368,3607,32455,490988,,
490989,8,114.287527,30.585334,泰宁社区,,420102,027,420102002004,111,,,,,,,,,2,100,1016,1368,3607,32455,490989,,
490990,8,114.292417,30.584333,先锋社区,,420102,027,420102002005,111,,,,,,,,,2,100,1016,1368,3607,32455,490990,,
490991,8,114.290894,30.587266,吉庆社区,,420102,027,420102002008,111,,,,,,,,,2,100,1016,1368,3607,32455,490991,,
490992,8,114.291875,30.589497,铭新社区,,420102,027,420102002009,111,,,,,,,,,2,100,1016,1368,3607,32455,490992,,
490993,8,114.29924,30.590217,岳飞社区,,420102,027,420102003001,111,,,,,,,,,2,100,1016,1368,3607,32456,490993,,
490994,8,114.302576,30.589155,同兴社区,,420102,027,420102003002,111,,,,,,,,,2,100,1016,1368,3607,32456,490994,,
490995,8,114.30612,30.595475,三阳社区,,420102,027,420102003004,111,,,,,,,,,2,100,1016,1368,3607,32456,490995,,
490996,8,114.30363,30.59603,坤厚社区,,420102,027,420102003005,111,,,,,,,,,2,100,1016,1368,3607,32456,490996,,
490997,8,114.297337,30.586755,天津社区,,420102,027,420102003007,111,,,,,,,,,2,100,1016,1368,3607,32456,490997,,
490998,8,114.293176,30.58038,扬子社区,,420102,027,420102003008,111,,,,,,,,,2,100,1016,1368,3607,32456,490998,,
490999,8,114.297673,30.581114,同福社区,,420102,027,420102003011,111,,,,,,,,,2,100,1016,1368,3607,32456,490999,,
491000,8,114.300434,30.584917,洞庭社区,,420102,027,420102003013,111,,,,,,,,,2,100,1016,1368,3607,32456,491000,,
491001,8,114.300838,30.595607,华清社区,,420102,027,420102004003,111,,,,,,,,,2,100,1016,1368,3607,32457,491001,,
491002,8,114.299683,30.594231,长安社区,,420102,027,420102004005,111,,,,,,,,,2,100,1016,1368,3607,32457,491002,,
491003,8,114.299531,30.592059,三德社区,,420102,027,420102004006,111,,,,,,,,,2,100,1016,1368,3607,32457,491003,,
491004,8,114.295839,30.592495,辅堂社区,,420102,027,420102004007,111,,,,,,,,,2,100,1016,1368,3607,32457,491004,,
491005,8,114.296016,30.590866,辅仁社区,,420102,027,420102004009,111,,,,,,,,,2,100,1016,1368,3607,32457,491005,,
491006,8,114.307669,30.599624,五福社区,,420102,027,420102005001,111,,,,,,,,,2,100,1016,1368,3607,32458,491006,,
491007,8,114.308532,30.602813,六合社区,,420102,027,420102005002,111,,,,,,,,,2,100,1016,1368,3607,32458,491007,,
491008,8,114.30465,30.599756,麟趾社区,,420102,027,420102005004,111,,,,,,,,,2,100,1016,1368,3607,32458,491008,,
491009,8,114.300039,30.599986,太平社区,,420102,027,420102005006,111,,,,,,,,,2,100,1016,1368,3607,32458,491009,,
491010,8,114.30409,30.604858,袁家社区,,420102,027,420102005007,111,,,,,,,,,2,100,1016,1368,3607,32458,491010,,
491011,8,114.304374,30.60295,塘新社区,,420102,027,420102005008,111,,,,,,,,,2,100,1016,1368,3607,32458,491011,,
491012,8,114.309943,30.605829,吉林社区,,420102,027,420102006003,111,,,,,,,,,2,100,1016,1368,3607,32459,491012,,
491013,8,114.309035,30.60504,沈阳社区,,420102,027,420102006004,111,,,,,,,,,2,100,1016,1368,3607,32459,491013,,
491014,8,114.309271,30.611302,新天地社区,,420102,027,420102006006,111,,,,,,,,,2,100,1016,1368,3607,32459,491014,,
491015,8,114.306491,30.608307,仁义社区,,420102,027,420102006008,111,,,,,,,,,2,100,1016,1368,3607,32459,491015,,
491016,8,114.288651,30.594404,熊家台社区,,420102,027,420102007001,111,,,,,,,,,2,100,1016,1368,3607,32460,491016,,
491017,8,114.281419,30.588419,江汉北路社区,,420102,027,420102007002,111,,,,,,,,,2,100,1016,1368,3607,32460,491017,,
491018,8,114.284796,30.587162,光荣坊社区,,420102,027,420102007004,111,,,,,,,,,2,100,1016,1368,3607,32460,491018,,
491019,8,114.286904,30.593483,高雄社区,,420102,027,420102007005,111,,,,,,,,,2,100,1016,1368,3607,32460,491019,,
491020,8,114.290705,30.596069,新三巷社区,,420102,027,420102007006,111,,,,,,,,,2,100,1016,1368,3607,32460,491020,,
491021,8,114.292837,30.596805,模范社区,,420102,027,420102007007,111,,,,,,,,,2,100,1016,1368,3607,32460,491021,,
491022,8,114.292846,30.59858,金门社区,,420102,027,420102007008,111,,,,,,,,,2,100,1016,1368,3607,32460,491022,,
491023,8,114.286355,30.600598,香港社区,,420102,027,420102007009,111,,,,,,,,,2,100,1016,1368,3607,32460,491023,,
491024,8,114.290604,30.588851,安静社区,,420102,027,420102008003,111,,,,,,,,,2,100,1016,1368,3607,32461,491024,,
491025,8,114.29236,30.593307,同庆阁社区,,420102,027,420102008004,111,,,,,,,,,2,100,1016,1368,3607,32461,491025,,
491026,8,114.294811,30.5936,球新社区,,420102,027,420102008005,111,,,,,,,,,2,100,1016,1368,3607,32461,491026,,
491027,8,114.297768,30.596633,货捐社区,,420102,027,420102008006,111,,,,,,,,,2,100,1016,1368,3607,32461,491027,,
491028,8,114.298991,30.59911,阳春阁社区,,420102,027,420102008008,111,,,,,,,,,2,100,1016,1368,3607,32461,491028,,
491029,8,114.300386,30.602884,三合社区,,420102,027,420102009002,111,,,,,,,,,2,100,1016,1368,3607,32462,491029,,
491030,8,114.295615,30.602324,湖边坊社区,,420102,027,420102009003,111,,,,,,,,,2,100,1016,1368,3607,32462,491030,,
491031,8,114.293843,30.597937,苗栗社区,,420102,027,420102009004,111,,,,,,,,,2,100,1016,1368,3607,32462,491031,,
491032,8,114.293091,30.601701,光华社区,,420102,027,420102009005,111,,,,,,,,,2,100,1016,1368,3607,32462,491032,,
491033,8,114.302182,30.605845,艺苑社区,,420102,027,420102009007,111,,,,,,,,,2,100,1016,1368,3607,32462,491033,,
491034,8,114.298043,30.604788,国信院社区,,420102,027,420102009008,111,,,,,,,,,2,100,1016,1368,3607,32462,491034,,
491035,8,114.289618,30.609932,惠中社区,,420102,027,420102009010,111,,,,,,,,,2,100,1016,1368,3607,32462,491035,,
491036,8,114.298806,30.601796,花惠社区,,420102,027,420102009011,111,,,,,,,,,2,100,1016,1368,3607,32462,491036,,
491037,8,114.298771,30.614164,公园社区,,420102,027,420102009014,111,,,,,,,,,2,100,1016,1368,3607,32462,491037,,
491038,8,114.30034,30.614681,长江委社区,,420102,027,420102009015,111,,,,,,,,,2,100,1016,1368,3607,32462,491038,,
491039,8,114.31271,30.624491,操场社区,,420102,027,420102010001,111,,,,,,,,,2,100,1016,1368,3607,32463,491039,,
491040,8,114.31995,30.62822,长建社区,,420102,027,420102010002,111,,,,,,,,,2,100,1016,1368,3607,32463,491040,,
491041,8,114.314171,30.61944,黄家墩社区,,420102,027,420102010003,111,,,,,,,,,2,100,1016,1368,3607,32463,491041,,
491042,8,114.31134,30.617098,新建社区,,420102,027,420102010004,111,,,,,,,,,2,100,1016,1368,3607,32463,491042,,
491043,8,114.318132,30.611766,分金社区,,420102,027,420102010005,111,,,,,,,,,2,100,1016,1368,3607,32463,491043,,
491044,8,114.324895,30.623343,江码社区,,420102,027,420102010006,111,,,,,,,,,2,100,1016,1368,3607,32463,491044,,
491045,8,114.31792,30.622821,福建社区,,420102,027,420102010007,111,,,,,,,,,2,100,1016,1368,3607,32463,491045,,
491046,8,114.30672,30.61731,上滑社区,,420102,027,420102010010,111,,,,,,,,,2,100,1016,1368,3607,32463,491046,,
491047,8,114.309896,30.628159,支农社区,,420102,027,420102010012,111,,,,,,,,,2,100,1016,1368,3607,32463,491047,,
491048,8,114.301727,30.621187,罗家庄社区,,420102,027,420102010014,111,,,,,,,,,2,100,1016,1368,3607,32463,491048,,
491049,8,114.299385,30.624309,联合社区,,420102,027,420102010015,111,,,,,,,,,2,100,1016,1368,3607,32463,491049,,
491050,8,114.318675,30.625385,火箭军社区,,420102,027,420102010017,111,,,,,,,,,2,100,1016,1368,3607,32463,491050,,
491051,8,114.318675,30.625385,预警学院社区,,420102,027,420102010019,111,,,,,,,,,2,100,1016,1368,3607,32463,491051,,
491052,8,114.311639,30.628256,韦桑社区,,420102,027,420102010020,111,,,,,,,,,2,100,1016,1368,3607,32463,491052,,
491053,8,114.30771,30.633384,铁北社区,,420102,027,420102011002,111,,,,,,,,,2,100,1016,1368,3607,32464,491053,,
491054,8,114.303155,30.629479,新江岸社区,,420102,027,420102011003,111,,,,,,,,,2,100,1016,1368,3607,32464,491054,,
491055,8,114.312414,30.629672,黑泥湖社区,,420102,027,420102011004,111,,,,,,,,,2,100,1016,1368,3607,32464,491055,,
491056,8,114.320234,30.629625,为群社区,,420102,027,420102011006,111,,,,,,,,,2,100,1016,1368,3607,32464,491056,,
491057,8,114.317363,30.630402,航务社区,,420102,027,420102011008,111,,,,,,,,,2,100,1016,1368,3607,32464,491057,,
491058,8,114.324047,30.636556,长湖地社区,,420102,027,420102011009,111,,,,,,,,,2,100,1016,1368,3607,32464,491058,,
491059,8,114.319196,30.627395,转车楼社区,,420102,027,420102011010,111,,,,,,,,,2,100,1016,1368,3607,32464,491059,,
491060,8,114.328188,30.633416,徐州社区,,420102,027,420102011011,111,,,,,,,,,2,100,1016,1368,3607,32464,491060,,
491061,8,114.329812,30.634068,二七社区,,420102,027,420102011014,111,,,,,,,,,2,100,1016,1368,3607,32464,491061,,
491062,8,114.317743,30.629239,铁南社区,,420102,027,420102011016,111,,,,,,,,,2,100,1016,1368,3607,32464,491062,,
491063,8,114.334967,30.643317,丹南社区,,420102,027,420102012001,111,,,,,,,,,2,100,1016,1368,3607,32465,491063,,
491064,8,114.336648,30.645797,丹东社区,,420102,027,420102012002,111,,,,,,,,,2,100,1016,1368,3607,32465,491064,,
491065,8,114.330261,30.646534,丹西社区,,420102,027,420102012003,111,,,,,,,,,2,100,1016,1368,3607,32465,491065,,
491066,8,114.335237,30.653186,丹北社区,,420102,027,420102012004,111,,,,,,,,,2,100,1016,1368,3607,32465,491066,,
491067,8,114.337951,30.658785,江中社区,,420102,027,420102012006,111,,,,,,,,,2,100,1016,1368,3607,32465,491067,,
491068,8,114.34466,30.66114,江北社区,,420102,027,420102012007,111,,,,,,,,,2,100,1016,1368,3607,32465,491068,,
491069,8,114.336493,30.655899,堤角社区,,420102,027,420102012008,111,,,,,,,,,2,100,1016,1368,3607,32465,491069,,
491070,8,114.324463,30.649726,新马社区,,420102,027,420102012010,111,,,,,,,,,2,100,1016,1368,3607,32465,491070,,
491071,8,114.328578,30.666678,汉黄社区,,420102,027,420102012011,111,,,,,,,,,2,100,1016,1368,3607,32465,491071,,
491072,8,114.321091,30.670056,岱山社区,,420102,027,420102012012,111,,,,,,,,,2,100,1016,1368,3607,32465,491072,,
491073,8,114.277112,30.597843,桃源社区,,420102,027,420102014002,111,,,,,,,,,2,100,1016,1368,3607,32466,491073,,
491074,8,114.28034,30.595419,和美社区,,420102,027,420102014003,111,,,,,,,,,2,100,1016,1368,3607,32466,491074,,
491075,8,114.28077,30.59763,宝岛社区,,420102,027,420102014004,111,,,,,,,,,2,100,1016,1368,3607,32466,491075,,
491076,8,114.277358,30.595105,云林社区,,420102,027,420102014005,111,,,,,,,,,2,100,1016,1368,3607,32466,491076,,
491077,8,114.284446,30.601277,花莲社区,,420102,027,420102014007,111,,,,,,,,,2,100,1016,1368,3607,32466,491077,,
491078,8,114.287174,30.61452,花桥社区,,420102,027,420102015001,111,,,,,,,,,2,100,1016,1368,3607,32467,491078,,
491079,8,114.278612,30.618982,蔡家田社区,,420102,027,420102015004,111,,,,,,,,,2,100,1016,1368,3607,32467,491079,,
491080,8,114.281298,30.618778,望才里社区,,420102,027,420102015005,111,,,,,,,,,2,100,1016,1368,3607,32467,491080,,
491081,8,114.28846,30.620828,科苑社区,,420102,027,420102015007,111,,,,,,,,,2,100,1016,1368,3607,32467,491081,,
491082,8,114.30411,30.615355,黄浦社区,,420102,027,420102015008,111,,,,,,,,,2,100,1016,1368,3607,32467,491082,,
491083,8,114.28314,30.615366,育才社区,,420102,027,420102015013,111,,,,,,,,,2,100,1016,1368,3607,32467,491083,,
491084,8,114.28101,30.616222,聚才社区,,420102,027,420102015014,111,,,,,,,,,2,100,1016,1368,3607,32467,491084,,
491085,8,114.278922,30.61634,四村社区,,420102,027,420102015015,111,,,,,,,,,2,100,1016,1368,3607,32467,491085,,
491086,8,114.281709,30.612434,三村社区,,420102,027,420102015017,111,,,,,,,,,2,100,1016,1368,3607,32467,491086,,
491087,8,114.283656,30.608761,长惠社区,,420103,027,420102015018,111,,,,,,,,,2,100,1016,1368,3607,32467,491087,,
491088,8,114.293244,30.617014,大江园社区,,420102,027,420102015020,111,,,,,,,,,2,100,1016,1368,3607,32467,491088,,
491089,8,114.278963,30.621546,田园社区,,420102,027,420102015021,111,,,,,,,,,2,100,1016,1368,3607,32467,491089,,
491090,8,114.290113,30.614709,九万方社区,,420102,027,420102015022,111,,,,,,,,,2,100,1016,1368,3607,32467,491090,,
491091,8,114.372958,30.677424,谌家矶社区,,420102,027,420102016005,111,,,,,,,,,2,100,1016,1368,3607,32468,491091,,
491092,8,114.386203,30.684518,平安苑社区,,420102,027,420102016006,111,,,,,,,,,2,100,1016,1368,3607,32468,491092,,
491093,8,114.363732,30.667231,长江明珠社区,,420102,027,420102016007,111,,,,,,,,,2,100,1016,1368,3607,32468,491093,,
491094,8,114.234587,30.638464,天兴花园社区,,420112,027,420102016008,111,,,,,,,,,2,100,1016,1368,3607,32468,491094,,
491095,8,114.345478,30.675393,幸福社区,,420102,027,420102016009,111,,,,,,,,,2,100,1016,1368,3607,32468,491095,,
491096,8,114.367693,30.671868,先锋村委会,,420102,027,420102016206,111,,,,,,,,,2,100,1016,1368,3607,32468,491096,,
491097,8,114.367693,30.671868,朱家河村委会,,420102,027,420102016207,112,,,,,,,,,2,100,1016,1368,3607,32468,491097,,
491098,8,114.367693,30.671868,新建村委会,,420102,027,420102016209,111,,,,,,,,,2,100,1016,1368,3607,32468,491098,,
491099,8,114.319218,30.642333,建设新村社区,,420102,027,420102017001,111,,,,,,,,,2,100,1016,1368,3607,32469,491099,,
491100,8,114.329617,30.657188,新荣社区,,420102,027,420102017003,111,,,,,,,,,2,100,1016,1368,3607,32469,491100,,
491101,8,114.290624,30.636365,后湖苑社区,,420102,027,420102017004,111,,,,,,,,,2,100,1016,1368,3607,32469,491101,,
491102,8,114.292808,30.628886,胜华社区,,420102,027,420102017005,111,,,,,,,,,2,100,1016,1368,3607,32469,491102,,
491103,8,114.325501,30.659957,十大家社区,,420102,027,420102017006,111,,,,,,,,,2,100,1016,1368,3607,32469,491103,,
491104,8,114.301058,30.63595,东方社区,,420102,027,420102017008,111,,,,,,,,,2,100,1016,1368,3607,32469,491104,,
491105,8,114.290694,30.632202,美庐社区,,420102,027,420102017009,111,,,,,,,,,2,100,1016,1368,3607,32469,491105,,
491106,8,114.296674,30.64243,香园社区,,420102,027,420102017014,111,,,,,,,,,2,100,1016,1368,3607,32469,491106,,
491107,8,114.300446,30.622442,同安社区,,420102,027,420102017016,111,,,,,,,,,2,100,1016,1368,3607,32469,491107,,
491108,8,114.287785,30.638197,惠民苑社区,,420102,027,420102017017,111,,,,,,,,,2,100,1016,1368,3607,32469,491108,,
491109,8,114.287785,30.638197,金桥社区,,420102,027,420102017018,111,,,,,,,,,2,100,1016,1368,3607,32469,491109,,
491110,8,114.287785,30.638197,海赋社区,,420102,027,420102017019,111,,,,,,,,,2,100,1016,1368,3607,32469,491110,,
491111,8,114.287785,30.638197,汉广社区,,420102,027,420102017020,111,,,,,,,,,2,100,1016,1368,3607,32469,491111,,
491112,8,114.287785,30.638197,三金潭社区,,420102,027,420102017021,111,,,,,,,,,2,100,1016,1368,3607,32469,491112,,
491113,8,114.287785,30.638197,岱家山社区,,420102,027,420102017022,111,,,,,,,,,2,100,1016,1368,3607,32469,491113,,
491114,8,114.287785,30.638197,淌湖社区,,420102,027,420102017023,111,,,,,,,,,2,100,1016,1368,3607,32469,491114,,
491115,8,114.287785,30.638197,兴业社区,,420102,027,420102017024,111,,,,,,,,,2,100,1016,1368,3607,32469,491115,,
491116,8,114.26949,30.633981,汉口花园社区,,420102,027,420102018001,111,,,,,,,,,2,100,1016,1368,3607,32470,491116,,
491117,8,114.278014,30.645731,塔子湖社区,,420102,027,420102018002,111,,,,,,,,,2,100,1016,1368,3607,32470,491117,,
491118,8,114.29389,30.648539,余华岭社区,,420102,027,420102018003,111,,,,,,,,,2,100,1016,1368,3607,32470,491118,,
491119,8,114.266417,30.642048,跃进社区,,420102,027,420102018004,111,,,,,,,,,2,100,1016,1368,3607,32470,491119,,
491120,8,114.287174,30.61452,花桥社区,,420102,027,420102018005,111,,,,,,,,,2,100,1016,1368,3607,32470,491120,,
491121,8,114.30783,30.657351,红桥社区,,420102,027,420102018006,111,,,,,,,,,2,100,1016,1368,3607,32470,491121,,
491122,8,114.279226,30.631251,石桥社区,,420102,027,420102018007,111,,,,,,,,,2,100,1016,1368,3607,32470,491122,,
491123,8,114.283393,30.633283,中星社区,,420102,027,420102018008,111,,,,,,,,,2,100,1016,1368,3607,32470,491123,,
491124,8,114.28767,30.638251,新苗社区,,420102,027,420102018009,111,,,,,,,,,2,100,1016,1368,3607,32470,491124,,
491125,8,114.28767,30.638251,越秀社区,,420102,027,420102018010,111,,,,,,,,,2,100,1016,1368,3607,32470,491125,,
491126,8,114.286609,30.634674,金桥汇社区,,420102,027,420102018011,111,,,,,,,,,2,100,1016,1368,3607,32470,491126,,
491127,8,114.28767,30.638251,美联社区,,420102,027,420102018012,111,,,,,,,,,2,100,1016,1368,3607,32470,491127,,
491128,8,114.28767,30.638251,尚荣社区,,420102,027,420102018013,111,,,,,,,,,2,100,1016,1368,3607,32470,491128,,
491129,8,114.28767,30.638251,海悦社区,,420102,027,420102018014,111,,,,,,,,,2,100,1016,1368,3607,32470,491129,,
491130,8,114.28767,30.638251,君安社区,,420102,027,420102018015,111,,,,,,,,,2,100,1016,1368,3607,32470,491130,,
491131,8,114.28767,30.638251,华汇社区,,420102,027,420102018016,111,,,,,,,,,2,100,1016,1368,3607,32470,491131,,
491132,8,114.294948,30.668435,金潭村委会,,420102,027,420102018201,111,,,,,,,,,2,100,1016,1368,3607,32470,491132,,
491133,8,114.320556,30.647592,一居委会,,420102,027,420102400001,111,,,,,,,,,2,100,1016,1368,3607,32471,491133,,
491134,8,114.320556,30.647592,二居委会,,420102,027,420102400002,111,,,,,,,,,2,100,1016,1368,3607,32471,491134,,
491135,8,114.320556,30.647592,三居委会,,420102,027,420102400003,111,,,,,,,,,2,100,1016,1368,3607,32471,491135,,
491136,8,114.320556,30.647592,四居委会,,420102,027,420102400004,111,,,,,,,,,2,100,1016,1368,3607,32471,491136,,
491137,8,114.320556,30.647592,现代城社区,,420102,027,420102400005,111,,,,,,,,,2,100,1016,1368,3607,32471,491137,,
491138,8,114.322025,30.654921,悦秀苑社区,,420102,027,420102400006,111,,,,,,,,,2,100,1016,1368,3607,32471,491138,,
491139,8,114.322025,30.654921,景兰苑社区,,420102,027,420102400007,111,,,,,,,,,2,100,1016,1368,3607,32471,491139,,
491140,8,114.322025,30.654921,文卉苑社区,,420102,027,420102400008,111,,,,,,,,,2,100,1016,1368,3607,32471,491140,,
491141,8,114.320556,30.647592,幸福时代社区,,420102,027,420102400009,111,,,,,,,,,2,100,1016,1368,3607,32471,491141,,
491142,8,114.285964,30.571102,武胜社区居委会,,420103,027,420103001001,111,,,,,,,,,2,100,1016,1368,3608,32472,491142,,
491143,8,114.289638,30.613638,万年社区居委会,,420102,027,420103001002,111,,,,,,,,,2,100,1016,1368,3608,32472,491143,,
491144,8,114.288881,30.571856,涂家社区居委会,,420103,027,420103001004,111,,,,,,,,,2,100,1016,1368,3608,32472,491144,,
491145,8,114.290132,30.571121,大董社区居委会,,420103,027,420103001005,111,,,,,,,,,2,100,1016,1368,3608,32472,491145,,
491146,8,114.293134,30.568411,和平社区居委会,,420103,027,420103001006,111,,,,,,,,,2,100,1016,1368,3608,32472,491146,,
491147,8,114.28691,30.568968,龙王庙社区居委会,,420103,027,420103001007,111,,,,,,,,,2,100,1016,1368,3608,32472,491147,,
491148,8,114.29411,30.57853,交通路社区居委会,,420103,027,420103002001,111,,,,,,,,,2,100,1016,1368,3608,32473,491148,,
491149,8,114.29411,30.57853,江汉关社区居委会,,420103,027,420103002002,111,,,,,,,,,2,100,1016,1368,3608,32473,491149,,
491150,8,114.29411,30.57853,苗家社区居委会,,420103,027,420103002003,111,,,,,,,,,2,100,1016,1368,3608,32473,491150,,
491151,8,114.293663,30.577505,花楼社区居委会,,420103,027,420103002004,111,,,,,,,,,2,100,1016,1368,3608,32473,491151,,
491152,8,114.288301,30.578314,永康社区居委会,,420103,027,420103003001,111,,,,,,,,,2,100,1016,1368,3608,32474,491152,,
491153,8,114.290538,30.579941,联保社区居委会,,420103,027,420103003002,111,,,,,,,,,2,100,1016,1368,3608,32474,491153,,
491154,8,114.287987,30.582004,华中社区居委会,,420103,027,420103003003,111,,,,,,,,,2,100,1016,1368,3608,32474,491154,,
491155,8,114.287683,30.582678,老甫社区居委会,,420103,027,420103003005,111,,,,,,,,,2,100,1016,1368,3608,32474,491155,,
491156,8,114.28501,30.581829,东民社区居委会,,420103,027,420103003006,111,,,,,,,,,2,100,1016,1368,3608,32474,491156,,
491157,8,114.289638,30.613638,前进社区居委会,,420102,027,420103003007,111,,,,,,,,,2,100,1016,1368,3608,32474,491157,,
491158,8,114.289797,30.576599,打铜社区居委会,,420103,027,420103004001,111,,,,,,,,,2,100,1016,1368,3608,32475,491158,,
491159,8,114.288311,30.576229,积庆社区居委会,,420103,027,420103004002,111,,,,,,,,,2,100,1016,1368,3608,32475,491159,,
491160,8,114.289002,30.573576,三民社区居委会,,420103,027,420103004003,111,,,,,,,,,2,100,1016,1368,3608,32475,491160,,
491161,8,114.291819,30.574693,民生社区居委会,,420103,027,420103004004,111,,,,,,,,,2,100,1016,1368,3608,32475,491161,,
491162,8,114.291461,30.573041,大龙社区居委会,,420103,027,420103004005,111,,,,,,,,,2,100,1016,1368,3608,32475,491162,,
491163,8,114.289638,30.613638,世彩社区居委会,,420102,027,420103004006,111,,,,,,,,,2,100,1016,1368,3608,32475,491163,,
491164,8,114.293813,30.571006,王家巷社区居委会,,420103,027,420103004008,111,,,,,,,,,2,100,1016,1368,3608,32475,491164,,
491165,8,114.284059,30.573261,小夹社区居委会,,420103,027,420103005001,111,,,,,,,,,2,100,1016,1368,3608,32476,491165,,
491166,8,114.283247,30.573396,大夹社区居委会,,420103,027,420103005002,111,,,,,,,,,2,100,1016,1368,3608,32476,491166,,
491167,8,114.282651,30.56937,长堤社区居委会,,420103,027,420103005003,111,,,,,,,,,2,100,1016,1368,3608,32476,491167,,
491168,8,114.281694,30.570846,勤劳社区居委会,,420103,027,420103005005,111,,,,,,,,,2,100,1016,1368,3608,32476,491168,,
491169,8,114.284059,30.573261,肖家社区居委会,,420103,027,420103005006,111,,,,,,,,,2,100,1016,1368,3608,32476,491169,,
491170,8,114.283588,30.571428,清芬社区居委会,,420103,027,420103005007,111,,,,,,,,,2,100,1016,1368,3608,32476,491170,,
491171,8,114.281202,30.571488,中大社区居委会,,420103,027,420103005008,111,,,,,,,,,2,100,1016,1368,3608,32476,491171,,
491172,8,114.2805,30.5794,新舞台社区居委会,,420103,027,420103006002,111,,,,,,,,,2,100,1016,1368,3608,32477,491172,,
491173,8,114.279201,30.579385,永丰社区居委会,,420103,027,420103006003,111,,,,,,,,,2,100,1016,1368,3608,32477,491173,,
491174,8,114.277936,30.57747,友谊社区居委会,,420103,027,420103006004,111,,,,,,,,,2,100,1016,1368,3608,32477,491174,,
491175,8,114.279669,30.575822,天仁社区居委会,,420103,027,420103006005,111,,,,,,,,,2,100,1016,1368,3608,32477,491175,,
491176,8,114.280122,30.578881,多闻社区居委会,,420103,027,420103006006,111,,,,,,,,,2,100,1016,1368,3608,32477,491176,,
491177,8,114.278861,30.574884,天后社区居委会,,420103,027,420103006007,111,,,,,,,,,2,100,1016,1368,3608,32477,491177,,
491178,8,114.2805,30.5794,仁厚社区居委会,,420103,027,420103006008,111,,,,,,,,,2,100,1016,1368,3608,32477,491178,,
491179,8,114.2757,30.581702,协和社区居委会,,420103,027,420103007002,111,,,,,,,,,2,100,1016,1368,3608,32478,491179,,
491180,8,114.2757,30.581702,省运社区居委会,,420103,027,420103007003,111,,,,,,,,,2,100,1016,1368,3608,32478,491180,,
491181,8,114.27145,30.591962,取水楼社区居委会,,420103,027,420103007004,111,,,,,,,,,2,100,1016,1368,3608,32478,491181,,
491182,8,114.277779,30.588425,江北社区居委会,,420103,027,420103007005,111,,,,,,,,,2,100,1016,1368,3608,32478,491182,,
491183,8,114.280222,30.58554,循礼社区居委会,,420103,027,420103007006,111,,,,,,,,,2,100,1016,1368,3608,32478,491183,,
491184,8,114.277948,30.588247,精武社区居委会,,420103,027,420103007007,111,,,,,,,,,2,100,1016,1368,3608,32478,491184,,
491185,8,114.275439,30.580441,新育社区居委会,,420103,027,420103007008,111,,,,,,,,,2,100,1016,1368,3608,32478,491185,,
491186,8,114.277683,30.582113,邮三社区居委会,,420103,027,420103007009,111,,,,,,,,,2,100,1016,1368,3608,32478,491186,,
491187,8,114.280623,30.582915,单洞社区居委会,,420103,027,420103007010,111,,,,,,,,,2,100,1016,1368,3608,32478,491187,,
491188,8,114.267497,30.582327,武展社区居委会,,420103,027,420103008001,111,,,,,,,,,2,100,1016,1368,3608,32479,491188,,
491189,8,114.269511,30.578549,地质社区居委会,,420103,027,420103008002,111,,,,,,,,,2,100,1016,1368,3608,32479,491189,,
491190,8,114.267497,30.582327,电业社区居委会,,420103,027,420103008003,111,,,,,,,,,2,100,1016,1368,3608,32479,491190,,
491191,8,114.259632,30.587945,电力社区居委会,,420103,027,420103008004,111,,,,,,,,,2,100,1016,1368,3608,32479,491191,,
491192,8,114.260167,30.586182,航空社区居委会,,420103,027,420103008005,111,,,,,,,,,2,100,1016,1368,3608,32479,491192,,
491193,8,114.26072,30.587138,青年社区居委会,,420103,027,420103008006,111,,,,,,,,,2,100,1016,1368,3608,32479,491193,,
491194,8,114.267497,30.582327,白松社区居委会,,420103,027,420103008007,111,,,,,,,,,2,100,1016,1368,3608,32479,491194,,
491195,8,114.267455,30.591088,青松社区居委会,,420103,027,420103008008,111,,,,,,,,,2,100,1016,1368,3608,32479,491195,,
491196,8,114.269259,30.586674,公园社区居委会,,420103,027,420103008009,111,,,,,,,,,2,100,1016,1368,3608,32479,491196,,
491197,8,114.267497,30.582327,航侧社区居委会,,420103,027,420103008010,111,,,,,,,,,2,100,1016,1368,3608,32479,491197,,
491198,8,114.267497,30.582327,妙墩社区居委会,,420103,027,420103008011,111,,,,,,,,,2,100,1016,1368,3608,32479,491198,,
491199,8,114.24806,30.587696,凌云社区居委会,,420103,027,420103008012,111,,,,,,,,,2,100,1016,1368,3608,32479,491199,,
491200,8,114.251124,30.587493,机场社区居委会,,420103,027,420103008013,111,,,,,,,,,2,100,1016,1368,3608,32479,491200,,
491201,8,114.254704,30.587592,王家墩社区居委会,,420103,027,420103008014,111,,,,,,,,,2,100,1016,1368,3608,32479,491201,,
491202,8,114.236135,30.632581,商务区第一社区居委会,,420112,027,420103008015,111,,,,,,,,,2,100,1016,1368,3608,32479,491202,,
491203,8,114.278549,30.611702,西桥社区居委会,,420103,027,420103009001,111,,,,,,,,,2,100,1016,1368,3608,32480,491203,,
491204,8,114.264607,30.613457,汽运社区居委会,,420103,027,420103009002,111,,,,,,,,,2,100,1016,1368,3608,32480,491204,,
491205,8,114.276218,30.608926,香江新村社区居委会,,420103,027,420103009003,111,,,,,,,,,2,100,1016,1368,3608,32480,491205,,
491206,8,114.289638,30.613638,唐蔡社区居委会,,420102,027,420103009004,111,,,,,,,,,2,100,1016,1368,3608,32480,491206,,
491207,8,114.266691,30.615785,马场社区居委会,,420103,027,420103009005,111,,,,,,,,,2,100,1016,1368,3608,32480,491207,,
491208,8,114.289638,30.613638,站东社区居委会,,420102,027,420103009006,111,,,,,,,,,2,100,1016,1368,3608,32480,491208,,
491209,8,114.275554,30.612391,新村社区居委会,,420103,027,420103009007,111,,,,,,,,,2,100,1016,1368,3608,32480,491209,,
491210,8,114.278298,30.605252,天门墩社区居委会,,420103,027,420103009008,111,,,,,,,,,2,100,1016,1368,3608,32480,491210,,
491211,8,114.272942,30.620384,八古墩社区居委会,,420103,027,420103009009,111,,,,,,,,,2,100,1016,1368,3608,32480,491211,,
491212,8,114.271946,30.612109,陈家墩社区居委会,,420103,027,420103009010,111,,,,,,,,,2,100,1016,1368,3608,32480,491212,,
491213,8,114.277115,30.600586,德望社区居委会,,420103,027,420103010001,111,,,,,,,,,2,100,1016,1368,3608,32481,491213,,
491214,8,114.27382,30.598947,建设社区居委会,,420103,027,420103010002,111,,,,,,,,,2,100,1016,1368,3608,32481,491214,,
491215,8,114.272696,30.599237,正街社区居委会,,420103,027,420103010003,111,,,,,,,,,2,100,1016,1368,3608,32481,491215,,
491216,8,114.275413,30.602456,环保社区居委会,,420103,027,420103010004,111,,,,,,,,,2,100,1016,1368,3608,32481,491216,,
491217,8,114.266555,30.602734,横堤社区居委会,,420103,027,420103010005,111,,,,,,,,,2,100,1016,1368,3608,32481,491217,,
491218,8,114.265434,30.596437,妙三社区居委会,,420103,027,420103010006,111,,,,,,,,,2,100,1016,1368,3608,32481,491218,,
491219,8,114.282701,30.58196,燕马社区居委会,,420103,027,420103011001,111,,,,,,,,,2,100,1016,1368,3608,32482,491219,,
491220,8,114.283554,30.580682,任冬社区居委会,,420103,027,420103011003,111,,,,,,,,,2,100,1016,1368,3608,32482,491220,,
491221,8,114.284591,30.577078,济生社区居委会,,420103,027,420103011004,111,,,,,,,,,2,100,1016,1368,3608,32482,491221,,
491222,8,114.285827,30.578588,永安社区居委会,,420103,027,420103011005,111,,,,,,,,,2,100,1016,1368,3608,32482,491222,,
491223,8,114.277827,30.597626,桃源社区居委会,,420102,027,420103011006,111,,,,,,,,,2,100,1016,1368,3608,32482,491223,,
491224,8,114.294662,30.580163,扬子社区居委会,,420102,027,420103012001,111,,,,,,,,,2,100,1016,1368,3608,32483,491224,,
491225,8,114.246529,30.606186,复兴村社区居委会,,420103,027,420103012002,111,,,,,,,,,2,100,1016,1368,3608,32483,491225,,
491226,8,114.244943,30.603809,贺家墩社区居委会,,420103,027,420103012003,111,,,,,,,,,2,100,1016,1368,3608,32483,491226,,
491227,8,114.244943,30.603809,詹家墩社区居委会,,420103,027,420103012004,111,,,,,,,,,2,100,1016,1368,3608,32483,491227,,
491228,8,114.244943,30.603809,富豪社区居委会,,420103,027,420103012005,111,,,,,,,,,2,100,1016,1368,3608,32483,491228,,
491229,8,114.242552,30.611059,发展社区居委会,,420103,027,420103012006,111,,,,,,,,,2,100,1016,1368,3608,32483,491229,,
491230,8,114.250106,30.613885,银河里社区居委会,,420103,027,420103012007,111,,,,,,,,,2,100,1016,1368,3608,32483,491230,,
491231,8,114.262361,30.609204,八达里社区居委会,,420103,027,420103012008,111,,,,,,,,,2,100,1016,1368,3608,32483,491231,,
491232,8,114.261583,30.613133,邬家墩社区居委会,,420103,027,420103012009,111,,,,,,,,,2,100,1016,1368,3608,32483,491232,,
491233,8,114.244943,30.603809,常宏里社区居委会,,420103,027,420103012010,111,,,,,,,,,2,100,1016,1368,3608,32483,491233,,
491234,8,114.233944,30.620054,常远里社区居委会,,420103,027,420103013001,111,,,,,,,,,2,100,1016,1368,3608,32484,491234,,
491235,8,114.240711,30.617262,华安里社区居委会,,420103,027,420103013002,111,,,,,,,,,2,100,1016,1368,3608,32484,491235,,
491236,8,114.239407,30.627555,民航里社区居委会,,420103,027,420103013003,111,,,,,,,,,2,100,1016,1368,3608,32484,491236,,
491237,8,114.245382,30.629601,玉兰里社区居委会,,420103,027,420103013004,111,,,,,,,,,2,100,1016,1368,3608,32484,491237,,
491238,8,114.246093,30.617977,红梅里社区居委会,,420103,027,420103013005,111,,,,,,,,,2,100,1016,1368,3608,32484,491238,,
491239,8,114.289638,30.613638,新松里社区居委会,,420102,027,420103013006,111,,,,,,,,,2,100,1016,1368,3608,32484,491239,,
491240,8,114.289638,30.613638,华苑里社区居委会,,420102,027,420103013007,111,,,,,,,,,2,100,1016,1368,3608,32484,491240,,
491241,8,114.261709,30.629106,和祥里社区居委会,,420103,027,420103013008,111,,,,,,,,,2,100,1016,1368,3608,32484,491241,,
491242,8,114.257247,30.629335,常二社区居委会,,420103,027,420103013009,111,,,,,,,,,2,100,1016,1368,3608,32484,491242,,
491243,8,114.289638,30.613638,常三社区居委会,,420102,027,420103013010,111,,,,,,,,,2,100,1016,1368,3608,32484,491243,,
491244,8,114.256346,30.629927,常四社区居委会,,420103,027,420103013011,111,,,,,,,,,2,100,1016,1368,3608,32484,491244,,
491245,8,114.263635,30.63716,姑嫂树社区居委会,,420102,027,420103013012,111,,,,,,,,,2,100,1016,1368,3608,32484,491245,,
491246,8,114.289638,30.613638,杨汊湖社区居委会,,420102,027,420103013013,111,,,,,,,,,2,100,1016,1368,3608,32484,491246,,
491247,8,114.289638,30.613638,水仙里社区居委会,,420102,027,420103013014,111,,,,,,,,,2,100,1016,1368,3608,32484,491247,,
491248,8,114.289638,30.613638,阳光社区居委会,,420102,027,420103013015,111,,,,,,,,,2,100,1016,1368,3608,32484,491248,,
491249,8,114.261857,30.624226,新华家园社区居委会,,420103,027,420103013016,111,,,,,,,,,2,100,1016,1368,3608,32484,491249,,
491250,8,114.288618,30.582327,江汉里社区居委会,,420103,027,420103013017,111,,,,,,,,,2,100,1016,1368,3608,32484,491250,,
491251,8,114.270871,30.60143,开发区虚拟社区,,420103,027,420103400498,111,,,,,,,,,2,100,1016,1368,3608,32485,491251,,
491252,8,114.246863,30.597604,商务区虚拟社区,,420103,027,420103401498,111,,,,,,,,,2,100,1016,1368,3608,32486,491252,,
491253,8,114.193283,30.597928,古一社区居委会,,420104,027,420104001004,111,,,,,,,,,2,100,1016,1368,3609,32487,491253,,
491254,8,114.194741,30.600388,古二社区居委会,,420104,027,420104001005,111,,,,,,,,,2,100,1016,1368,3609,32487,491254,,
491255,8,114.197837,30.596083,万人社区居委会,,420104,027,420104001006,111,,,,,,,,,2,100,1016,1368,3609,32487,491255,,
491256,8,114.193283,30.597928,古三社区居委会,,420104,027,420104001007,111,,,,,,,,,2,100,1016,1368,3609,32487,491256,,
491257,8,114.199749,30.585821,罗家墩社区居委会,,420104,027,420104001008,111,,,,,,,,,2,100,1016,1368,3609,32487,491257,,
491258,8,114.193283,30.597928,军院社区居委会,,420104,027,420104001009,111,,,,,,,,,2,100,1016,1368,3609,32487,491258,,
491259,8,114.19867,30.589159,古画社区居委会,,420104,027,420104001010,111,,,,,,,,,2,100,1016,1368,3609,32487,491259,,
491260,8,114.194167,30.592186,生活村社区居委会,,420104,027,420104001011,111,,,,,,,,,2,100,1016,1368,3609,32487,491260,,
491261,8,114.193013,30.591659,古田社区居委会,,420104,027,420104001012,111,,,,,,,,,2,100,1016,1368,3609,32487,491261,,
491262,8,114.26583,30.571236,红星社区居民委员会,,420104,027,420104001013,111,,,,,,,,,2,100,1016,1368,3609,32487,491262,,
491263,8,114.186332,30.604337,古雅社区居委会,,420104,027,420104001014,111,,,,,,,,,2,100,1016,1368,3609,32487,491263,,
491264,8,114.186342,30.589904,古南社区居委会,,420104,027,420104001015,111,,,,,,,,,2,100,1016,1368,3609,32487,491264,,
491265,8,114.203415,30.597081,汉口春天社区居委会,,420104,027,420104001016,111,,,,,,,,,2,100,1016,1368,3609,32487,491265,,
491266,8,114.26583,30.571236,古乐社区居民委员会,,420104,027,420104001017,111,,,,,,,,,2,100,1016,1368,3609,32487,491266,,
491267,8,114.214068,30.598103,农利村村民委员会,,420104,027,420104001201,123,,,,,,,,,2,100,1016,1368,3609,32487,491267,,
491268,8,114.205648,30.593168,新华社区居委会,,420104,027,420104002002,111,,,,,,,,,2,100,1016,1368,3609,32488,491268,,
491269,8,114.213371,30.589095,曾家社区居委会,,420104,027,420104002003,111,,,,,,,,,2,100,1016,1368,3609,32488,491269,,
491270,8,114.21541,30.593416,古四社区居委会,,420104,027,420104002004,111,,,,,,,,,2,100,1016,1368,3609,32488,491270,,
491271,8,114.21629,30.587161,古五社区居委会,,420104,027,420104002005,111,,,,,,,,,2,100,1016,1368,3609,32488,491271,,
491272,8,114.22179,30.587152,博学社区居委会,,420104,027,420104002006,111,,,,,,,,,2,100,1016,1368,3609,32488,491272,,
491273,8,114.209889,30.587524,公安社区居委会,,420104,027,420104002007,111,,,,,,,,,2,100,1016,1368,3609,32488,491273,,
491274,8,114.214124,30.587336,四新社区居委会,,420104,027,420104002008,111,,,,,,,,,2,100,1016,1368,3609,32488,491274,,
491275,8,114.2191,30.584158,简易社区居委会,,420104,027,420104002009,111,,,,,,,,,2,100,1016,1368,3609,32488,491275,,
491276,8,114.219353,30.579022,综合社区居委会,,420104,027,420104002010,111,,,,,,,,,2,100,1016,1368,3609,32488,491276,,
491277,8,114.221803,30.604627,云鹤社区居委会,,420104,027,420104002011,111,,,,,,,,,2,100,1016,1368,3609,32488,491277,,
491278,8,114.213371,30.589095,南泥湾社区居委会,,420104,027,420104002013,111,,,,,,,,,2,100,1016,1368,3609,32488,491278,,
491279,8,114.228044,30.58289,变电社区居委会,,420104,027,420104003001,111,,,,,,,,,2,100,1016,1368,3609,32489,491279,,
491280,8,114.232333,30.576344,太平洋社区居委会,,420104,027,420104003002,111,,,,,,,,,2,100,1016,1368,3609,32489,491280,,
491281,8,114.232335,30.576346,申新社区居委会,,420104,027,420104003003,111,,,,,,,,,2,100,1016,1368,3609,32489,491281,,
491282,8,114.225846,30.573877,宗关社区居委会,,420104,027,420104003004,111,,,,,,,,,2,100,1016,1368,3609,32489,491282,,
491283,8,114.223656,30.57889,水厂社区居委会,,420104,027,420104003005,111,,,,,,,,,2,100,1016,1368,3609,32489,491283,,
491284,8,114.226103,30.584014,新合社区居委会,,420104,027,420104003006,111,,,,,,,,,2,100,1016,1368,3609,32489,491284,,
491285,8,114.223818,30.587903,汉西社区居委会,,420104,027,420104003007,111,,,,,,,,,2,100,1016,1368,3609,32489,491285,,
491286,8,114.229897,30.589564,双墩社区居委会,,420104,027,420104003008,111,,,,,,,,,2,100,1016,1368,3609,32489,491286,,
491287,8,114.226632,30.601224,发展社区居委会,,420104,027,420104003010,111,,,,,,,,,2,100,1016,1368,3609,32489,491287,,
491288,8,114.230655,30.603664,井南社区居委会,,420104,027,420104003011,111,,,,,,,,,2,100,1016,1368,3609,32489,491288,,
491289,8,114.232742,30.587504,金阳社区居委会,,420104,027,420104003015,111,,,,,,,,,2,100,1016,1368,3609,32489,491289,,
491290,8,114.241919,30.573203,汉宜社区居委会,,420104,027,420104004001,111,,,,,,,,,2,100,1016,1368,3609,32490,491290,,
491291,8,114.232458,30.575587,阮家台社区居委会,,420104,027,420104004002,111,,,,,,,,,2,100,1016,1368,3609,32490,491291,,
491292,8,114.243209,30.573743,皮子街社区居委会,,420104,027,420104004003,111,,,,,,,,,2,100,1016,1368,3609,32490,491292,,
491293,8,114.244709,30.574742,仁寿社区居委会,,420104,027,420104004004,111,,,,,,,,,2,100,1016,1368,3609,32490,491293,,
491294,8,114.249553,30.573294,营前社区居委会,,420104,027,420104004005,111,,,,,,,,,2,100,1016,1368,3609,32490,491294,,
491295,8,114.2375,30.579118,汉水桥社区居委会,,420104,027,420104004008,111,,,,,,,,,2,100,1016,1368,3609,32490,491295,,
491296,8,114.238156,30.575144,海工社区居委会,,420104,027,420104004009,111,,,,,,,,,2,100,1016,1368,3609,32490,491296,,
491297,8,114.238156,30.575144,学苑社区居委会,,420104,027,420104004010,111,,,,,,,,,2,100,1016,1368,3609,32490,491297,,
491298,8,114.249506,30.57721,解放社区居委会,,420104,027,420104004011,111,,,,,,,,,2,100,1016,1368,3609,32490,491298,,
491299,8,114.248949,30.581877,营房社区居委会,,420104,027,420104004012,111,,,,,,,,,2,100,1016,1368,3609,32490,491299,,
491300,8,114.247126,30.582293,营南社区居委会,,420104,027,420104004013,111,,,,,,,,,2,100,1016,1368,3609,32490,491300,,
491301,8,114.248012,30.585305,营北社区居委会,,420103,027,420104004014,111,,,,,,,,,2,100,1016,1368,3609,32490,491301,,
491302,8,114.267302,30.57719,利北社区居委会,,420104,027,420104005001,111,,,,,,,,,2,100,1016,1368,3609,32491,491302,,
491303,8,114.265719,30.5768,祥和社区居委会,,420104,027,420104005002,111,,,,,,,,,2,100,1016,1368,3609,32491,491303,,
491304,8,114.264514,30.577402,三五零六社区居委会,,420104,027,420104005003,111,,,,,,,,,2,100,1016,1368,3609,32491,491304,,
491305,8,114.261785,30.57486,站邻园社区居委会,,420104,027,420104005004,111,,,,,,,,,2,100,1016,1368,3609,32491,491305,,
491306,8,114.255159,30.572993,桥北社区居委会,,420104,027,420104005005,111,,,,,,,,,2,100,1016,1368,3609,32491,491306,,
491307,8,114.264514,30.577402,同济社区居民委员会,,420104,027,420104005007,111,,,,,,,,,2,100,1016,1368,3609,32491,491307,,
491308,8,114.258613,30.584826,宝地社区居委会,,420104,027,420104005009,111,,,,,,,,,2,100,1016,1368,3609,32491,491308,,
491309,8,114.255528,30.584168,公路社区居委会,,420104,027,420104005010,111,,,,,,,,,2,100,1016,1368,3609,32491,491309,,
491310,8,114.254674,30.580195,空后社区居委会,,420104,027,420104005011,111,,,,,,,,,2,100,1016,1368,3609,32491,491310,,
491311,8,114.255688,30.582104,宝丰社区居委会,,420104,027,420104005012,111,,,,,,,,,2,100,1016,1368,3609,32491,491311,,
491312,8,114.264514,30.577402,葛洲坝社区居民委员会,,420104,027,420104005013,111,,,,,,,,,2,100,1016,1368,3609,32491,491312,,
491313,8,114.266717,30.573896,集贤里社区居委会,,420104,027,420104006001,111,,,,,,,,,2,100,1016,1368,3609,32492,491313,,
491314,8,114.26803,30.574423,荣西社区居委会,,420104,027,420104006002,111,,,,,,,,,2,100,1016,1368,3609,32492,491314,,
491315,8,114.267663,30.572057,武胜社区居委会,,420104,027,420104006003,111,,,,,,,,,2,100,1016,1368,3609,32492,491315,,
491316,8,114.264285,30.570188,幸乐社区居委会,,420104,027,420104006005,111,,,,,,,,,2,100,1016,1368,3609,32492,491316,,
491317,8,114.263276,30.570652,荣华社区居委会,,420104,027,420104006007,111,,,,,,,,,2,100,1016,1368,3609,32492,491317,,
491318,8,114.277936,30.57747,友谊社区居委会,,420103,027,420104006008,111,,,,,,,,,2,100,1016,1368,3609,32492,491318,,
491319,8,114.257487,30.57146,玉带社区居委会,,420104,027,420104006009,111,,,,,,,,,2,100,1016,1368,3609,32492,491319,,
491320,8,114.257487,30.57146,中山社区居委会,,420104,027,420104006010,111,,,,,,,,,2,100,1016,1368,3609,32492,491320,,
491321,8,114.252268,30.571335,建国社区居委会,,420104,027,420104006012,111,,,,,,,,,2,100,1016,1368,3609,32492,491321,,
491322,8,114.263889,30.566993,汉中社区居委会,,420104,027,420104008001,111,,,,,,,,,2,100,1016,1368,3609,32493,491322,,
491323,8,114.263889,30.566993,长寿社区居委会,,420104,027,420104008003,111,,,,,,,,,2,100,1016,1368,3609,32493,491323,,
491324,8,114.262445,30.565243,万兴社区居委会,,420104,027,420104008005,111,,,,,,,,,2,100,1016,1368,3609,32493,491324,,
491325,8,114.264078,30.56617,马家社区居委会,,420104,027,420104008006,111,,,,,,,,,2,100,1016,1368,3609,32493,491325,,
491326,8,114.248784,30.570701,牌楼社区居委会,,420104,027,420104008007,111,,,,,,,,,2,100,1016,1368,3609,32493,491326,,
491327,8,114.259493,30.568245,居仁社区居委会,,420104,027,420104008010,111,,,,,,,,,2,100,1016,1368,3609,32493,491327,,
491328,8,114.255104,30.568785,军工社区居委会,,420104,027,420104008011,111,,,,,,,,,2,100,1016,1368,3609,32493,491328,,
491329,8,114.260784,30.565817,尚义社区居委会,,420104,027,420104008012,111,,,,,,,,,2,100,1016,1368,3609,32493,491329,,
491330,8,114.261003,30.566033,爱国社区居委会,,420104,027,420104008013,111,,,,,,,,,2,100,1016,1368,3609,32493,491330,,
491331,8,114.252655,30.566788,兴隆社区居委会,,420104,027,420104008014,111,,,,,,,,,2,100,1016,1368,3609,32493,491331,,
491332,8,114.263889,30.566993,劳动社区居委会,,420104,027,420104008015,111,,,,,,,,,2,100,1016,1368,3609,32493,491332,,
491333,8,114.276161,30.562381,石码社区居委会,,420104,027,420104009001,111,,,,,,,,,2,100,1016,1368,3609,32494,491333,,
491334,8,114.266861,30.56499,五彩社区居委会,,420104,027,420104009002,111,,,,,,,,,2,100,1016,1368,3609,32494,491334,,
491335,8,114.279454,30.562314,永宁社区居委会,,420104,027,420104009005,111,,,,,,,,,2,100,1016,1368,3609,32494,491335,,
491336,8,114.266861,30.56499,宝庆社区居委会,,420104,027,420104009006,111,,,,,,,,,2,100,1016,1368,3609,32494,491336,,
491337,8,114.268944,30.567804,红燕社区居委会,,420104,027,420104009008,111,,,,,,,,,2,100,1016,1368,3609,32494,491337,,
491338,8,114.271938,30.56758,利济社区居委会,,420104,027,420104009009,111,,,,,,,,,2,100,1016,1368,3609,32494,491338,,
491339,8,114.266861,30.56499,存仁社区居委会,,420104,027,420104009010,111,,,,,,,,,2,100,1016,1368,3609,32494,491339,,
491340,8,114.269695,30.563166,万安社区居委会,,420104,027,420104009011,111,,,,,,,,,2,100,1016,1368,3609,32494,491340,,
491341,8,114.266861,30.56499,竹牌社区居委会,,420104,027,420104009012,111,,,,,,,,,2,100,1016,1368,3609,32494,491341,,
491342,8,114.272331,30.566442,共和社区居委会,,420104,027,420104009014,111,,,,,,,,,2,100,1016,1368,3609,32494,491342,,
491343,8,114.275544,30.569811,燕山社区居委会,,420104,027,420104009015,111,,,,,,,,,2,100,1016,1368,3609,32494,491343,,
491344,8,114.266861,30.56499,旌德社区居委会,,420104,027,420104009017,111,,,,,,,,,2,100,1016,1368,3609,32494,491344,,
491345,8,114.266861,30.56499,永茂社区居委会,,420104,027,420104009019,111,,,,,,,,,2,100,1016,1368,3609,32494,491345,,
491346,8,114.273298,30.569433,永庆社区居委会,,420104,027,420104009020,111,,,,,,,,,2,100,1016,1368,3609,32494,491346,,
491347,8,114.28142,30.56896,新安社区居委会,,420104,027,420104009021,111,,,,,,,,,2,100,1016,1368,3609,32494,491347,,
491348,8,114.266861,30.56499,多福社区居委会,,420104,027,420104009023,111,,,,,,,,,2,100,1016,1368,3609,32494,491348,,
491349,8,114.266861,30.56499,全新社区居委会,,420104,027,420104009024,111,,,,,,,,,2,100,1016,1368,3609,32494,491349,,
491350,8,114.279478,30.569176,药王社区居委会,,420104,027,420104009025,111,,,,,,,,,2,100,1016,1368,3609,32494,491350,,
491351,8,114.279491,30.5691,大新社区居委会,,420104,027,420104009026,111,,,,,,,,,2,100,1016,1368,3609,32494,491351,,
491352,8,114.276964,30.573011,民意社区居委会,,420104,027,420104010001,111,,,,,,,,,2,100,1016,1368,3609,32495,491352,,
491353,8,114.276044,30.575445,学堂社区居委会,,420104,027,420104010002,111,,,,,,,,,2,100,1016,1368,3609,32495,491353,,
491354,8,114.269258,30.572894,荣东社区居委会,,420104,027,420104010003,111,,,,,,,,,2,100,1016,1368,3609,32495,491354,,
491355,8,114.276044,30.575445,顺道社区居委会,,420104,027,420104010004,111,,,,,,,,,2,100,1016,1368,3609,32495,491355,,
491356,8,114.276044,30.575445,六角社区居委会,,420104,027,420104010005,111,,,,,,,,,2,100,1016,1368,3609,32495,491356,,
491357,8,114.276338,30.576835,南巷社区居委会,,420104,027,420104010006,111,,,,,,,,,2,100,1016,1368,3609,32495,491357,,
491358,8,114.271471,30.575117,自治社区居委会,,420104,027,420104010007,111,,,,,,,,,2,100,1016,1368,3609,32495,491358,,
491359,8,114.276044,30.575445,游艺社区居委会,,420104,027,420104010008,111,,,,,,,,,2,100,1016,1368,3609,32495,491359,,
491360,8,114.275956,30.572181,宝善社区居委会,,420104,027,420104010010,111,,,,,,,,,2,100,1016,1368,3609,32495,491360,,
491361,8,114.206165,30.606467,长丰社区居委会,,420104,027,420104011001,111,,,,,,,,,2,100,1016,1368,3609,32496,491361,,
491362,8,114.202698,30.606948,正康社区居委会,,420104,027,420104011002,111,,,,,,,,,2,100,1016,1368,3609,32496,491362,,
491363,8,114.214117,30.604743,百泽社区居委会,,420104,027,420104011003,111,,,,,,,,,2,100,1016,1368,3609,32496,491363,,
491364,8,114.202698,30.606948,天勤社区居委会,,420104,027,420104011004,111,,,,,,,,,2,100,1016,1368,3609,32496,491364,,
491365,8,114.229073,30.607082,常码社区居委会,,420104,027,420104011007,111,,,,,,,,,2,100,1016,1368,3609,32496,491365,,
491366,8,114.237645,30.609817,丰竹园社区居委会,,420104,027,420104011008,111,,,,,,,,,2,100,1016,1368,3609,32496,491366,,
491367,8,114.217621,30.609816,天顺园南社区居委会,,420104,027,420104011009,111,,,,,,,,,2,100,1016,1368,3609,32496,491367,,
491368,8,114.215172,30.611593,天顺园北社区居委会,,420104,027,420104011010,111,,,,,,,,,2,100,1016,1368,3609,32496,491368,,
491369,8,114.184846,30.610391,东风社区居委会,,420104,027,420104011011,111,,,,,,,,,2,100,1016,1368,3609,32496,491369,,
491370,8,114.202698,30.606948,紫润南社区居委会,,420104,027,420104011012,111,,,,,,,,,2,100,1016,1368,3609,32496,491370,,
491371,8,114.202698,30.606948,紫润北社区居委会,,420104,027,420104011013,111,,,,,,,,,2,100,1016,1368,3609,32496,491371,,
491372,8,114.215652,30.622889,园博北社区居委会,,420104,027,420104011014,111,,,,,,,,,2,100,1016,1368,3609,32496,491372,,
491373,8,114.216248,30.619467,园博南社区居委会,,420104,027,420104011015,111,,,,,,,,,2,100,1016,1368,3609,32496,491373,,
491374,8,114.202698,30.606948,丰美社区居委会,,420104,027,420104011016,111,,,,,,,,,2,100,1016,1368,3609,32496,491374,,
491375,8,114.14451,30.608655,团结社区居委会,,420112,027,420104011017,111,,,,,,,,,2,100,1016,1368,3609,32496,491375,,
491376,8,114.202698,30.606948,荣荟社区居民委员会,,420104,027,420104011018,111,,,,,,,,,2,100,1016,1368,3609,32496,491376,,
491377,8,114.202698,30.606948,长源社区居民委员会,,420104,027,420104011019,111,,,,,,,,,2,100,1016,1368,3609,32496,491377,,
491378,8,114.202698,30.606948,永利社区居民委员会,,420104,027,420104011020,111,,,,,,,,,2,100,1016,1368,3609,32496,491378,,
491379,8,114.202698,30.606948,常码头村村民委员会,,420104,027,420104011201,111,,,,,,,,,2,100,1016,1368,3609,32496,491379,,
491380,8,114.202698,30.606948,建荣村村民委员会,,420104,027,420104011204,111,,,,,,,,,2,100,1016,1368,3609,32496,491380,,
491381,8,114.202698,30.606948,长丰村村民委员会,,420104,027,420104011205,111,,,,,,,,,2,100,1016,1368,3609,32496,491381,,
491382,8,114.202698,30.606948,东风村村民委员会,,420104,027,420104011206,111,,,,,,,,,2,100,1016,1368,3609,32496,491382,,
491383,8,114.202698,30.606948,永利村村民委员会,,420104,027,420104011207,111,,,,,,,,,2,100,1016,1368,3609,32496,491383,,
491384,8,114.167987,30.606319,舵落口社区居委会,,420104,027,420104012001,111,,,,,,,,,2,100,1016,1368,3609,32497,491384,,
491385,8,114.193283,30.597928,工农社区居委会,,420104,027,420104012002,111,,,,,,,,,2,100,1016,1368,3609,32497,491385,,
491386,8,114.180622,30.609855,东华社区居委会,,420104,027,420104012003,111,,,,,,,,,2,100,1016,1368,3609,32497,491386,,
491387,8,114.156577,30.622341,竹叶海社区居委会,,420104,027,420104012004,111,,,,,,,,,2,100,1016,1368,3609,32497,491387,,
491388,8,114.195693,30.6247,张公堤社区居民委员会,,420104,027,420104012005,111,,,,,,,,,2,100,1016,1368,3609,32497,491388,,
491389,8,114.195693,30.6247,张公堤北社区居民委员会,,420104,027,420104012006,111,,,,,,,,,2,100,1016,1368,3609,32497,491389,,
491390,8,114.26583,30.571236,宜美社区居民委员会,,420104,027,420104012007,111,,,,,,,,,2,100,1016,1368,3609,32497,491390,,
491391,8,114.177807,30.60686,易家墩村村民委员会,,420104,027,420104012201,111,,,,,,,,,2,100,1016,1368,3609,32497,491391,,
491392,8,114.168777,30.612516,舵落口村村民委员会,,420104,027,420104012202,111,,,,,,,,,2,100,1016,1368,3609,32497,491392,,
491393,8,114.155367,30.619385,额头湾村村民委员会,,420104,027,420104012203,111,,,,,,,,,2,100,1016,1368,3609,32497,491393,,
491394,8,114.267341,30.551673,钟家村社区居委会,,420105,027,420105002001,111,,,,,,,,,2,100,1016,1368,3610,32498,491394,,
491395,8,114.273149,30.54778,西大街社区居委会,,420105,027,420105002002,111,,,,,,,,,2,100,1016,1368,3610,32498,491395,,
491396,8,114.273149,30.54778,显正街社区居委会,,420105,027,420105002003,111,,,,,,,,,2,100,1016,1368,3610,32498,491396,,
491397,8,114.269417,30.545231,青石社区居委会,,420105,027,420105002005,111,,,,,,,,,2,100,1016,1368,3610,32498,491397,,
491398,8,114.273149,30.54778,南城社区居委会,,420105,027,420105002006,111,,,,,,,,,2,100,1016,1368,3610,32498,491398,,
491399,8,114.276702,30.546736,古楼社区居委会,,420105,027,420105002008,111,,,,,,,,,2,100,1016,1368,3610,32498,491399,,
491400,8,114.276848,30.552661,大桥社区居委会,,420105,027,420105002009,111,,,,,,,,,2,100,1016,1368,3610,32498,491400,,
491401,8,114.273149,30.54778,白鹤社区居委会,,420105,027,420105002014,111,,,,,,,,,2,100,1016,1368,3610,32498,491401,,
491402,8,114.260191,30.550663,琴台社区居委会,,420105,027,420105002015,111,,,,,,,,,2,100,1016,1368,3610,32498,491402,,
491403,8,114.254361,30.5527,车站社区居委会,,420105,027,420105002016,111,,,,,,,,,2,100,1016,1368,3610,32498,491403,,
491404,8,114.260248,30.549135,归元社区居委会,,420105,027,420105002017,111,,,,,,,,,2,100,1016,1368,3610,32498,491404,,
491405,8,114.273149,30.54778,冰塘社区居委会,,420105,027,420105002018,111,,,,,,,,,2,100,1016,1368,3610,32498,491405,,
491406,8,114.284347,30.5602,国棉社区居委会,,420105,027,420105004003,111,,,,,,,,,2,100,1016,1368,3610,32499,491406,,
491407,8,114.284347,30.5602,汉汽社区居委会,,420105,027,420105004005,111,,,,,,,,,2,100,1016,1368,3610,32499,491407,,
491408,8,114.244149,30.56033,龙灯社区居委会,,420105,027,420105004007,111,,,,,,,,,2,100,1016,1368,3610,32499,491408,,
491409,8,114.24083,30.567808,铁桥社区居委会,,420105,027,420105004008,111,,,,,,,,,2,100,1016,1368,3610,32499,491409,,
491410,8,114.284347,30.5602,华园社区居委会,,420105,027,420105004009,111,,,,,,,,,2,100,1016,1368,3610,32499,491410,,
491411,8,114.269575,30.535582,杨泗社区居委会,,420105,027,420105005001,111,,,,,,,,,2,100,1016,1368,3610,32500,491411,,
491412,8,114.264623,30.527771,瓜堤社区居委会,,420105,027,420105005002,111,,,,,,,,,2,100,1016,1368,3610,32500,491412,,
491413,8,114.269575,30.535582,桥机社区居委会,,420105,027,420105005004,111,,,,,,,,,2,100,1016,1368,3610,32500,491413,,
491414,8,114.269575,30.535582,夹河社区居委会,,420105,027,420105005005,111,,,,,,,,,2,100,1016,1368,3610,32500,491414,,
491415,8,114.25962,30.534584,钢管社区居委会,,420105,027,420105005006,111,,,,,,,,,2,100,1016,1368,3610,32500,491415,,
491416,8,114.269798,30.543042,鹦鹉花园社区居委会,,420105,027,420105005008,111,,,,,,,,,2,100,1016,1368,3610,32500,491416,,
491417,8,114.268187,30.539908,自力社区居委会,,420105,027,420105005009,111,,,,,,,,,2,100,1016,1368,3610,32500,491417,,
491418,8,114.269575,30.535582,锦绣长江社区居委会,,420105,027,420105005011,111,,,,,,,,,2,100,1016,1368,3610,32500,491418,,
491419,8,114.255883,30.52864,红建社区居委会,,420105,027,420105006001,111,,,,,,,,,2,100,1016,1368,3610,32501,491419,,
491420,8,114.257019,30.52057,建港社区居委会,,420105,027,420105006004,111,,,,,,,,,2,100,1016,1368,3610,32501,491420,,
491421,8,114.254111,30.519208,怡畅园社区居委会,,420105,027,420105006005,111,,,,,,,,,2,100,1016,1368,3610,32501,491421,,
491422,8,114.244038,30.52184,向阳社区居委会,,420105,027,420105006006,111,,,,,,,,,2,100,1016,1368,3610,32501,491422,,
491423,8,114.254841,30.523457,洲头社区居委会,,420105,027,420105006007,111,,,,,,,,,2,100,1016,1368,3610,32501,491423,,
491424,8,114.254841,30.523457,新五里社区居委会,,420105,027,420105006009,111,,,,,,,,,2,100,1016,1368,3610,32501,491424,,
491425,8,114.251853,30.553267,五琴里社区居委会,,420105,027,420105007002,111,,,,,,,,,2,100,1016,1368,3610,32502,491425,,
491426,8,114.238817,30.558478,五合里社区居委会,,420105,027,420105007003,111,,,,,,,,,2,100,1016,1368,3610,32502,491426,,
491427,8,114.230125,30.558103,五麒里社区居委会,,420105,027,420105007004,111,,,,,,,,,2,100,1016,1368,3610,32502,491427,,
491428,8,114.247707,30.547558,五湖里社区居委会,,420105,027,420105007005,111,,,,,,,,,2,100,1016,1368,3610,32502,491428,,
491429,8,114.230125,30.558103,五麟里社区居委会,,420105,027,420105007006,111,,,,,,,,,2,100,1016,1368,3610,32502,491429,,
491430,8,114.23455,30.553647,五红里社区居委会,,420105,027,420105007007,111,,,,,,,,,2,100,1016,1368,3610,32502,491430,,
491431,8,114.23455,30.553561,五福里社区居委会,,420105,027,420105007008,111,,,,,,,,,2,100,1016,1368,3610,32502,491431,,
491432,8,114.247874,30.550683,五园里社区居委会,,420105,027,420105007009,111,,,,,,,,,2,100,1016,1368,3610,32502,491432,,
491433,8,114.25115,30.550736,五墨里社区居委会,,420105,027,420105007010,111,,,,,,,,,2,100,1016,1368,3610,32502,491433,,
491434,8,114.239022,30.553686,五春里社区居委会,,420105,027,420105007013,111,,,,,,,,,2,100,1016,1368,3610,32502,491434,,
491435,8,114.248791,30.544932,五丰里社区居委会,,420105,027,420105007014,111,,,,,,,,,2,100,1016,1368,3610,32502,491435,,
491436,8,114.252941,30.542372,五荣里社区居委会,,420105,027,420105007015,111,,,,,,,,,2,100,1016,1368,3610,32502,491436,,
491437,8,114.239022,30.553686,五瑞里社区居委会,,420105,027,420105007017,111,,,,,,,,,2,100,1016,1368,3610,32502,491437,,
491438,8,114.239022,30.553686,五玉里社区居委会,,420105,027,420105007018,111,,,,,,,,,2,100,1016,1368,3610,32502,491438,,
491439,8,114.217075,30.558291,龙祥社区居委会,,420105,027,420105008004,111,,,,,,,,,2,100,1016,1368,3610,32503,491439,,
491440,8,114.217075,30.558291,十里景秀社区居委会,,420105,027,420105008005,111,,,,,,,,,2,100,1016,1368,3610,32503,491440,,
491441,8,114.213758,30.562383,冯家畈社区居委会,,420105,027,420105008006,111,,,,,,,,,2,100,1016,1368,3610,32503,491441,,
491442,8,114.217075,30.558291,紫荆花社区居委会,,420105,027,420105008007,111,,,,,,,,,2,100,1016,1368,3610,32503,491442,,
491443,8,114.224027,30.566404,七里庙社区居委会,,420105,027,420105008008,111,,,,,,,,,2,100,1016,1368,3610,32503,491443,,
491444,8,114.225034,30.555148,七里一村社区居委会,,420105,027,420105008011,111,,,,,,,,,2,100,1016,1368,3610,32503,491444,,
491445,8,114.217075,30.558291,桃花岛社区居委会,,420105,027,420105008013,111,,,,,,,,,2,100,1016,1368,3610,32503,491445,,
491446,8,114.223877,30.550879,汇福园社区居委会,,420105,027,420105008014,111,,,,,,,,,2,100,1016,1368,3610,32503,491446,,
491447,8,114.217075,30.558291,金龙花园社区居委会,,420105,027,420105008020,111,,,,,,,,,2,100,1016,1368,3610,32503,491447,,
491448,8,114.221508,30.555714,七里晴川社区居委会,,420105,027,420105008021,111,,,,,,,,,2,100,1016,1368,3610,32503,491448,,
491449,8,114.217075,30.558291,星火社区居委会,,420105,027,420105008022,111,,,,,,,,,2,100,1016,1368,3610,32503,491449,,
491450,8,114.223642,30.562846,百灵社区居委会,,420105,027,420105008023,111,,,,,,,,,2,100,1016,1368,3610,32503,491450,,
491451,8,114.217075,30.558291,江花社区居委会,,420105,027,420105008025,111,,,,,,,,,2,100,1016,1368,3610,32503,491451,,
491452,8,114.212441,30.547985,龙兴社区居委会,,420105,027,420105008026,111,,,,,,,,,2,100,1016,1368,3610,32503,491452,,
491453,8,114.21548,30.567929,知音东苑社区居委会,,420105,027,420105009001,111,,,,,,,,,2,100,1016,1368,3610,32504,491453,,
491454,8,114.208247,30.567478,知音西苑社区居委会,,420105,027,420105009003,111,,,,,,,,,2,100,1016,1368,3610,32504,491454,,
491455,8,114.209556,30.565603,玫瑰西园社区居委会,,420105,027,420105009004,111,,,,,,,,,2,100,1016,1368,3610,32504,491455,,
491456,8,114.206553,30.56713,水仙里社区居委会,,420105,027,420105009005,111,,,,,,,,,2,100,1016,1368,3610,32504,491456,,
491457,8,114.203429,30.571431,郭茨口社区居委会,,420105,027,420105009006,111,,,,,,,,,2,100,1016,1368,3610,32504,491457,,
491458,8,114.209586,30.567337,桥西社区居委会,,420105,027,420105009007,111,,,,,,,,,2,100,1016,1368,3610,32504,491458,,
491459,8,114.203801,30.565052,玫瑰东苑社区居委会,,420105,027,420105009008,111,,,,,,,,,2,100,1016,1368,3610,32504,491459,,
491460,8,114.217974,30.568968,桥东社区居委会,,420105,027,420105009013,111,,,,,,,,,2,100,1016,1368,3610,32504,491460,,
491461,8,114.214512,30.563049,十里铺社区居委会,,420105,027,420105009014,111,,,,,,,,,2,100,1016,1368,3610,32504,491461,,
491462,8,114.217043,30.56517,赫山社区居委会,,420105,027,420105009015,111,,,,,,,,,2,100,1016,1368,3610,32504,491462,,
491463,8,114.178644,30.576331,仙山社区居委会,,420105,027,420105010005,111,,,,,,,,,2,100,1016,1368,3610,32505,491463,,
491464,8,114.195749,30.56707,燎原社区居委会,,420105,027,420105010006,111,,,,,,,,,2,100,1016,1368,3610,32505,491464,,
491465,8,114.213989,30.564158,磨山社区居委会,,420105,027,420105010007,111,,,,,,,,,2,100,1016,1368,3610,32505,491465,,
491466,8,114.174567,30.584746,惠民苑社区居委会,,420105,027,420105010010,111,,,,,,,,,2,100,1016,1368,3610,32505,491466,,
491467,8,114.213989,30.564158,汉琴社区居委会,,420105,027,420105010011,111,,,,,,,,,2,100,1016,1368,3610,32505,491467,,
491468,8,114.207707,30.560197,汉沙社区居委会,,420105,027,420105010012,111,,,,,,,,,2,100,1016,1368,3610,32505,491468,,
491469,8,114.209556,30.565603,玫瑰西苑社区居委会,,420105,027,420105010014,111,,,,,,,,,2,100,1016,1368,3610,32505,491469,,
491470,8,114.170515,30.595419,黄金口社区居委会,,420105,027,420105010018,111,,,,,,,,,2,100,1016,1368,3610,32505,491470,,
491471,8,114.213989,30.564158,三眼桥社区居委会,,420105,027,420105010019,111,,,,,,,,,2,100,1016,1368,3610,32505,491471,,
491472,8,114.149471,30.580344,四台社区居委会,,420105,027,420105010020,111,,,,,,,,,2,100,1016,1368,3610,32505,491472,,
491473,8,114.172056,30.55926,米粮社区居委会,,420105,027,420105010022,111,,,,,,,,,2,100,1016,1368,3610,32505,491473,,
491474,8,114.213989,30.564158,陈家咀社区居委会,,420105,027,420105010023,111,,,,,,,,,2,100,1016,1368,3610,32505,491474,,
491475,8,114.213989,30.564158,徐湾社区居委会,,420105,027,420105010024,111,,,,,,,,,2,100,1016,1368,3610,32505,491475,,
491476,8,114.213989,30.564158,快活岭社区居委会,,420105,027,420105010025,111,,,,,,,,,2,100,1016,1368,3610,32505,491476,,
491477,8,114.213989,30.564158,罗家咀社区居委会,,420105,027,420105010026,111,,,,,,,,,2,100,1016,1368,3610,32505,491477,,
491478,8,114.213989,30.564158,董家店社区居委会,,420105,027,420105010027,111,,,,,,,,,2,100,1016,1368,3610,32505,491478,,
491479,8,114.213989,30.564158,郑家咀社区居委会,,420105,027,420105010028,111,,,,,,,,,2,100,1016,1368,3610,32505,491479,,
491480,8,114.172022,30.584097,黄金口岸社区居委会,,420105,027,420105010029,111,,,,,,,,,2,100,1016,1368,3610,32505,491480,,
491481,8,114.213989,30.564158,龙磨社区居委会,,420105,027,420105010032,111,,,,,,,,,2,100,1016,1368,3610,32505,491481,,
491482,8,114.243014,30.518518,三里民居社区居委会,,420105,027,420105011001,111,,,,,,,,,2,100,1016,1368,3610,32506,491482,,
491483,8,114.246317,30.527906,江博社区居委会,,420105,027,420105011004,111,,,,,,,,,2,100,1016,1368,3610,32506,491483,,
491484,8,114.244038,30.52184,向阳村社区居委会,,420105,027,420105011005,112,,,,,,,,,2,100,1016,1368,3610,32506,491484,,
491485,8,114.243014,30.518518,江腾社区居委会,,420105,027,420105011006,111,,,,,,,,,2,100,1016,1368,3610,32506,491485,,
491486,8,114.243014,30.518518,红卫社区居委会,,420105,027,420105011008,112,,,,,,,,,2,100,1016,1368,3610,32506,491486,,
491487,8,114.243014,30.518518,丰收社区居委会,,420105,027,420105011009,112,,,,,,,,,2,100,1016,1368,3610,32506,491487,,
491488,8,114.246013,30.530166,江欣苑社区居委会,,420105,027,420105011010,112,,,,,,,,,2,100,1016,1368,3610,32506,491488,,
491489,8,114.245193,30.537667,墨水湖社区居委会,,420105,027,420105011011,111,,,,,,,,,2,100,1016,1368,3610,32506,491489,,
491490,8,114.244761,30.52447,汉博佳园社区居委会,,420105,027,420105011012,111,,,,,,,,,2,100,1016,1368,3610,32506,491490,,
491491,8,114.243014,30.518518,江城明珠社区居委会,,420105,027,420105011013,111,,,,,,,,,2,100,1016,1368,3610,32506,491491,,
491492,8,114.243014,30.518518,老关社区居委会,,420105,027,420105011014,112,,,,,,,,,2,100,1016,1368,3610,32506,491492,,
491493,8,114.195333,30.509396,新新社区居委会,,420105,027,420105011015,112,,,,,,,,,2,100,1016,1368,3610,32506,491493,,
491494,8,114.1965,30.512912,潮江社区居委会,,420105,027,420105011016,111,,,,,,,,,2,100,1016,1368,3610,32506,491494,,
491495,8,114.210008,30.51246,澜菲溪岸社区居委会,,420105,027,420105012001,111,,,,,,,,,2,100,1016,1368,3610,32507,491495,,
491496,8,114.218724,30.553905,太子观澜社区居委会,,420105,027,420105012002,111,,,,,,,,,2,100,1016,1368,3610,32507,491496,,
491497,8,114.218724,30.553905,梅林都汇社区居委会,,420105,027,420105012003,111,,,,,,,,,2,100,1016,1368,3610,32507,491497,,
491498,8,114.219375,30.526283,墨南湖畔社区居委会,,420105,027,420105012004,111,,,,,,,,,2,100,1016,1368,3610,32507,491498,,
491499,8,114.218724,30.553905,上太子溪社区居委会,,420105,027,420105012005,111,,,,,,,,,2,100,1016,1368,3610,32507,491499,,
491500,8,114.218724,30.553905,总港西岸社区居委会,,420105,027,420105012006,111,,,,,,,,,2,100,1016,1368,3610,32507,491500,,
491501,8,114.192369,30.544877,陶家岭社区居委会,,420105,027,420105013001,111,,,,,,,,,2,100,1016,1368,3610,32508,491501,,
491502,8,114.20142,30.54264,陶园社区居委会,,420105,027,420105013002,111,,,,,,,,,2,100,1016,1368,3610,32508,491502,,
491503,8,114.203056,30.551983,龙阳新村社区居委会,,420105,027,420105013003,111,,,,,,,,,2,100,1016,1368,3610,32508,491503,,
491504,8,114.202044,30.535269,汉城社区居委会,,420105,027,420105013004,111,,,,,,,,,2,100,1016,1368,3610,32508,491504,,
491505,8,114.183537,30.547358,汤山社区居委会,,420105,027,420105013006,111,,,,,,,,,2,100,1016,1368,3610,32508,491505,,
491506,8,114.218724,30.553905,龙湖东岸社区居委会,,420105,027,420105013007,111,,,,,,,,,2,100,1016,1368,3610,32508,491506,,
491507,8,114.181918,30.513934,龙阳湖社区居委会,,420114,027,420105013008,111,,,,,,,,,2,100,1016,1368,3610,32508,491507,,
491508,8,114.218724,30.553905,龙清社区居委会,,420105,027,420105013009,111,,,,,,,,,2,100,1016,1368,3610,32508,491508,,
491509,8,114.219375,30.526283,芳草社区居委会,,420105,027,420105013010,111,,,,,,,,,2,100,1016,1368,3610,32508,491509,,
491510,8,114.311733,30.559076,尚隆苑社区居委会,,420106,027,420106001001,111,,,,,,,,,2,100,1016,1368,3611,32509,491510,,
491511,8,114.306059,30.556669,中山社区居委会,,420106,027,420106001002,111,,,,,,,,,2,100,1016,1368,3611,32509,491511,,
491512,8,114.309363,30.562824,汉成里社区居委会,,420106,027,420106001004,111,,,,,,,,,2,100,1016,1368,3611,32509,491512,,
491513,8,114.313589,30.560548,四清里社区居委会,,420106,027,420106001005,111,,,,,,,,,2,100,1016,1368,3611,32509,491513,,
491514,8,114.312238,30.557075,沙湖社区居委会,,420106,027,420106001007,111,,,,,,,,,2,100,1016,1368,3611,32509,491514,,
491515,8,114.30119,30.556607,金都蓝湾社区居委会,,420106,027,420106001008,111,,,,,,,,,2,100,1016,1368,3611,32509,491515,,
491516,8,114.311523,30.56337,金地花园社区居委会,,420106,027,420106001011,111,,,,,,,,,2,100,1016,1368,3611,32509,491516,,
491517,8,114.31589,30.567649,新生里社区居委会,,420106,027,420106001012,111,,,,,,,,,2,100,1016,1368,3611,32509,491517,,
491518,8,114.318956,30.570355,康乐里社区居委会,,420106,027,420106001013,111,,,,,,,,,2,100,1016,1368,3611,32509,491518,,
491519,8,114.315728,30.574898,新河社区居委会,,420106,027,420106001020,111,,,,,,,,,2,100,1016,1368,3611,32509,491519,,
491520,8,114.307732,30.557737,凤凰城社区居委会,,420106,027,420106001021,111,,,,,,,,,2,100,1016,1368,3611,32509,491520,,
491521,8,114.307732,30.557737,融桥华府社区,,420106,027,420106001022,111,,,,,,,,,2,100,1016,1368,3611,32509,491521,,
491522,8,114.340782,30.602526,四美社区居委会,,420106,027,420106002001,111,,,,,,,,,2,100,1016,1368,3611,32510,491522,,
491523,8,114.338283,30.603482,粤汉里社区居委会,,420106,027,420106002003,111,,,,,,,,,2,100,1016,1368,3611,32510,491523,,
491524,8,114.340273,30.605882,建设新村社区居委会,,420106,027,420106002004,111,,,,,,,,,2,100,1016,1368,3611,32510,491524,,
491525,8,114.341223,30.603995,临江社区居委会,,420106,027,420106002005,111,,,,,,,,,2,100,1016,1368,3611,32510,491525,,
491526,8,114.351531,30.608069,国棉社区居委会,,420106,027,420106002006,111,,,,,,,,,2,100,1016,1368,3611,32510,491526,,
491527,8,114.348577,30.60018,柴东社区居委会,,420106,027,420106002007,111,,,,,,,,,2,100,1016,1368,3611,32510,491527,,
491528,8,114.353952,30.603601,理工大社区居委会,,420106,027,420106002008,111,,,,,,,,,2,100,1016,1368,3611,32510,491528,,
491529,8,114.352142,30.602661,铁机路社区居委会,,420106,027,420106002009,111,,,,,,,,,2,100,1016,1368,3611,32510,491529,,
491530,8,114.347359,30.606122,纺器社区居委会,,420106,027,420106002010,111,,,,,,,,,2,100,1016,1368,3611,32510,491530,,
491531,8,114.346727,30.59535,电信社区居委会,,420106,027,420106002014,111,,,,,,,,,2,100,1016,1368,3611,32510,491531,,
491532,8,114.342078,30.597934,电力新村社区居委会,,420106,027,420106002015,111,,,,,,,,,2,100,1016,1368,3611,32510,491532,,
491533,8,114.340057,30.597069,四美塘社区居委会,,420106,027,420106002017,111,,,,,,,,,2,100,1016,1368,3611,32510,491533,,
491534,8,114.344549,30.592254,二桥社区居委会,,420106,027,420106002018,111,,,,,,,,,2,100,1016,1368,3611,32510,491534,,
491535,8,114.341223,30.603995,余家头社区居委会,,420106,027,420106002019,111,,,,,,,,,2,100,1016,1368,3611,32510,491535,,
491536,8,114.354248,30.616454,欧景苑社区居委会,,420106,027,420106002021,111,,,,,,,,,2,100,1016,1368,3611,32510,491536,,
491537,8,114.332987,30.5923,诚善里社区居委会,,420106,027,420106003001,111,,,,,,,,,2,100,1016,1368,3611,32511,491537,,
491538,8,114.33212,30.592219,喻家湖社区居委会,,420106,027,420106003002,111,,,,,,,,,2,100,1016,1368,3611,32511,491538,,
491539,8,114.325303,30.577681,长轮社区居委会,,420106,027,420106003003,111,,,,,,,,,2,100,1016,1368,3611,32511,491539,,
491540,8,114.33212,30.592219,秦臻路社区居委会,,420106,027,420106003006,111,,,,,,,,,2,100,1016,1368,3611,32511,491540,,
491541,8,114.33212,30.592219,武车四村社区居委会,,420106,027,420106003007,111,,,,,,,,,2,100,1016,1368,3611,32511,491541,,
491542,8,114.328993,30.593405,月亮湾社区居委会,,420106,027,420106003009,111,,,,,,,,,2,100,1016,1368,3611,32511,491542,,
491543,8,114.338428,30.585803,秦园路社区居委会,,420106,027,420106003013,111,,,,,,,,,2,100,1016,1368,3611,32511,491543,,
491544,8,114.341692,30.583052,徐东社区居委会,,420106,027,420106003015,111,,,,,,,,,2,100,1016,1368,3611,32511,491544,,
491545,8,114.331009,30.587238,惠誉花园社区居委会,,420106,027,420106003017,111,,,,,,,,,2,100,1016,1368,3611,32511,491545,,
491546,8,114.335207,30.574621,湖北大学社区居委会,,420106,027,420106003018,111,,,,,,,,,2,100,1016,1368,3611,32511,491546,,
491547,8,114.339966,30.579677,油料所社区居委会,,420106,027,420106003019,111,,,,,,,,,2,100,1016,1368,3611,32511,491547,,
491548,8,114.34442,30.57885,水岸星城社区居委会,,420106,027,420106003023,111,,,,,,,,,2,100,1016,1368,3611,32511,491548,,
491549,8,114.33212,30.592219,三角路社区居委会,,420106,027,420106003024,111,,,,,,,,,2,100,1016,1368,3611,32511,491549,,
491550,8,114.349023,30.581578,团结社区居委会,,420106,027,420106003025,111,,,,,,,,,2,100,1016,1368,3611,32511,491550,,
491551,8,114.3521,30.580469,国际城社区居委会,,420106,027,420106003028,111,,,,,,,,,2,100,1016,1368,3611,32511,491551,,
491552,8,114.321553,30.575007,水岸国际社区居委会,,420106,027,420106003029,111,,,,,,,,,2,100,1016,1368,3611,32511,491552,,
491553,8,114.307324,30.548105,胭脂路社区居委会,,420106,027,420106005001,111,,,,,,,,,2,100,1016,1368,3611,32512,491553,,
491554,8,114.307817,30.552809,昙华林社区居委会,,420106,027,420106005002,111,,,,,,,,,2,100,1016,1368,3611,32512,491554,,
491555,8,114.306649,30.55061,戈甲营社区居委会,,420106,027,420106005003,111,,,,,,,,,2,100,1016,1368,3611,32512,491555,,
491556,8,114.309741,30.549083,花园山社区居委会,,420106,027,420106005005,111,,,,,,,,,2,100,1016,1368,3611,32512,491556,,
491557,8,114.311671,30.545144,民主路社区居委会,,420106,027,420106005007,111,,,,,,,,,2,100,1016,1368,3611,32512,491557,,
491558,8,114.316568,30.542849,小东门社区居委会,,420106,027,420106005008,111,,,,,,,,,2,100,1016,1368,3611,32512,491558,,
491559,8,114.315871,30.55012,中医社区居委会,,420106,027,420106005010,111,,,,,,,,,2,100,1016,1368,3611,32512,491559,,
491560,8,114.32241,30.549894,东龙社区居委会,,420106,027,420106005013,111,,,,,,,,,2,100,1016,1368,3611,32512,491560,,
491561,8,114.303681,30.546068,楚材社区居委会,,420106,027,420106006001,111,,,,,,,,,2,100,1016,1368,3611,32513,491561,,
491562,8,114.296165,30.547073,户部巷社区居委会,,420106,027,420106006002,111,,,,,,,,,2,100,1016,1368,3611,32513,491562,,
491563,8,114.30077,30.552675,都府堤社区居委会,,420106,027,420106006003,111,,,,,,,,,2,100,1016,1368,3611,32513,491563,,
491564,8,114.30393,30.551138,西城壕社区居委会,,420106,027,420106006005,111,,,,,,,,,2,100,1016,1368,3611,32513,491564,,
491565,8,114.301213,30.538549,读书社区居委会,,420106,027,420106007001,111,,,,,,,,,2,100,1016,1368,3611,32514,491565,,
491566,8,114.303243,30.54241,西厂口社区居委会,,420106,027,420106007004,111,,,,,,,,,2,100,1016,1368,3611,32514,491566,,
491567,8,114.29674,30.543168,彭刘杨路社区居委会,,420106,027,420106007007,111,,,,,,,,,2,100,1016,1368,3611,32514,491567,,
491568,8,114.297709,30.538897,花堤社区居委会,,420106,027,420106007010,111,,,,,,,,,2,100,1016,1368,3611,32514,491568,,
491569,8,114.30986,30.523544,梅隐寺社区居委会,,420106,027,420106008001,111,,,,,,,,,2,100,1016,1368,3611,32515,491569,,
491570,8,114.296536,30.533413,解放路社区居委会,,420106,027,420106008002,111,,,,,,,,,2,100,1016,1368,3611,32515,491570,,
491571,8,114.304568,30.525938,起义门社区居委会,,420106,027,420106008003,111,,,,,,,,,2,100,1016,1368,3611,32515,491571,,
491572,8,114.298805,30.531194,歌笛湖社区居委会,,420106,027,420106008004,111,,,,,,,,,2,100,1016,1368,3611,32515,491572,,
491573,8,114.299286,30.528376,水陆社区居委会,,420106,027,420106008005,111,,,,,,,,,2,100,1016,1368,3611,32515,491573,,
491574,8,114.299751,30.526983,保望堤社区居委会,,420106,027,420106008006,111,,,,,,,,,2,100,1016,1368,3611,32515,491574,,
491575,8,114.301744,30.531224,复兴路社区居委会,,420106,027,420106008007,111,,,,,,,,,2,100,1016,1368,3611,32515,491575,,
491576,8,114.305701,30.524278,保安社区居委会,,420106,027,420106008008,111,,,,,,,,,2,100,1016,1368,3611,32515,491576,,
491577,8,114.308167,30.519478,武泰闸社区居委会,,420106,027,420106008009,111,,,,,,,,,2,100,1016,1368,3611,32515,491577,,
491578,8,114.297943,30.524618,八铺街社区居委会,,420106,027,420106009001,111,,,,,,,,,2,100,1016,1368,3611,32516,491578,,
491579,8,114.307472,30.516226,涂家沟社区居委会,,420111,027,420106009002,111,,,,,,,,,2,100,1016,1368,3611,32516,491579,,
491580,8,114.292847,30.526074,解放桥社区居委会,,420106,027,420106009003,111,,,,,,,,,2,100,1016,1368,3611,32516,491580,,
491581,8,114.293791,30.521681,堤东社区居委会,,420106,027,420106009004,111,,,,,,,,,2,100,1016,1368,3611,32516,491581,,
491582,8,114.298915,30.519387,万福林社区居委会,,420106,027,420106009005,111,,,,,,,,,2,100,1016,1368,3611,32516,491582,,
491583,8,114.30211,30.51472,邮电社区居委会,,420111,027,420106009006,111,,,,,,,,,2,100,1016,1368,3611,32516,491583,,
491584,8,114.289162,30.513917,长江紫都社区居委会,,420106,027,420106009008,111,,,,,,,,,2,100,1016,1368,3611,32516,491584,,
491585,8,114.292932,30.526118,梅花苑社区居委会,,420106,027,420106009009,111,,,,,,,,,2,100,1016,1368,3611,32516,491585,,
491586,8,114.288304,30.509245,堤后社区居委会,,420106,027,420106009010,111,,,,,,,,,2,100,1016,1368,3611,32516,491586,,
491587,8,114.296756,30.511402,星苑社区居委会,,420111,027,420106009011,111,,,,,,,,,2,100,1016,1368,3611,32516,491587,,
491588,8,114.298038,30.506809,佳韵社区居委会,,420111,027,420106009012,112,,,,,,,,,2,100,1016,1368,3611,32516,491588,,
491589,8,114.299536,30.506036,城南社区居委会,,420111,027,420106009013,111,,,,,,,,,2,100,1016,1368,3611,32516,491589,,
491590,8,114.322051,30.526172,武南村社区居委会,,420106,027,420106010002,111,,,,,,,,,2,100,1016,1368,3611,32517,491590,,
491591,8,114.319942,30.532301,大东门社区居委会,,420106,027,420106010004,111,,,,,,,,,2,100,1016,1368,3611,32517,491591,,
491592,8,114.316,30.534904,千家街社区居委会,,420106,027,420106010005,111,,,,,,,,,2,100,1016,1368,3611,32517,491592,,
491593,8,114.310633,30.536151,长湖社区居委会,,420106,027,420106010009,111,,,,,,,,,2,100,1016,1368,3611,32517,491593,,
491594,8,114.310633,30.536151,中南大社区居委会,,420106,027,420106010010,111,,,,,,,,,2,100,1016,1368,3611,32517,491594,,
491595,8,114.310633,30.536151,七零一社区居委会,,420106,027,420106010011,111,,,,,,,,,2,100,1016,1368,3611,32517,491595,,
491596,8,114.310633,30.536151,七一九社区居委会,,420106,027,420106010012,111,,,,,,,,,2,100,1016,1368,3611,32517,491596,,
491597,8,114.309958,30.538657,江零社区居委会,,420106,027,420106010014,111,,,,,,,,,2,100,1016,1368,3611,32517,491597,,
491598,8,114.321591,30.53855,长春社区居委会,,420106,027,420106011003,111,,,,,,,,,2,100,1016,1368,3611,32518,491598,,
491599,8,114.326363,30.531951,梅苑社区居委会,,420106,027,420106011004,111,,,,,,,,,2,100,1016,1368,3611,32518,491599,,
491600,8,114.324897,30.531515,宝通寺社区居委会,,420106,027,420106011005,111,,,,,,,,,2,100,1016,1368,3611,32518,491600,,
491601,8,114.333488,30.530986,付家坡社区居委会,,420106,027,420106011006,111,,,,,,,,,2,100,1016,1368,3611,32518,491601,,
491602,8,114.341153,30.521018,石牌岭社区居委会,,420111,027,420106011007,111,,,,,,,,,2,100,1016,1368,3611,32518,491602,,
491603,8,114.327632,30.525065,涂家岭社区居委会,,420106,027,420106011008,111,,,,,,,,,2,100,1016,1368,3611,32518,491603,,
491604,8,114.323501,30.518028,晒湖社区居委会,,420106,027,420106011009,111,,,,,,,,,2,100,1016,1368,3611,32518,491604,,
491605,8,114.327677,30.522102,莲溪寺社区居委会,,420106,027,420106011010,111,,,,,,,,,2,100,1016,1368,3611,32518,491605,,
491606,8,114.324897,30.531515,下徐家湾社区居委会,,420106,027,420106011011,111,,,,,,,,,2,100,1016,1368,3611,32518,491606,,
491607,8,114.326786,30.545411,何家垅社区居委会,,420106,027,420106011012,111,,,,,,,,,2,100,1016,1368,3611,32518,491607,,
491608,8,114.324897,30.531515,群建社区居委会,,420106,027,420106011013,111,,,,,,,,,2,100,1016,1368,3611,32518,491608,,
491609,8,114.324586,30.545561,新民主路社区居委会,,420106,027,420106011014,111,,,,,,,,,2,100,1016,1368,3611,32518,491609,,
491610,8,114.330207,30.539687,小刘家湾社区居委会,,420106,027,420106011016,111,,,,,,,,,2,100,1016,1368,3611,32518,491610,,
491611,8,114.336755,30.530028,武锅社区居委会,,420106,027,420106011020,111,,,,,,,,,2,100,1016,1368,3611,32518,491611,,
491612,8,114.324897,30.531515,中建院社区居委会,,420106,027,420106011021,111,,,,,,,,,2,100,1016,1368,3611,32518,491612,,
491613,8,114.324897,30.531515,电力社区居委会,,420106,027,420106011022,111,,,,,,,,,2,100,1016,1368,3611,32518,491613,,
491614,8,114.324897,30.531515,公安厅社区居委会,,420106,027,420106011025,111,,,,,,,,,2,100,1016,1368,3611,32518,491614,,
491615,8,114.324243,30.539926,洪山坊社区居委会,,420106,027,420106011026,111,,,,,,,,,2,100,1016,1368,3611,32518,491615,,
491616,8,114.324375,30.529766,静安社区居委会,,420106,027,420106011028,111,,,,,,,,,2,100,1016,1368,3611,32518,491616,,
491617,8,114.324897,30.531515,丁字桥社区居委会,,420106,027,420106011029,111,,,,,,,,,2,100,1016,1368,3611,32518,491617,,
491618,8,114.335139,30.51938,武锅东社区居委会,,420111,027,420106011030,111,,,,,,,,,2,100,1016,1368,3611,32518,491618,,
491619,8,114.324183,30.548953,星星社区居委会,,420106,027,420106011032,111,,,,,,,,,2,100,1016,1368,3611,32518,491619,,
491620,8,114.335113,30.520647,百瑞景社区居委会,,420106,027,420106011033,111,,,,,,,,,2,100,1016,1368,3611,32518,491620,,
491621,8,114.244038,30.52184,向阳社区居委会,,420105,027,420106011034,111,,,,,,,,,2,100,1016,1368,3611,32518,491621,,
491622,8,114.361068,30.561367,东湖路社区居委会,,420106,027,420106012001,111,,,,,,,,,2,100,1016,1368,3611,32519,491622,,
491623,8,114.343115,30.546926,北环路社区居委会,,420106,027,420106012002,111,,,,,,,,,2,100,1016,1368,3611,32519,491623,,
491624,8,114.340431,30.539932,武铁社区居委会,,420106,027,420106012003,111,,,,,,,,,2,100,1016,1368,3611,32519,491624,,
491625,8,114.342639,30.543502,洪山路社区居委会,,420106,027,420106012006,111,,,,,,,,,2,100,1016,1368,3611,32519,491625,,
491626,8,114.347453,30.541746,张家湾社区居委会,,420106,027,420106012007,111,,,,,,,,,2,100,1016,1368,3611,32519,491626,,
491627,8,114.348453,30.541929,茶港社区居委会,,420106,027,420106012008,111,,,,,,,,,2,100,1016,1368,3611,32519,491627,,
491628,8,114.346931,30.547623,放鹰台社区居委会,,420106,027,420106012009,111,,,,,,,,,2,100,1016,1368,3611,32519,491628,,
491629,8,114.350918,30.539106,姚家岭社区居委会,,420106,027,420106012010,111,,,,,,,,,2,100,1016,1368,3611,32519,491629,,
491630,8,114.33839,30.55524,机安社区居委会,,420106,027,420106012011,111,,,,,,,,,2,100,1016,1368,3611,32519,491630,,
491631,8,114.350308,30.56635,青鱼嘴社区居委会,,420106,027,420106012013,111,,,,,,,,,2,100,1016,1368,3611,32519,491631,,
491632,8,114.354113,30.558723,武重社区居委会,,420106,027,420106012014,111,,,,,,,,,2,100,1016,1368,3611,32519,491632,,
491633,8,114.355382,30.56655,滨湖社区居委会,,420106,027,420106012020,111,,,,,,,,,2,100,1016,1368,3611,32519,491633,,
491634,8,114.359681,30.566493,东亭社区居委会,,420106,027,420106012021,111,,,,,,,,,2,100,1016,1368,3611,32519,491634,,
491635,8,114.356978,30.567605,岳家嘴社区居委会,,420106,027,420106012022,111,,,,,,,,,2,100,1016,1368,3611,32519,491635,,
491636,8,114.350918,30.539106,黄鹂路社区居委会,,420106,027,420106012023,111,,,,,,,,,2,100,1016,1368,3611,32519,491636,,
491637,8,114.363051,30.569552,徐东路社区居委会,,420106,027,420106012024,111,,,,,,,,,2,100,1016,1368,3611,32519,491637,,
491638,8,114.3729,30.532423,东湖村社区居委会,,420106,027,420106013001,111,,,,,,,,,2,100,1016,1368,3611,32520,491638,,
491639,8,114.358369,30.544568,水生村社区居委会,,420106,027,420106013002,111,,,,,,,,,2,100,1016,1368,3611,32520,491639,,
491640,8,114.355151,30.535253,省军区社区居委会,,420106,027,420106013003,111,,,,,,,,,2,100,1016,1368,3611,32520,491640,,
491641,8,114.355151,30.535253,风光村社区居委会,,420106,027,420106013009,111,,,,,,,,,2,100,1016,1368,3611,32520,491641,,
491642,8,114.355151,30.535253,武汉文理学部社区居委会,,420106,027,420106013011,111,,,,,,,,,2,100,1016,1368,3611,32520,491642,,
491643,8,114.355151,30.535253,武汉工学部社区居委会,,420106,027,420106013012,111,,,,,,,,,2,100,1016,1368,3611,32520,491643,,
491644,8,114.316223,30.554235,白云社区居委会,,420106,027,420106014001,111,,,,,,,,,2,100,1016,1368,3611,32521,491644,,
491645,8,114.316223,30.554235,建桥社区居委会,,420106,027,420106014002,111,,,,,,,,,2,100,1016,1368,3611,32521,491645,,
491646,8,114.315479,30.502692,华锦社区居委会,,420111,027,420106015001,111,,,,,,,,,2,100,1016,1368,3611,32522,491646,,
491647,8,114.316876,30.511964,中央花园社区居委会,,420106,027,420106015002,111,,,,,,,,,2,100,1016,1368,3611,32522,491647,,
491648,8,114.311427,30.50709,宝安社区居委会,,420106,027,420106015006,111,,,,,,,,,2,100,1016,1368,3611,32522,491648,,
491649,8,114.316634,30.507586,都市桃源社区居委会,,420111,027,420106015007,111,,,,,,,,,2,100,1016,1368,3611,32522,491649,,
491650,8,114.321224,30.509957,宁松社区居委会,,420111,027,420106015008,111,,,,,,,,,2,100,1016,1368,3611,32522,491650,,
491651,8,114.324939,30.50315,水域天际社区居委会,,420111,027,420106015009,111,,,,,,,,,2,100,1016,1368,3611,32522,491651,,
491652,8,114.367923,30.562458,东湖路社区居委会,,420106,027,420106490018,111,,,,,,,,,2,100,1016,1368,3611,32523,491652,,
491653,8,114.371567,30.580271,梨园社区居委会,,420106,027,420106490027,111,,,,,,,,,2,100,1016,1368,3611,32523,491653,,
491654,8,114.385156,30.627375,八大家花园社区居委会,,420107,027,420107001001,111,,,,,,,,,2,100,1016,1368,3612,32524,491654,,
491655,8,114.379578,30.632135,康苑社区居委会,,420107,027,420107001002,111,,,,,,,,,2,100,1016,1368,3612,32524,491655,,
491656,8,114.390966,30.600596,和平社区居委会,,420111,027,420107001003,111,,,,,,,,,2,100,1016,1368,3612,32524,491656,,
491657,8,114.374898,30.628733,翠园社区居委会,,420107,027,420107001005,111,,,,,,,,,2,100,1016,1368,3612,32524,491657,,
491658,8,114.378959,30.622902,虹蔚社区居委会,,420107,027,420107001008,111,,,,,,,,,2,100,1016,1368,3612,32524,491658,,
491659,8,114.370842,30.62769,碧园社区居委会,,420107,027,420107001009,111,,,,,,,,,2,100,1016,1368,3612,32524,491659,,
491660,8,114.373284,30.624076,科大社区居委会,,420107,027,420107001010,111,,,,,,,,,2,100,1016,1368,3612,32524,491660,,
491661,8,114.380058,30.62502,聚友社区居委会,,420107,027,420107001011,111,,,,,,,,,2,100,1016,1368,3612,32524,491661,,
491662,8,114.380058,30.62502,才恵社区居委会,,420107,027,420107001012,111,,,,,,,,,2,100,1016,1368,3612,32524,491662,,
491663,8,114.380058,30.62502,才聚社区居委会,,420107,027,420107001013,111,,,,,,,,,2,100,1016,1368,3612,32524,491663,,
491664,8,114.380058,30.62502,三弓路社区居委会,,420107,027,420107001014,111,,,,,,,,,2,100,1016,1368,3612,32524,491664,,
491665,8,114.363562,30.622267,东兴社区居委会,,420107,027,420107001015,111,,,,,,,,,2,100,1016,1368,3612,32524,491665,,
491666,8,114.380058,30.62502,奥山滨江社区居委会,,420107,027,420107001016,111,,,,,,,,,2,100,1016,1368,3612,32524,491666,,
491667,8,114.404933,30.629261,名流社区居委会,,420107,027,420107002001,111,,,,,,,,,2,100,1016,1368,3612,32525,491667,,
491668,8,114.392549,30.630216,科技苑社区居委会,,420107,027,420107002004,111,,,,,,,,,2,100,1016,1368,3612,32525,491668,,
491669,8,114.389282,30.628218,南干渠社区居委会,,420107,027,420107002006,111,,,,,,,,,2,100,1016,1368,3612,32525,491669,,
491670,8,114.401734,30.624175,欣城社区居委会,,420107,027,420107002009,111,,,,,,,,,2,100,1016,1368,3612,32525,491670,,
491671,8,114.398566,30.632584,悦达社区居委会,,420107,027,420107002011,111,,,,,,,,,2,100,1016,1368,3612,32525,491671,,
491672,8,114.398566,30.632584,通达社区居委会,,420107,027,420107002012,111,,,,,,,,,2,100,1016,1368,3612,32525,491672,,
491673,8,114.406559,30.625002,楠姆社区居委会,,420107,027,420107002015,111,,,,,,,,,2,100,1016,1368,3612,32525,491673,,
491674,8,114.406778,30.617161,现代花园社区居委会,,420107,027,420107002016,111,,,,,,,,,2,100,1016,1368,3612,32525,491674,,
491675,8,114.410159,30.627817,碧苑花园社区居委会,,420107,027,420107002019,111,,,,,,,,,2,100,1016,1368,3612,32525,491675,,
491676,8,114.393914,30.642686,临江社区居委会,,420107,027,420107003001,111,,,,,,,,,2,100,1016,1368,3612,32526,491676,,
491677,8,114.395567,30.641215,馨园社区居委会,,420107,027,420107003002,111,,,,,,,,,2,100,1016,1368,3612,32526,491677,,
491678,8,114.393026,30.638294,车站社区居委会,,420107,027,420107003003,111,,,,,,,,,2,100,1016,1368,3612,32526,491678,,
491679,8,114.400285,30.632735,蒋家敦社区居委会,,420107,027,420107003004,111,,,,,,,,,2,100,1016,1368,3612,32526,491679,,
491680,8,114.399607,30.642701,热电社区居委会,,420107,027,420107003006,111,,,,,,,,,2,100,1016,1368,3612,32526,491680,,
491681,8,114.400504,30.632582,科苑社区居委会,,420107,027,420107003007,111,,,,,,,,,2,100,1016,1368,3612,32526,491681,,
491682,8,114.39887,30.6345,新桥社区居委会,,420107,027,420107003008,111,,,,,,,,,2,100,1016,1368,3612,32526,491682,,
491683,8,114.48432,30.611108,光明社区居委会,,420107,027,420107003011,111,,,,,,,,,2,100,1016,1368,3612,32526,491683,,
491684,8,114.412191,30.646039,临江港湾社区居委会,,420107,027,420107004001,111,,,,,,,,,2,100,1016,1368,3612,32527,491684,,
491685,8,114.412191,30.646039,二街社区居委会,,420107,027,420107004002,111,,,,,,,,,2,100,1016,1368,3612,32527,491685,,
491686,8,114.408519,30.643414,三街社区居委会,,420107,027,420107004003,111,,,,,,,,,2,100,1016,1368,3612,32527,491686,,
491687,8,114.412191,30.646039,和悦社区居委会,,420107,027,420107004004,111,,,,,,,,,2,100,1016,1368,3612,32527,491687,,
491688,8,114.412191,30.646039,六街社区居委会,,420107,027,420107004006,111,,,,,,,,,2,100,1016,1368,3612,32527,491688,,
491689,8,114.412191,30.646039,和畅社区居委会,,420107,027,420107004007,111,,,,,,,,,2,100,1016,1368,3612,32527,491689,,
491690,8,114.412191,30.646039,青扬社区居委会,,420107,027,420107004009,111,,,,,,,,,2,100,1016,1368,3612,32527,491690,,
491691,8,114.401692,30.636326,十九街社区居委会,,420107,027,420107004011,111,,,,,,,,,2,100,1016,1368,3612,32527,491691,,
491692,8,114.419342,30.641542,青雅居社区居委会,,420107,027,420107005001,111,,,,,,,,,2,100,1016,1368,3612,32528,491692,,
491693,8,114.419342,30.641542,青宜居社区居委会,,420107,027,420107005004,111,,,,,,,,,2,100,1016,1368,3612,32528,491693,,
491694,8,114.419342,30.641542,青康居社区居委会,,420107,027,420107005006,111,,,,,,,,,2,100,1016,1368,3612,32528,491694,,
491695,8,114.419342,30.641542,青惠居社区居委会,,420107,027,420107005007,111,,,,,,,,,2,100,1016,1368,3612,32528,491695,,
491696,8,114.419342,30.641542,青和居社区居委会,,420107,027,420107005008,111,,,,,,,,,2,100,1016,1368,3612,32528,491696,,
491697,8,114.436869,30.655366,船厂社区居委会,,420107,027,420107006001,111,,,,,,,,,2,100,1016,1368,3612,32529,491697,,
491698,8,114.433339,30.65464,石化社区居委会,,420107,027,420107006002,111,,,,,,,,,2,100,1016,1368,3612,32529,491698,,
491699,8,114.42622,30.652819,青源社区居委会,,420107,027,420107006004,111,,,,,,,,,2,100,1016,1368,3612,32529,491699,,
491700,8,114.439006,30.607868,铁铺岭社区居委会,,420107,027,420107007003,111,,,,,,,,,2,100,1016,1368,3612,32530,491700,,
491701,8,114.437053,30.617327,青馨居社区居委会,,420107,027,420107007005,111,,,,,,,,,2,100,1016,1368,3612,32530,491701,,
491702,8,114.457726,30.57735,铸锻社区居委会,,420107,027,420107008001,111,,,,,,,,,2,100,1016,1368,3612,32531,491702,,
491703,8,114.458741,30.576293,航舵社区居委会,,420107,027,420107008002,111,,,,,,,,,2,100,1016,1368,3612,32531,491703,,
491704,8,114.463097,30.578855,兴中社区居委会,,420107,027,420107008003,111,,,,,,,,,2,100,1016,1368,3612,32531,491704,,
491705,8,114.465616,30.581267,船机社区居委会,,420107,027,420107008004,111,,,,,,,,,2,100,1016,1368,3612,32531,491705,,
491706,8,114.455454,30.575464,陆鹞社区居委会,,420107,027,420107008006,111,,,,,,,,,2,100,1016,1368,3612,32531,491706,,
491707,8,114.458741,30.576293,武东社区居委会,,420107,027,420107008007,111,,,,,,,,,2,100,1016,1368,3612,32531,491707,,
491708,8,114.458741,30.576293,武东村委会,,420107,027,420107008200,112,,,,,,,,,2,100,1016,1368,3612,32531,491708,,
491709,8,114.458741,30.576293,贾岭村委会,,420107,027,420107008201,112,,,,,,,,,2,100,1016,1368,3612,32531,491709,,
491710,8,114.4812,30.585564,五星村委会,,420107,027,420107008202,112,,,,,,,,,2,100,1016,1368,3612,32531,491710,,
491711,8,114.458741,30.576293,芦咀村委会,,420107,027,420107008203,112,,,,,,,,,2,100,1016,1368,3612,32531,491711,,
491712,8,114.481974,30.605137,康美社区居委会,,420107,027,420107009001,111,,,,,,,,,2,100,1016,1368,3612,32532,491712,,
491713,8,114.479954,30.6074,康寿社区居委会,,420107,027,420107009002,111,,,,,,,,,2,100,1016,1368,3612,32532,491713,,
491714,8,114.482365,30.606602,康泰社区居委会,,420107,027,420107009003,111,,,,,,,,,2,100,1016,1368,3612,32532,491714,,
491715,8,114.486426,30.609899,康乐社区居委会,,420107,027,420107009004,111,,,,,,,,,2,100,1016,1368,3612,32532,491715,,
491716,8,114.482365,30.606602,康宁社区居委会,,420107,027,420107009005,111,,,,,,,,,2,100,1016,1368,3612,32532,491716,,
491717,8,114.482365,30.606602,康达社区居委会,,420107,027,420107009006,111,,,,,,,,,2,100,1016,1368,3612,32532,491717,,
491718,8,114.489477,30.610212,群力社区居委会,,420107,027,420107009007,111,,,,,,,,,2,100,1016,1368,3612,32532,491718,,
491719,8,114.482365,30.606602,同兴社区居委会,,420107,027,420107009008,111,,,,,,,,,2,100,1016,1368,3612,32532,491719,,
491720,8,114.482365,30.606602,五一社区居委会,,420107,027,420107009009,111,,,,,,,,,2,100,1016,1368,3612,32532,491720,,
491721,8,114.46915,30.633412,火官社区居委会,,420107,027,420107009010,111,,,,,,,,,2,100,1016,1368,3612,32532,491721,,
491722,8,114.482365,30.606602,光明攀建社区居委会,,420107,027,420107009012,111,,,,,,,,,2,100,1016,1368,3612,32532,491722,,
491723,8,114.46915,30.633412,火官村委会,,420107,027,420107009200,112,,,,,,,,,2,100,1016,1368,3612,32532,491723,,
491724,8,114.46851,30.625491,五一村委会,,420107,027,420107009201,112,,,,,,,,,2,100,1016,1368,3612,32532,491724,,
491725,8,114.482365,30.606602,同兴村委会,,420107,027,420107009202,112,,,,,,,,,2,100,1016,1368,3612,32532,491725,,
491726,8,114.482365,30.606602,群力村委会,,420107,027,420107009203,112,,,,,,,,,2,100,1016,1368,3612,32532,491726,,
491727,8,114.472677,30.626892,红胜村委会,,420107,027,420107009204,112,,,,,,,,,2,100,1016,1368,3612,32532,491727,,
491728,8,114.482365,30.606602,努力村委会,,420107,027,420107009205,112,,,,,,,,,2,100,1016,1368,3612,32532,491728,,
491729,8,114.497544,30.584665,胜强村委会,,420107,027,420107009206,112,,,,,,,,,2,100,1016,1368,3612,32532,491729,,
491730,8,114.486079,30.620875,星火村委会,,420107,027,420107009207,112,,,,,,,,,2,100,1016,1368,3612,32532,491730,,
491731,8,114.381014,30.619602,110街社区居委会,,420107,027,420107010001,111,,,,,,,,,2,100,1016,1368,3612,32533,491731,,
491732,8,114.381014,30.619602,111街社区居委会,,420107,027,420107010002,111,,,,,,,,,2,100,1016,1368,3612,32533,491732,,
491733,8,114.381014,30.619602,114街社区居委会,,420107,027,420107010004,111,,,,,,,,,2,100,1016,1368,3612,32533,491733,,
491734,8,114.381014,30.619602,北苑社区居委会,,420107,027,420107010005,111,,,,,,,,,2,100,1016,1368,3612,32533,491734,,
491735,8,114.381014,30.619602,116街社区居委会,,420107,027,420107010006,111,,,,,,,,,2,100,1016,1368,3612,32533,491735,,
491736,8,114.381014,30.619602,117街社区居委会,,420107,027,420107010007,111,,,,,,,,,2,100,1016,1368,3612,32533,491736,,
491737,8,114.381014,30.619602,118街社区居委会,,420107,027,420107010008,111,,,,,,,,,2,100,1016,1368,3612,32533,491737,,
491738,8,114.381014,30.619602,119街社区居委会,,420107,027,420107010009,111,,,,,,,,,2,100,1016,1368,3612,32533,491738,,
491739,8,114.381014,30.619602,120街社区居委会,,420107,027,420107010010,111,,,,,,,,,2,100,1016,1368,3612,32533,491739,,
491740,8,114.381014,30.619602,121街社区居委会,,420107,027,420107010012,111,,,,,,,,,2,100,1016,1368,3612,32533,491740,,
491741,8,114.393269,30.617372,青翠苑社区居委会,,420111,027,420107010013,111,,,,,,,,,2,100,1016,1368,3612,32533,491741,,
491742,8,114.381014,30.619602,南苑社区居委会,,420107,027,420107010014,111,,,,,,,,,2,100,1016,1368,3612,32533,491742,,
491743,8,114.403937,30.638531,武钢集团虚拟社区,,420107,027,420107400498,123,,,,,,,,,2,100,1016,1368,3612,32534,491743,,
491744,8,114.388187,30.626402,一冶有限责任公司虚拟社区,,420107,027,420107401498,123,,,,,,,,,2,100,1016,1368,3612,32535,491744,,
491745,8,114.431168,30.622774,武汉钢铁有限公司虚拟社区,,420107,027,420107402498,123,,,,,,,,,2,100,1016,1368,3612,32536,491745,,
491746,8,114.368561,30.626808,一冶集管处虚拟社区,,420107,027,420107403498,123,,,,,,,,,2,100,1016,1368,3612,32537,491746,,
491747,8,114.385539,30.63963,开发区虚拟社区,,420107,027,420107404498,123,,,,,,,,,2,100,1016,1368,3612,32538,491747,,
491748,8,114.370723,30.613309,122街社区居委会,,420107,027,420107405001,111,,,,,,,,,2,100,1016,1368,3612,32539,491748,,
491749,8,114.370723,30.613309,123街社区居委会,,420107,027,420107405002,111,,,,,,,,,2,100,1016,1368,3612,32539,491749,,
491750,8,114.370723,30.613309,125街社区居委会,,420107,027,420107405004,111,,,,,,,,,2,100,1016,1368,3612,32539,491750,,
491751,8,114.370723,30.613309,126街社区居委会,,420107,027,420107405005,111,,,,,,,,,2,100,1016,1368,3612,32539,491751,,
491752,8,114.369715,30.609732,园林社区居委会,,420107,027,420107405006,111,,,,,,,,,2,100,1016,1368,3612,32539,491752,,
491753,8,114.385539,30.63963,绿景苑社区居委,,420107,027,420107405008,111,,,,,,,,,2,100,1016,1368,3612,32539,491753,,
491754,8,114.505739,30.600683,北湖社区居委会,,420107,027,420107406001,111,,,,,,,,,2,100,1016,1368,3612,32540,491754,,
491755,8,114.349884,30.537298,石牌园社区居民委员会,,420106,027,420111001001,111,,,,,,,,,2,100,1016,1368,3613,32541,491755,,
491756,8,114.349884,30.537298,洪珞社区居民委员会,,420106,027,420111001002,111,,,,,,,,,2,100,1016,1368,3613,32541,491756,,
491757,8,114.347185,30.529014,街道口社区居民委员会,,420106,027,420111001003,111,,,,,,,,,2,100,1016,1368,3613,32541,491757,,
491758,8,114.353579,30.525187,武珞社区居民委员会,,420111,027,420111001004,111,,,,,,,,,2,100,1016,1368,3613,32541,491758,,
491759,8,114.355552,30.533646,劝业场社区居民委员会,,420106,027,420111001005,111,,,,,,,,,2,100,1016,1368,3613,32541,491759,,
491760,8,114.343913,30.500317,武汉理工大东社区居民委员会,,420111,027,420111001006,111,,,,,,,,,2,100,1016,1368,3613,32541,491760,,
491761,8,114.343913,30.500317,武汉理工大西社区居民委员会,,420111,027,420111001007,111,,,,,,,,,2,100,1016,1368,3613,32541,491761,,
491762,8,114.356356,30.530675,四眼井社区居民委员会,,420111,027,420111001008,111,,,,,,,,,2,100,1016,1368,3613,32541,491762,,
491763,8,114.349884,30.537298,广埠屯社区居民委员会,,420106,027,420111001009,111,,,,,,,,,2,100,1016,1368,3613,32541,491763,,
491764,8,114.349884,30.537298,武测社区居民委员会,,420106,027,420111001010,111,,,,,,,,,2,100,1016,1368,3613,32541,491764,,
491765,8,114.364123,30.528525,广八路社区居民委员会,,420111,027,420111001011,111,,,,,,,,,2,100,1016,1368,3613,32541,491765,,
491766,8,114.349884,30.537298,七二二社区居民委员会,,420106,027,420111001012,111,,,,,,,,,2,100,1016,1368,3613,32541,491766,,
491767,8,114.349884,30.537298,丽岛社区居民委员会,,420106,027,420111001013,111,,,,,,,,,2,100,1016,1368,3613,32541,491767,,
491768,8,114.349884,30.537298,金桥社区居民委员会,,420106,027,420111001018,111,,,,,,,,,2,100,1016,1368,3613,32541,491768,,
491769,8,114.349884,30.537298,方桂园社区居民委员会,,420106,027,420111001019,111,,,,,,,,,2,100,1016,1368,3613,32541,491769,,
491770,8,114.349884,30.537298,元宝林社区居民委员会,,420106,027,420111001020,111,,,,,,,,,2,100,1016,1368,3613,32541,491770,,
491771,8,114.349884,30.537298,黎明社区居民委员会,,420106,027,420111001024,111,,,,,,,,,2,100,1016,1368,3613,32541,491771,,
491772,8,114.349884,30.537298,尤李社区居民委员会,,420106,027,420111001028,111,,,,,,,,,2,100,1016,1368,3613,32541,491772,,
491773,8,114.348389,30.515703,博苑社区居民委员会,,420111,027,420111001029,111,,,,,,,,,2,100,1016,1368,3613,32541,491773,,
491774,8,114.349884,30.537298,中建三局社区居民委员会,,420106,027,420111001030,111,,,,,,,,,2,100,1016,1368,3613,32541,491774,,
491775,8,114.349884,30.537298,圆梦家园社区居民委员会,,420106,027,420111001032,111,,,,,,,,,2,100,1016,1368,3613,32541,491775,,
491776,8,114.361451,30.504185,珞桂社区居民委员会,,420111,027,420111001035,111,,,,,,,,,2,100,1016,1368,3613,32541,491776,,
491777,8,114.349884,30.537298,银海雅苑社区居民委员会,,420106,027,420111001036,111,,,,,,,,,2,100,1016,1368,3613,32541,491777,,
491778,8,114.349884,30.537298,狮城名居社区居民委员会,,420106,027,420111001037,111,,,,,,,,,2,100,1016,1368,3613,32541,491778,,
491779,8,114.360757,30.51462,华中师范大学社区居民委员会,,420111,027,420111001038,111,,,,,,,,,2,100,1016,1368,3613,32541,491779,,
491780,8,114.349884,30.537298,风光苑社区居民委员会,,420106,027,420111001039,111,,,,,,,,,2,100,1016,1368,3613,32541,491780,,
491781,8,114.409798,30.507001,海核社区居民委员会,,420111,027,420111002003,111,,,,,,,,,2,100,1016,1368,3613,32542,491781,,
491782,8,114.402021,30.51259,南望社区居民委员会,,420111,027,420111002005,111,,,,,,,,,2,100,1016,1368,3613,32542,491782,,
491783,8,114.409798,30.507001,邮科院社区居民委员会,,420111,027,420111002007,111,,,,,,,,,2,100,1016,1368,3613,32542,491783,,
491784,8,114.409798,30.507001,湖电社区居民委员会,,420111,027,420111002008,111,,,,,,,,,2,100,1016,1368,3613,32542,491784,,
491785,8,114.408599,30.493609,汽标社区居民委员会,,420111,027,420111002009,111,,,,,,,,,2,100,1016,1368,3613,32542,491785,,
491786,8,114.409798,30.507001,南湖社区居民委员会,,420111,027,420111002010,111,,,,,,,,,2,100,1016,1368,3613,32542,491786,,
491787,8,114.398065,30.511229,紫菘社区居民委员会,,420111,027,420111002011,111,,,,,,,,,2,100,1016,1368,3613,32542,491787,,
491788,8,114.409798,30.507001,民大社区居民委员会,,420111,027,420111002013,111,,,,,,,,,2,100,1016,1368,3613,32542,491788,,
491789,8,114.409798,30.507001,纺大社区居民委员会,,420111,027,420111002014,111,,,,,,,,,2,100,1016,1368,3613,32542,491789,,
491790,8,114.409798,30.507001,关山口社区居民委员会,,420111,027,420111002015,111,,,,,,,,,2,100,1016,1368,3613,32542,491790,,
491791,8,114.409798,30.507001,汽发社区居民委员会,,420111,027,420111002016,111,,,,,,,,,2,100,1016,1368,3613,32542,491791,,
491792,8,114.409798,30.507001,阳光社区居民委员会,,420111,027,420111002017,111,,,,,,,,,2,100,1016,1368,3613,32542,491792,,
491793,8,114.409798,30.507001,逸景华庭社区居民委员会,,420111,027,420111002019,111,,,,,,,,,2,100,1016,1368,3613,32542,491793,,
491794,8,114.409798,30.507001,关南社区居民委员会,,420111,027,420111002022,111,,,,,,,,,2,100,1016,1368,3613,32542,491794,,
491795,8,114.409798,30.507001,鲁磨路社区居民委员会,,420111,027,420111002023,111,,,,,,,,,2,100,1016,1368,3613,32542,491795,,
491796,8,114.409798,30.507001,长江社区居民委员会,,420111,027,420111002026,111,,,,,,,,,2,100,1016,1368,3613,32542,491796,,
491797,8,114.409798,30.507001,地大社区居民委员会,,420111,027,420111002027,111,,,,,,,,,2,100,1016,1368,3613,32542,491797,,
491798,8,114.409798,30.507001,龙安社区居民委员会,,420111,027,420111002028,111,,,,,,,,,2,100,1016,1368,3613,32542,491798,,
491799,8,114.409798,30.507001,康居园社区居民委员会,,420111,027,420111002031,111,,,,,,,,,2,100,1016,1368,3613,32542,491799,,
491800,8,114.409798,30.507001,碧水社区居民委员会,,420111,027,420111002034,111,,,,,,,,,2,100,1016,1368,3613,32542,491800,,
491801,8,114.409798,30.507001,葛光社区居民委员会,,420111,027,420111002035,111,,,,,,,,,2,100,1016,1368,3613,32542,491801,,
491802,8,114.413221,30.498348,保利社区居民委员会,,420111,027,420111002040,111,,,,,,,,,2,100,1016,1368,3613,32542,491802,,
491803,8,114.409798,30.507001,剑桥春天社区居民委员会,,420111,027,420111002041,111,,,,,,,,,2,100,1016,1368,3613,32542,491803,,
491804,8,114.409798,30.507001,智慧城社区居民委员会,,420111,027,420111002043,111,,,,,,,,,2,100,1016,1368,3613,32542,491804,,
491805,8,114.409798,30.507001,枫林上城社区居民委员会,,420111,027,420111002044,111,,,,,,,,,2,100,1016,1368,3613,32542,491805,,
491806,8,114.409798,30.507001,阳春社区居民委员会,,420111,027,420111002045,111,,,,,,,,,2,100,1016,1368,3613,32542,491806,,
491807,8,114.409798,30.507001,华中科技大学社区居民委员会,,420111,027,420111002046,111,,,,,,,,,2,100,1016,1368,3613,32542,491807,,
491808,8,114.3412,30.478996,华农东社区居民委员会,,420111,027,420111003001,111,,,,,,,,,2,100,1016,1368,3613,32543,491808,,
491809,8,114.3412,30.478996,华农西社区居民委员会,,420111,027,420111003002,111,,,,,,,,,2,100,1016,1368,3613,32543,491809,,
491810,8,114.3412,30.478996,珞狮路社区居民委员会,,420111,027,420111003003,111,,,,,,,,,2,100,1016,1368,3613,32543,491810,,
491811,8,114.322384,30.485588,省农科院社区居民委员会,,420111,027,420111003004,111,,,,,,,,,2,100,1016,1368,3613,32543,491811,,
491812,8,114.3412,30.478996,通惠社区居民委员会,,420111,027,420111003005,111,,,,,,,,,2,100,1016,1368,3613,32543,491812,,
491813,8,114.3412,30.478996,七一二所社区居民委员会,,420111,027,420111003006,111,,,,,,,,,2,100,1016,1368,3613,32543,491813,,
491814,8,114.3412,30.478996,湖工社区居民委员会,,420111,027,420111003007,111,,,,,,,,,2,100,1016,1368,3613,32543,491814,,
491815,8,114.3412,30.478996,武南铁路社区居民委员会,,420111,027,420111003008,111,,,,,,,,,2,100,1016,1368,3613,32543,491815,,
491816,8,114.3412,30.478996,狮南社区居民委员会,,420111,027,420111003009,111,,,,,,,,,2,100,1016,1368,3613,32543,491816,,
491817,8,114.3412,30.478996,南湖山庄社区居民委员会,,420111,027,420111003010,111,,,,,,,,,2,100,1016,1368,3613,32543,491817,,
491818,8,114.3412,30.478996,玫瑰湾社区居民委员会,,420111,027,420111003011,111,,,,,,,,,2,100,1016,1368,3613,32543,491818,,
491819,8,114.3412,30.478996,书城路社区居民委员会,,420111,027,420111003012,111,,,,,,,,,2,100,1016,1368,3613,32543,491819,,
491820,8,114.3412,30.478996,珞珈雅苑社区居民委员会,,420111,027,420111003013,111,,,,,,,,,2,100,1016,1368,3613,32543,491820,,
491821,8,114.283101,30.488635,三桥社区居民委员会,,420111,027,420111004001,111,,,,,,,,,2,100,1016,1368,3613,32544,491821,,
491822,8,114.271937,30.480088,农科院社区居民委员会,,420111,027,420111004002,111,,,,,,,,,2,100,1016,1368,3613,32544,491822,,
491823,8,114.283101,30.488635,张家湾社区居民委员会,,420111,027,420111004003,111,,,,,,,,,2,100,1016,1368,3613,32544,491823,,
491824,8,114.283101,30.488635,建材社区居民委员会,,420111,027,420111004004,111,,,,,,,,,2,100,1016,1368,3613,32544,491824,,
491825,8,114.283101,30.488635,南湖社区居民委员会,,420111,027,420111004005,111,,,,,,,,,2,100,1016,1368,3613,32544,491825,,
491826,8,114.294263,30.506467,列电社区居民委员会,,420111,027,420111004007,111,,,,,,,,,2,100,1016,1368,3613,32544,491826,,
491827,8,114.283101,30.488635,长征社区居民委员会,,420111,027,420111004008,111,,,,,,,,,2,100,1016,1368,3613,32544,491827,,
491828,8,114.283101,30.488635,光霞社区居民委员会,,420111,027,420111004009,111,,,,,,,,,2,100,1016,1368,3613,32544,491828,,
491829,8,114.283101,30.488635,长江社区居民委员会,,420111,027,420111004010,111,,,,,,,,,2,100,1016,1368,3613,32544,491829,,
491830,8,114.283101,30.488635,烽火社区居民委员会,,420111,027,420111004011,111,,,,,,,,,2,100,1016,1368,3613,32544,491830,,
491831,8,114.283101,30.488635,毛坦社区居民委员会,,420111,027,420111004012,111,,,,,,,,,2,100,1016,1368,3613,32544,491831,,
491832,8,114.298736,30.464048,胜利社区居民委员会,,420111,027,420111004013,220,,,,,,,,,2,100,1016,1368,3613,32544,491832,,
491833,8,114.283101,30.488635,城市花园社区居民委员会,,420111,027,420111004014,111,,,,,,,,,2,100,1016,1368,3613,32544,491833,,
491834,8,114.283101,30.488635,金色城市社区居民委员会,,420111,027,420111004015,111,,,,,,,,,2,100,1016,1368,3613,32544,491834,,
491835,8,114.283101,30.488635,金域天下社区居民委员会,,420111,027,420111004016,111,,,,,,,,,2,100,1016,1368,3613,32544,491835,,
491836,8,114.283101,30.488635,湘龙鑫城社区居民委员会,,420111,027,420111004017,111,,,,,,,,,2,100,1016,1368,3613,32544,491836,,
491837,8,114.283101,30.488635,紫云府社区居民委员会,,420111,027,420111004018,111,,,,,,,,,2,100,1016,1368,3613,32544,491837,,
491838,8,114.283101,30.488635,复地悦城社区居民委员会,,420111,027,420111004019,111,,,,,,,,,2,100,1016,1368,3613,32544,491838,,
491839,8,114.283101,30.488635,清江锦城社区居民委员会,,420111,027,420111004020,111,,,,,,,,,2,100,1016,1368,3613,32544,491839,,
491840,8,114.357204,30.587261,新世纪社区居民委员会,,420111,027,420111005008,111,,,,,,,,,2,100,1016,1368,3613,32545,491840,,
491841,8,114.349884,30.537298,省电社区居民委员会,,420106,027,420111005009,111,,,,,,,,,2,100,1016,1368,3613,32545,491841,,
491842,8,114.358294,30.582282,华电社区居民委员会,,420111,027,420111005010,111,,,,,,,,,2,100,1016,1368,3613,32545,491842,,
491843,8,114.362756,30.584042,鹏程社区居民委员会,,420111,027,420111005011,111,,,,,,,,,2,100,1016,1368,3613,32545,491843,,
491844,8,114.349884,30.537298,东湖社区居民委员会,,420106,027,420111005012,111,,,,,,,,,2,100,1016,1368,3613,32545,491844,,
491845,8,114.374156,30.58735,东山亭社区居民委员会,,420111,027,420111005013,111,,,,,,,,,2,100,1016,1368,3613,32545,491845,,
491846,8,114.352972,30.589218,武铁佳苑社区居民委员会,,420111,027,420111005014,111,,,,,,,,,2,100,1016,1368,3613,32545,491846,,
491847,8,114.349884,30.537298,华腾园社区居民委员会,,420106,027,420111005015,111,,,,,,,,,2,100,1016,1368,3613,32545,491847,,
491848,8,114.343913,30.500317,东沙花园社区居民委员会,,420111,027,420111005016,111,,,,,,,,,2,100,1016,1368,3613,32545,491848,,
491849,8,114.376846,30.509185,马庄苑社区居民委员会,,420111,027,420111006001,111,,,,,,,,,2,100,1016,1368,3613,32546,491849,,
491850,8,114.37014,30.51188,五环社区居民委员会,,420111,027,420111006002,111,,,,,,,,,2,100,1016,1368,3613,32546,491850,,
491851,8,114.37014,30.51188,体院社区居民委员会,,420111,027,420111006003,111,,,,,,,,,2,100,1016,1368,3613,32546,491851,,
491852,8,114.37014,30.51188,虎泉社区居民委员会,,420111,027,420111006004,111,,,,,,,,,2,100,1016,1368,3613,32546,491852,,
491853,8,114.369384,30.507456,卓刀泉社区居民委员会,,420111,027,420111006005,111,,,,,,,,,2,100,1016,1368,3613,32546,491853,,
491854,8,114.37014,30.51188,伏虎山社区居民委员会,,420111,027,420111006006,111,,,,,,,,,2,100,1016,1368,3613,32546,491854,,
491855,8,114.374857,30.51261,金泉社区居民委员会,,420111,027,420111006007,111,,,,,,,,,2,100,1016,1368,3613,32546,491855,,
491856,8,114.37014,30.51188,高创家园社区居民委员会,,420111,027,420111006008,111,,,,,,,,,2,100,1016,1368,3613,32546,491856,,
491857,8,114.37014,30.51188,七零九社区居民委员会,,420111,027,420111006010,111,,,,,,,,,2,100,1016,1368,3613,32546,491857,,
491858,8,114.37014,30.51188,工程大社区居民委员会,,420111,027,420111006011,111,,,,,,,,,2,100,1016,1368,3613,32546,491858,,
491859,8,114.37014,30.51188,鲁广社区居民委员会,,420111,027,420111006012,111,,,,,,,,,2,100,1016,1368,3613,32546,491859,,
491860,8,114.37014,30.51188,关西社区居民委员会,,420111,027,420111006013,111,,,,,,,,,2,100,1016,1368,3613,32546,491860,,
491861,8,114.390144,30.507469,吴家湾社区居民委员会,,420111,027,420111006014,111,,,,,,,,,2,100,1016,1368,3613,32546,491861,,
491862,8,114.387075,30.50778,红星社区居民委员会,,420111,027,420111006015,111,,,,,,,,,2,100,1016,1368,3613,32546,491862,,
491863,8,114.37014,30.51188,保利拉菲社区居民委员会,,420111,027,420111006016,111,,,,,,,,,2,100,1016,1368,3613,32546,491863,,
491864,8,114.37014,30.51188,学雅芳邻社区居民委员会,,420111,027,420111006017,111,,,,,,,,,2,100,1016,1368,3613,32546,491864,,
491865,8,114.37014,30.51188,关公社区居民委员会,,420111,027,420111006018,111,,,,,,,,,2,100,1016,1368,3613,32546,491865,,
491866,8,114.37014,30.51188,名都花园社区居民委员会,,420111,027,420111006019,111,,,,,,,,,2,100,1016,1368,3613,32546,491866,,
491867,8,114.37014,30.51188,长职苑社区居民委员会,,420111,027,420111006020,111,,,,,,,,,2,100,1016,1368,3613,32546,491867,,
491868,8,114.37014,30.51188,保利蓝海郡社区居民委员会,,420111,027,420111006021,111,,,,,,,,,2,100,1016,1368,3613,32546,491868,,
491869,8,114.349884,30.537298,洪山社区居民委员会,,420106,027,420111007002,111,,,,,,,,,2,100,1016,1368,3613,32547,491869,,
491870,8,114.349884,30.537298,幸福社区居民委员会,,420106,027,420111007003,111,,,,,,,,,2,100,1016,1368,3613,32547,491870,,
491871,8,114.349884,30.537298,井岗社区居民委员会,,420106,027,420111007006,112,,,,,,,,,2,100,1016,1368,3613,32547,491871,,
491872,8,114.319239,30.474493,马湖社区居民委员会,,420111,027,420111007007,112,,,,,,,,,2,100,1016,1368,3613,32547,491872,,
491873,8,114.321123,30.498745,成宝社区居民委员会,,420111,027,420111007009,111,,,,,,,,,2,100,1016,1368,3613,32547,491873,,
491874,8,114.304651,30.498639,红旗社区居民委员会,,420111,027,420111007014,111,,,,,,,,,2,100,1016,1368,3613,32547,491874,,
491875,8,114.315787,30.496651,南湖新城社区居民委员会,,420111,027,420111007015,111,,,,,,,,,2,100,1016,1368,3613,32547,491875,,
491876,8,114.325168,30.471674,保利心语社区居民委员会,,420111,027,420111007016,111,,,,,,,,,2,100,1016,1368,3613,32547,491876,,
491877,8,114.405785,30.485404,金地格林城社区居民委员会,,420111,027,420111007018,111,,,,,,,,,2,100,1016,1368,3613,32547,491877,,
491878,8,114.331561,30.493883,大华社区居民委员会,,420111,027,420111007020,111,,,,,,,,,2,100,1016,1368,3613,32547,491878,,
491879,8,114.31671,30.468022,板桥社区居民委员会,,420111,027,420111007021,111,,,,,,,,,2,100,1016,1368,3613,32547,491879,,
491880,8,114.349884,30.537298,南湖雅园社区居民委员会,,420106,027,420111007022,111,,,,,,,,,2,100,1016,1368,3613,32547,491880,,
491881,8,114.322898,30.508669,北港社区居民委员会,,420111,027,420111007024,111,,,,,,,,,2,100,1016,1368,3613,32547,491881,,
491882,8,114.345084,30.545414,李家桥社区居民委员会,,420106,027,420111007025,112,,,,,,,,,2,100,1016,1368,3613,32547,491882,,
491883,8,114.294253,30.4566,双建社区居民委员会,,420111,027,420111007026,220,,,,,,,,,2,100,1016,1368,3613,32547,491883,,
491884,8,114.346962,30.456359,先建社区居民委员会,,420111,027,420111007027,220,,,,,,,,,2,100,1016,1368,3613,32547,491884,,
491885,8,114.315025,30.445233,韵湖社区居民委员会,,420111,027,420111007028,112,,,,,,,,,2,100,1016,1368,3613,32547,491885,,
