dataid,levelid,longitude,latitude,chinese_name,english_name,code1,code2,code3,code4,code5,alias1,alias2,alias3,alias4,alias5,area,population,continentid,countryid,provinceid,cityid,countyid,townid,villageid,buildingid,comments
208699,8,123.384191,41.766976,水源地社区,,210102,024,210102001002,111,,,,,,,,,2,100,1005,1237,2455,15734,208699,,
208700,8,123.382098,41.766834,砂阳南社区,,210102,024,210102001003,111,,,,,,,,,2,100,1005,1237,2455,15734,208700,,
208701,8,123.387013,41.766839,南京南社区,,210102,024,210102001005,111,,,,,,,,,2,100,1005,1237,2455,15734,208701,,
208702,8,123.382301,41.763174,河北社区,,210102,024,210102001007,111,,,,,,,,,2,100,1005,1237,2455,15734,208702,,
208703,8,123.381255,41.760331,万和社区,,210102,024,210102001010,111,,,,,,,,,2,100,1005,1237,2455,15734,208703,,
208704,8,123.378514,41.756299,玉屏二社区,,210102,024,210102001012,111,,,,,,,,,2,100,1005,1237,2455,15734,208704,,
208705,8,123.384534,41.761616,砂山新村社区,,210102,024,210102001014,111,,,,,,,,,2,100,1005,1237,2455,15734,208705,,
208706,8,123.386797,41.759905,和平湾社区,,210102,024,210102001015,111,,,,,,,,,2,100,1005,1237,2455,15734,208706,,
208707,8,123.387869,41.768206,丰泽社区,,210102,024,210102002001,111,,,,,,,,,2,100,1005,1237,2455,15735,208707,,
208708,8,123.386039,41.776837,南十社区,,210102,024,210102002003,111,,,,,,,,,2,100,1005,1237,2455,15735,208708,,
208709,8,123.386828,41.773802,临沂路社区,,210102,024,210102002005,111,,,,,,,,,2,100,1005,1237,2455,15735,208709,,
208710,8,123.389106,41.781532,华光社区,,210102,024,210102002006,111,,,,,,,,,2,100,1005,1237,2455,15735,208710,,
208711,8,123.393234,41.780977,红星社区,,210102,024,210102002008,111,,,,,,,,,2,100,1005,1237,2455,15735,208711,,
208712,8,123.395797,41.780502,中兴社区,,210102,024,210102002009,111,,,,,,,,,2,100,1005,1237,2455,15735,208712,,
208713,8,123.391605,41.778195,新华西社区,,210102,024,210102002010,111,,,,,,,,,2,100,1005,1237,2455,15735,208713,,
208714,8,123.392521,41.783839,平安社区,,210102,024,210102002011,111,,,,,,,,,2,100,1005,1237,2455,15735,208714,,
208715,8,123.391475,41.780743,宜春社区,,210102,024,210102002012,111,,,,,,,,,2,100,1005,1237,2455,15735,208715,,
208716,8,123.383512,41.769702,砂阳北社区,,210102,024,210102002013,111,,,,,,,,,2,100,1005,1237,2455,15735,208716,,
208717,8,123.409925,41.809754,西铁社区,,210102,024,210102007001,111,,,,,,,,,2,100,1005,1237,2455,15736,208717,,
208718,8,123.407893,41.806444,安图社区,,210102,024,210102007002,111,,,,,,,,,2,100,1005,1237,2455,15736,208718,,
208719,8,123.413877,41.809253,方迪社区,,210102,024,210102007004,111,,,,,,,,,2,100,1005,1237,2455,15736,208719,,
208720,8,123.41147,41.805269,图们社区,,210102,024,210102007007,111,,,,,,,,,2,100,1005,1237,2455,15736,208720,,
208721,8,123.41357,41.810649,纺织社区,,210102,024,210102007009,111,,,,,,,,,2,100,1005,1237,2455,15736,208721,,
208722,8,123.416666,41.812795,沈纺北社区,,210102,024,210102007010,111,,,,,,,,,2,100,1005,1237,2455,15736,208722,,
208723,8,123.419739,41.791666,宝环社区,,210102,024,210102013001,111,,,,,,,,,2,100,1005,1237,2455,15737,208723,,
208724,8,123.414234,41.789786,沈电社区,,210102,024,210102013002,111,,,,,,,,,2,100,1005,1237,2455,15737,208724,,
208725,8,123.42022,41.797445,和平新村社区,,210102,024,210102013003,111,,,,,,,,,2,100,1005,1237,2455,15737,208725,,
208726,8,123.422478,41.793361,延安里社区,,210102,024,210102013005,111,,,,,,,,,2,100,1005,1237,2455,15737,208726,,
208727,8,123.418969,41.799113,红塔社区,,210102,024,210102013006,111,,,,,,,,,2,100,1005,1237,2455,15737,208727,,
208728,8,123.43778,41.80116,市府社区,,210103,024,210102013007,111,,,,,,,,,2,100,1005,1237,2455,15737,208728,,
208729,8,123.415392,41.800304,桂林社区,,210102,024,210102013008,111,,,,,,,,,2,100,1005,1237,2455,15737,208729,,
208730,8,123.41367,41.781999,城中花园社区,,210102,024,210102016005,111,,,,,,,,,2,100,1005,1237,2455,15738,208730,,
208731,8,123.412361,41.780063,嘉兴社区,,210102,024,210102016006,111,,,,,,,,,2,100,1005,1237,2455,15738,208731,,
208732,8,123.408802,41.779081,省委社区,,210102,024,210102016007,111,,,,,,,,,2,100,1005,1237,2455,15738,208732,,
208733,8,123.411452,41.784807,四平街社区,,210102,024,210102016008,111,,,,,,,,,2,100,1005,1237,2455,15738,208733,,
208734,8,123.413026,41.774826,长兴社区,,210102,024,210102016009,111,,,,,,,,,2,100,1005,1237,2455,15738,208734,,
208735,8,123.410258,41.776461,振兴社区,,210102,024,210102016010,111,,,,,,,,,2,100,1005,1237,2455,15738,208735,,
208736,8,123.406582,41.774905,电业社区,,210102,024,210102016011,111,,,,,,,,,2,100,1005,1237,2455,15738,208736,,
208737,8,123.404551,41.774757,铁厦社区,,210102,024,210102016012,111,,,,,,,,,2,100,1005,1237,2455,15738,208737,,
208738,8,123.398575,41.778953,太平里社区,,210102,024,210102017002,111,,,,,,,,,2,100,1005,1237,2455,15739,208738,,
208739,8,123.399734,41.776215,光复里社区,,210102,024,210102017004,111,,,,,,,,,2,100,1005,1237,2455,15739,208739,,
208740,8,123.397237,41.771331,建科社区,,210102,024,210102017007,111,,,,,,,,,2,100,1005,1237,2455,15739,208740,,
208741,8,123.389866,41.776519,南九社区,,210102,024,210102017009,111,,,,,,,,,2,100,1005,1237,2455,15739,208741,,
208742,8,123.405502,41.772101,鑫贸社区,,210102,024,210102017010,111,,,,,,,,,2,100,1005,1237,2455,15739,208742,,
208743,8,123.402622,41.765867,光明社区,,210102,024,210102017011,111,,,,,,,,,2,100,1005,1237,2455,15739,208743,,
208744,8,123.398303,41.76839,湖畔社区,,210102,024,210102017012,111,,,,,,,,,2,100,1005,1237,2455,15739,208744,,
208745,8,123.393545,41.764142,辽声社区,,210102,024,210102017013,111,,,,,,,,,2,100,1005,1237,2455,15739,208745,,
208746,8,123.430234,41.774473,彩塔街社区,,210102,024,210102019001,111,,,,,,,,,2,100,1005,1237,2455,15740,208746,,
208747,8,123.423611,41.773777,保安寺社区,,210102,024,210102019003,111,,,,,,,,,2,100,1005,1237,2455,15740,208747,,
208748,8,123.42413,41.770244,文化路社区,,210102,024,210102019004,111,,,,,,,,,2,100,1005,1237,2455,15740,208748,,
208749,8,123.42492,41.766452,中科院社区,,210102,024,210102019005,111,,,,,,,,,2,100,1005,1237,2455,15740,208749,,
208750,8,123.43316,41.765576,三好街社区,,210102,024,210102019006,111,,,,,,,,,2,100,1005,1237,2455,15740,208750,,
208751,8,123.43482,41.75609,文安路社区,,210102,024,210102019009,111,,,,,,,,,2,100,1005,1237,2455,15740,208751,,
208752,8,123.409037,41.766448,东大社区,,210102,024,210102019011,111,,,,,,,,,2,100,1005,1237,2455,15740,208752,,
208753,8,123.423802,41.756919,新世界花园社区,,210102,024,210102019014,111,,,,,,,,,2,100,1005,1237,2455,15740,208753,,
208754,8,123.421377,41.759114,旺嘉园社区,,210102,024,210102019015,111,,,,,,,,,2,100,1005,1237,2455,15740,208754,,
208755,8,123.425281,41.771858,科技商城社区,,210102,024,210102019400,111,,,,,,,,,2,100,1005,1237,2455,15740,208755,,
208756,8,123.398367,41.738513,天河社区,,210102,024,210102021001,111,,,,,,,,,2,100,1005,1237,2455,15741,208756,,
208757,8,123.389034,41.749985,万科城社区,,210102,024,210102021002,111,,,,,,,,,2,100,1005,1237,2455,15741,208757,,
208758,8,123.394484,41.747289,格林生活坊社区,,210102,024,210102021003,111,,,,,,,,,2,100,1005,1237,2455,15741,208758,,
208759,8,123.381914,41.742874,长白苑社区,,210102,024,210102021004,111,,,,,,,,,2,100,1005,1237,2455,15741,208759,,
208760,8,123.401271,41.731022,金沙湾社区,,210102,024,210102021005,111,,,,,,,,,2,100,1005,1237,2455,15741,208760,,
208761,8,123.390601,41.732373,新加坡城社区,,210102,024,210102021006,111,,,,,,,,,2,100,1005,1237,2455,15741,208761,,
208762,8,123.40013,41.749138,翡翠城社区,,210102,024,210102021007,111,,,,,,,,,2,100,1005,1237,2455,15741,208762,,
208763,8,123.401873,41.732807,鹿特丹社区,,210102,024,210102021008,111,,,,,,,,,2,100,1005,1237,2455,15741,208763,,
208764,8,123.401873,41.732807,马总社区,,210102,024,210102021009,111,,,,,,,,,2,100,1005,1237,2455,15741,208764,,
208765,8,123.401873,41.732807,龙湖社区,,210102,024,210102021010,111,,,,,,,,,2,100,1005,1237,2455,15741,208765,,
208766,8,123.401061,41.798122,沈阳站社区,,210102,024,210102022011,111,,,,,,,,,2,100,1005,1237,2455,15742,208766,,
208767,8,123.398331,41.787049,正大社区,,210102,024,210102022012,111,,,,,,,,,2,100,1005,1237,2455,15742,208767,,
208768,8,123.397118,41.785698,环宇社区,,210102,024,210102022014,111,,,,,,,,,2,100,1005,1237,2455,15742,208768,,
208769,8,123.404532,41.782504,五环社区,,210102,024,210102022016,111,,,,,,,,,2,100,1005,1237,2455,15742,208769,,
208770,8,123.392934,41.785727,洪福社区,,210102,024,210102022017,111,,,,,,,,,2,100,1005,1237,2455,15742,208770,,
208771,8,123.411551,41.789259,中华社区,,210102,024,210102022018,111,,,,,,,,,2,100,1005,1237,2455,15742,208771,,
208772,8,123.407405,41.794457,联营社区,,210102,024,210102022019,111,,,,,,,,,2,100,1005,1237,2455,15742,208772,,
208773,8,123.412771,41.796528,中山社区,,210102,024,210102022020,111,,,,,,,,,2,100,1005,1237,2455,15742,208773,,
208774,8,123.413684,41.798793,八一社区,,210102,024,210102022021,111,,,,,,,,,2,100,1005,1237,2455,15742,208774,,
208775,8,123.403971,41.799139,民族社区,,210102,024,210102022022,111,,,,,,,,,2,100,1005,1237,2455,15742,208775,,
208776,8,123.401505,41.801416,铁军社区,,210102,024,210102022023,111,,,,,,,,,2,100,1005,1237,2455,15742,208776,,
208777,8,123.420767,41.807309,市府路社区,,210102,024,210102023001,111,,,,,,,,,2,100,1005,1237,2455,15743,208777,,
208778,8,123.426111,41.809179,皇寺路社区,,210102,024,210102023002,111,,,,,,,,,2,100,1005,1237,2455,15743,208778,,
208779,8,123.424945,41.810595,总站路社区,,210102,024,210102023004,111,,,,,,,,,2,100,1005,1237,2455,15743,208779,,
208780,8,123.420903,41.80763,北市社区,,210102,024,210102023009,111,,,,,,,,,2,100,1005,1237,2455,15743,208780,,
208781,8,123.425267,41.813875,民富社区,,210102,024,210102023010,111,,,,,,,,,2,100,1005,1237,2455,15743,208781,,
208782,8,123.426394,41.814438,大庆路社区,,210102,024,210102023011,111,,,,,,,,,2,100,1005,1237,2455,15743,208782,,
208783,8,123.424453,41.78026,群芳社区,,210102,024,210102025003,111,,,,,,,,,2,100,1005,1237,2455,15744,208783,,
208784,8,123.420511,41.780589,鲁园社区,,210102,024,210102025004,111,,,,,,,,,2,100,1005,1237,2455,15744,208784,,
208785,8,123.416023,41.783549,二零二医院社区,,210102,024,210102025009,111,,,,,,,,,2,100,1005,1237,2455,15744,208785,,
208786,8,123.419482,41.787263,云集社区,,210102,024,210102025010,111,,,,,,,,,2,100,1005,1237,2455,15744,208786,,
208787,8,123.42757,41.79292,八卦街社区,,210103,024,210102025011,111,,,,,,,,,2,100,1005,1237,2455,15744,208787,,
208788,8,123.420891,41.783209,领事馆社区,,210102,024,210102025012,111,,,,,,,,,2,100,1005,1237,2455,15744,208788,,
208789,8,123.403584,41.743796,安泰社区,,210102,024,210102027001,111,,,,,,,,,2,100,1005,1237,2455,15745,208789,,
208790,8,123.414801,41.733388,滨河湾社区,,210102,024,210102027002,111,,,,,,,,,2,100,1005,1237,2455,15745,208790,,
208791,8,123.40342,41.751899,远洋社区,,210102,024,210102027003,111,,,,,,,,,2,100,1005,1237,2455,15745,208791,,
208792,8,123.416788,41.74138,中海社区,,210102,024,210102027004,111,,,,,,,,,2,100,1005,1237,2455,15745,208792,,
208793,8,123.410916,41.735023,富海澜湾社区,,210102,024,210102027005,111,,,,,,,,,2,100,1005,1237,2455,15745,208793,,
208794,8,123.410916,41.735023,中航社区,,210102,024,210102027006,111,,,,,,,,,2,100,1005,1237,2455,15745,208794,,
208795,8,123.380281,41.724376,浑铁社区,,210102,024,210102028003,111,,,,,,,,,2,100,1005,1237,2455,15746,208795,,
208796,8,123.337344,41.703345,满融社区,,210102,024,210102028004,112,,,,,,,,,2,100,1005,1237,2455,15746,208796,,
208797,8,123.365893,41.706542,下河湾社区,,210102,024,210102028005,112,,,,,,,,,2,100,1005,1237,2455,15746,208797,,
208798,8,123.368275,41.727565,前进社区,,210102,024,210102028006,112,,,,,,,,,2,100,1005,1237,2455,15746,208798,,
208799,8,123.343596,41.720058,曹仲社区,,210102,024,210102028007,112,,,,,,,,,2,100,1005,1237,2455,15746,208799,,
208800,8,123.363432,41.719457,前竞赛社区,,210102,024,210102028008,112,,,,,,,,,2,100,1005,1237,2455,15746,208800,,
208801,8,123.363432,41.719457,后竞赛社区,,210102,024,210102028009,112,,,,,,,,,2,100,1005,1237,2455,15746,208801,,
208802,8,123.389002,41.703012,上河湾社区,,210102,024,210102028010,112,,,,,,,,,2,100,1005,1237,2455,15746,208802,,
208803,8,123.363432,41.719457,新立社区,,210102,024,210102028011,112,,,,,,,,,2,100,1005,1237,2455,15746,208803,,
208804,8,123.377873,41.720189,前鲜社区,,210102,024,210102028012,111,,,,,,,,,2,100,1005,1237,2455,15746,208804,,
208805,8,123.363432,41.719457,下鲜社区,,210102,024,210102028013,112,,,,,,,,,2,100,1005,1237,2455,15746,208805,,
208806,8,123.38472,41.703182,九洲社区,,210102,024,210102028014,111,,,,,,,,,2,100,1005,1237,2455,15746,208806,,
208807,8,123.363432,41.719457,茉莉公馆社区,,210102,024,210102028015,111,,,,,,,,,2,100,1005,1237,2455,15746,208807,,
208808,8,123.446061,41.800375,志新社区,,210103,024,210103004001,111,,,,,,,,,2,100,1005,1237,2456,15747,208808,,
208809,8,123.443961,41.800738,涌泉社区,,210103,024,210103004002,111,,,,,,,,,2,100,1005,1237,2456,15747,208809,,
208810,8,123.441602,41.797149,天光社区,,210103,024,210103004004,111,,,,,,,,,2,100,1005,1237,2456,15747,208810,,
208811,8,123.437581,41.795889,迎新社区,,210103,024,210103004005,111,,,,,,,,,2,100,1005,1237,2456,15747,208811,,
208812,8,123.44661,41.795606,兴丰社区,,210103,024,210103004006,111,,,,,,,,,2,100,1005,1237,2456,15747,208812,,
208813,8,123.439699,41.800134,杏林社区,,210103,024,210103004012,111,,,,,,,,,2,100,1005,1237,2456,15747,208813,,
208814,8,123.435157,41.79512,康壮社区,,210103,024,210103004013,111,,,,,,,,,2,100,1005,1237,2456,15747,208814,,
208815,8,123.456964,41.790675,永顺社区,,210103,024,210103005003,111,,,,,,,,,2,100,1005,1237,2456,15748,208815,,
208816,8,123.462733,41.792417,祥顺社区,,210103,024,210103005005,111,,,,,,,,,2,100,1005,1237,2456,15748,208816,,
208817,8,123.458194,41.78989,圣天社区,,210103,024,210103005008,111,,,,,,,,,2,100,1005,1237,2456,15748,208817,,
208818,8,123.465638,41.791082,现代家园社区,,210103,024,210103005012,111,,,,,,,,,2,100,1005,1237,2456,15748,208818,,
208819,8,123.450795,41.792415,阳光社区,,210103,024,210103005013,111,,,,,,,,,2,100,1005,1237,2456,15748,208819,,
208820,8,123.44808,41.78606,秀山社区,,210103,024,210103005015,111,,,,,,,,,2,100,1005,1237,2456,15748,208820,,
208821,8,123.450697,41.784543,六合社区,,210103,024,210103005016,111,,,,,,,,,2,100,1005,1237,2456,15748,208821,,
208822,8,123.446912,41.779477,双路社区,,210103,024,210103005018,111,,,,,,,,,2,100,1005,1237,2456,15748,208822,,
208823,8,123.48087,41.784616,六0六所社区,,210103,024,210103006001,111,,,,,,,,,2,100,1005,1237,2456,15749,208823,,
208824,8,123.479042,41.78661,万柳塘社区,,210104,024,210103006003,111,,,,,,,,,2,100,1005,1237,2456,15749,208824,,
208825,8,123.470744,41.780056,沈空社区,,210103,024,210103006004,111,,,,,,,,,2,100,1005,1237,2456,15749,208825,,
208826,8,123.469465,41.78264,大万莲社区,,210103,024,210103006005,111,,,,,,,,,2,100,1005,1237,2456,15749,208826,,
208827,8,123.47057,41.789343,先农坛社区,,210103,024,210103006009,111,,,,,,,,,2,100,1005,1237,2456,15749,208827,,
208828,8,123.473162,41.776419,泉园社区,,210103,024,210103006010,111,,,,,,,,,2,100,1005,1237,2456,15749,208828,,
208829,8,123.476725,41.776463,清泉社区,,210103,024,210103006011,111,,,,,,,,,2,100,1005,1237,2456,15749,208829,,
208830,8,123.473129,41.776114,泉富社区,,210103,024,210103006012,111,,,,,,,,,2,100,1005,1237,2456,15749,208830,,
208831,8,123.477898,41.770162,松泉社区,,210103,024,210103006013,111,,,,,,,,,2,100,1005,1237,2456,15749,208831,,
208832,8,123.459389,41.783908,慈恩社区,,210103,024,210103010001,111,,,,,,,,,2,100,1005,1237,2456,15750,208832,,
208833,8,123.459782,41.778518,勒石社区,,210103,024,210103010004,111,,,,,,,,,2,100,1005,1237,2456,15750,208833,,
208834,8,123.457911,41.777175,多福社区,,210103,024,210103010005,111,,,,,,,,,2,100,1005,1237,2456,15750,208834,,
208835,8,123.453042,41.773104,怡静园社区,,210103,024,210103010007,111,,,,,,,,,2,100,1005,1237,2456,15750,208835,,
208836,8,123.45597,41.780041,新兴社区,,210103,024,210103010011,111,,,,,,,,,2,100,1005,1237,2456,15750,208836,,
208837,8,123.457896,41.787214,红巾社区,,210103,024,210103010014,111,,,,,,,,,2,100,1005,1237,2456,15750,208837,,
208838,8,123.4575,41.78254,通天社区,,210103,024,210103010018,111,,,,,,,,,2,100,1005,1237,2456,15750,208838,,
208839,8,123.45063,41.773579,省医院社区,,210103,024,210103010019,111,,,,,,,,,2,100,1005,1237,2456,15750,208839,,
208840,8,123.429906,41.787732,铝镁社区,,210103,024,210103011002,111,,,,,,,,,2,100,1005,1237,2456,15751,208840,,
208841,8,123.429744,41.783447,运河社区,,210103,024,210103011006,111,,,,,,,,,2,100,1005,1237,2456,15751,208841,,
208842,8,123.432406,41.783731,兴胜社区,,210103,024,210103011007,111,,,,,,,,,2,100,1005,1237,2456,15751,208842,,
208843,8,123.428687,41.794904,三八南社区,,210103,024,210103011010,111,,,,,,,,,2,100,1005,1237,2456,15751,208843,,
208844,8,123.425244,41.789754,菜行社区,,210103,024,210103011012,111,,,,,,,,,2,100,1005,1237,2456,15751,208844,,
208845,8,123.430066,41.79769,进华社区,,210103,024,210103011013,111,,,,,,,,,2,100,1005,1237,2456,15751,208845,,
208846,8,123.431566,41.781091,春河社区,,210103,024,210103011014,111,,,,,,,,,2,100,1005,1237,2456,15751,208846,,
208847,8,123.430345,41.807796,府北社区,,210103,024,210103013004,111,,,,,,,,,2,100,1005,1237,2456,15752,208847,,
208848,8,123.449718,41.809378,剪炉社区,,210103,024,210103013006,111,,,,,,,,,2,100,1005,1237,2456,15752,208848,,
208849,8,123.445108,41.807542,晓春社区,,210103,024,210103013007,111,,,,,,,,,2,100,1005,1237,2456,15752,208849,,
208850,8,123.443172,41.809171,格林豪森社区,,210103,024,210103013009,111,,,,,,,,,2,100,1005,1237,2456,15752,208850,,
208851,8,123.438214,41.809602,府东社区,,210103,024,210103013010,111,,,,,,,,,2,100,1005,1237,2456,15752,208851,,
208852,8,123.444074,41.804844,宝石社区,,210103,024,210103013012,111,,,,,,,,,2,100,1005,1237,2456,15752,208852,,
208853,8,123.441434,41.802506,回民社区,,210103,024,210103013013,111,,,,,,,,,2,100,1005,1237,2456,15752,208853,,
208854,8,123.428443,41.802998,迎宾社区,,210103,024,210103013016,111,,,,,,,,,2,100,1005,1237,2456,15752,208854,,
208855,8,123.451091,41.821017,凯旋社区,,210103,024,210103014001,111,,,,,,,,,2,100,1005,1237,2456,15753,208855,,
208856,8,123.448205,41.815981,山东堡社区,,210103,024,210103014003,111,,,,,,,,,2,100,1005,1237,2456,15753,208856,,
208857,8,123.44473,41.815118,惠工社区,,210103,024,210103014004,111,,,,,,,,,2,100,1005,1237,2456,15753,208857,,
208858,8,123.451033,41.811617,狮慈社区,,210103,024,210103014005,111,,,,,,,,,2,100,1005,1237,2456,15753,208858,,
208859,8,123.448125,41.81184,望远社区,,210103,024,210103014006,111,,,,,,,,,2,100,1005,1237,2456,15753,208859,,
208860,8,123.435789,41.787879,文华社区,,210103,024,210103015002,111,,,,,,,,,2,100,1005,1237,2456,15754,208860,,
208861,8,123.437863,41.789247,茂泉社区,,210103,024,210103015003,111,,,,,,,,,2,100,1005,1237,2456,15754,208861,,
208862,8,123.447262,41.79156,桃源社区,,210103,024,210103015006,111,,,,,,,,,2,100,1005,1237,2456,15754,208862,,
208863,8,123.443514,41.789951,雨坛社区,,210103,024,210103015007,111,,,,,,,,,2,100,1005,1237,2456,15754,208863,,
208864,8,123.436627,41.791491,永环社区,,210103,024,210103015011,111,,,,,,,,,2,100,1005,1237,2456,15754,208864,,
208865,8,123.442021,41.784357,五爱社区,,210103,024,210103015013,111,,,,,,,,,2,100,1005,1237,2456,15754,208865,,
208866,8,123.439892,41.784872,青年社区,,210103,024,210103015015,111,,,,,,,,,2,100,1005,1237,2456,15754,208866,,
208867,8,123.450363,41.803204,平顺社区,,210103,024,210103017001,111,,,,,,,,,2,100,1005,1237,2456,15755,208867,,
208868,8,123.463408,41.791875,翠生社区,,210103,024,210103017004,111,,,,,,,,,2,100,1005,1237,2456,15755,208868,,
208869,8,123.455024,41.793168,帅府社区,,210103,024,210103017005,111,,,,,,,,,2,100,1005,1237,2456,15755,208869,,
208870,8,123.449273,41.798981,西华社区,,210103,024,210103017007,111,,,,,,,,,2,100,1005,1237,2456,15755,208870,,
208871,8,123.452642,41.793636,正义社区,,210103,024,210103017008,111,,,,,,,,,2,100,1005,1237,2456,15755,208871,,
208872,8,123.431659,41.766159,地王社区,,210102,024,210103018002,111,,,,,,,,,2,100,1005,1237,2456,15756,208872,,
208873,8,123.444535,41.776346,金生社区,,210103,024,210103018004,111,,,,,,,,,2,100,1005,1237,2456,15756,208873,,
208874,8,123.444033,41.769962,药大社区,,210103,024,210103018005,111,,,,,,,,,2,100,1005,1237,2456,15756,208874,,
208875,8,123.442693,41.766899,总院社区,,210103,024,210103018006,111,,,,,,,,,2,100,1005,1237,2456,15756,208875,,
208876,8,123.437248,41.768516,盛华苑社区,,210103,024,210103018007,111,,,,,,,,,2,100,1005,1237,2456,15756,208876,,
208877,8,123.440086,41.765746,文翠社区,,210103,024,210103018008,111,,,,,,,,,2,100,1005,1237,2456,15756,208877,,
208878,8,123.431659,41.766159,河畔社区,,210102,024,210103018009,111,,,,,,,,,2,100,1005,1237,2456,15756,208878,,
208879,8,123.446998,41.765758,塔园社区,,210103,024,210103018010,111,,,,,,,,,2,100,1005,1237,2456,15756,208879,,
208880,8,123.44542,41.762382,翠塔社区,,210103,024,210103018011,111,,,,,,,,,2,100,1005,1237,2456,15756,208880,,
208881,8,123.45678,41.767623,荟萃社区,,210103,024,210103019003,111,,,,,,,,,2,100,1005,1237,2456,15757,208881,,
208882,8,123.451629,41.768001,南塔社区,,210103,024,210103019006,111,,,,,,,,,2,100,1005,1237,2456,15757,208882,,
208883,8,123.449191,41.762067,萃苑社区,,210103,024,210103019007,111,,,,,,,,,2,100,1005,1237,2456,15757,208883,,
208884,8,123.463047,41.763153,文荟社区,,210103,024,210103019009,111,,,,,,,,,2,100,1005,1237,2456,15757,208884,,
208885,8,123.467717,41.761535,天坛社区,,210103,024,210103019010,111,,,,,,,,,2,100,1005,1237,2456,15757,208885,,
208886,8,123.464341,41.775062,柳塘社区,,210103,024,210103019011,111,,,,,,,,,2,100,1005,1237,2456,15757,208886,,
208887,8,123.46636,41.771276,富民社区,,210103,024,210103019012,111,,,,,,,,,2,100,1005,1237,2456,15757,208887,,
208888,8,123.479077,41.770735,福康社区,,210103,024,210103020016,111,,,,,,,,,2,100,1005,1237,2456,15758,208888,,
208889,8,123.496482,41.774651,方家栏社区,,210103,024,210103020017,111,,,,,,,,,2,100,1005,1237,2456,15758,208889,,
208890,8,123.5043,41.774,凌云社区,,210103,024,210103020018,111,,,,,,,,,2,100,1005,1237,2456,15758,208890,,
208891,8,123.50566,41.780037,御龙社区,,210103,024,210103020019,111,,,,,,,,,2,100,1005,1237,2456,15758,208891,,
208892,8,123.509741,41.774706,佳和社区,,210103,024,210103020020,111,,,,,,,,,2,100,1005,1237,2456,15758,208892,,
208893,8,123.520246,41.794781,上木场社区,,210103,024,210103020021,111,,,,,,,,,2,100,1005,1237,2456,15758,208893,,
208894,8,123.476085,41.76731,丰乐社区,,210103,024,210103021001,111,,,,,,,,,2,100,1005,1237,2456,15759,208894,,
208895,8,123.489441,41.764154,长青社区,,210103,024,210103021002,111,,,,,,,,,2,100,1005,1237,2456,15759,208895,,
208896,8,123.476411,41.76242,溪林社区,,210103,024,210103021010,111,,,,,,,,,2,100,1005,1237,2456,15759,208896,,
208897,8,123.501729,41.76708,青阳社区,,210103,024,210103021011,111,,,,,,,,,2,100,1005,1237,2456,15759,208897,,
208898,8,123.493023,41.770307,万科社区,,210103,024,210103021012,111,,,,,,,,,2,100,1005,1237,2456,15759,208898,,
208899,8,123.495218,41.764077,和泰社区,,210103,024,210103021013,111,,,,,,,,,2,100,1005,1237,2456,15759,208899,,
208900,8,123.493296,41.759131,东方威尼斯社区,,210103,024,210103021021,111,,,,,,,,,2,100,1005,1237,2456,15759,208900,,
208901,8,123.554665,41.823707,农科院社区,,210103,024,210103022001,111,,,,,,,,,2,100,1005,1237,2456,15760,208901,,
208902,8,123.563759,41.826145,农大社区,,210103,024,210103022002,111,,,,,,,,,2,100,1005,1237,2456,15760,208902,,
208903,8,123.563729,41.843202,后陵社区,,210104,024,210103022003,111,,,,,,,,,2,100,1005,1237,2456,15760,208903,,
208904,8,123.548298,41.834713,东大营社区,,210103,024,210103022004,111,,,,,,,,,2,100,1005,1237,2456,15760,208904,,
208905,8,123.574626,41.820905,福陵社区,,210103,024,210103022005,111,,,,,,,,,2,100,1005,1237,2456,15760,208905,,
208906,8,123.541311,41.828315,东大营西社区,,210103,024,210103022006,111,,,,,,,,,2,100,1005,1237,2456,15760,208906,,
208907,8,123.535978,41.813103,新立堡社区,,210103,024,210103023001,111,,,,,,,,,2,100,1005,1237,2456,15761,208907,,
208908,8,123.556693,41.818649,马官桥社区,,210103,024,210103023003,111,,,,,,,,,2,100,1005,1237,2456,15761,208908,,
208909,8,123.533154,41.822468,高官台社区,,210103,024,210103023004,111,,,,,,,,,2,100,1005,1237,2456,15761,208909,,
208910,8,123.528388,41.809204,海棠社区,,210103,024,210103023005,111,,,,,,,,,2,100,1005,1237,2456,15761,208910,,
208911,8,123.517554,41.803022,东塔社区,,210103,024,210103023008,111,,,,,,,,,2,100,1005,1237,2456,15761,208911,,
208912,8,123.545725,41.809931,榆树屯社区,,210103,024,210103023009,111,,,,,,,,,2,100,1005,1237,2456,15761,208912,,
208913,8,123.536303,41.807562,保利社区,,210103,024,210103023011,111,,,,,,,,,2,100,1005,1237,2456,15761,208913,,
208914,8,123.528811,41.820563,八家子社区,,210103,024,210103023017,111,,,,,,,,,2,100,1005,1237,2456,15761,208914,,
208915,8,123.539892,41.817162,喜勤里社区,,210103,024,210103023022,111,,,,,,,,,2,100,1005,1237,2456,15761,208915,,
208916,8,123.517655,41.805101,双安社区,,210103,024,210103023025,111,,,,,,,,,2,100,1005,1237,2456,15761,208916,,
208917,8,123.530132,41.81341,上东花墅社区,,210103,024,210103023026,111,,,,,,,,,2,100,1005,1237,2456,15761,208917,,
208918,8,123.524049,41.809224,五月花社区,,210103,024,210103023027,111,,,,,,,,,2,100,1005,1237,2456,15761,208918,,
208919,8,123.461359,41.809319,华乐社区,,210104,024,210104002008,111,,,,,,,,,2,100,1005,1237,2457,15762,208919,,
208920,8,123.462344,41.80767,华炉社区,,210104,024,210104002009,111,,,,,,,,,2,100,1005,1237,2457,15762,208920,,
208921,8,123.456972,41.811578,付家社区,,210104,024,210104002013,111,,,,,,,,,2,100,1005,1237,2457,15762,208921,,
208922,8,123.459714,41.808813,北苑社区,,210104,024,210104002014,111,,,,,,,,,2,100,1005,1237,2457,15762,208922,,
208923,8,123.460163,41.817382,尚品社区,,210104,024,210104002017,111,,,,,,,,,2,100,1005,1237,2457,15762,208923,,
208924,8,123.454465,41.806097,白塔社区,,210104,024,210104002018,111,,,,,,,,,2,100,1005,1237,2457,15762,208924,,
208925,8,123.451718,41.806243,翠华社区,,210104,024,210104002019,111,,,,,,,,,2,100,1005,1237,2457,15762,208925,,
208926,8,123.455066,41.812243,取义社区,,210104,024,210104002020,111,,,,,,,,,2,100,1005,1237,2457,15762,208926,,
208927,8,123.453223,41.816683,边墙社区,,210104,024,210104002021,111,,,,,,,,,2,100,1005,1237,2457,15762,208927,,
208928,8,123.457916,41.813436,绿苑社区,,210104,024,210104002022,111,,,,,,,,,2,100,1005,1237,2457,15762,208928,,
208929,8,123.465706,41.818148,枫合社区,,210104,024,210104002023,111,,,,,,,,,2,100,1005,1237,2457,15762,208929,,
208930,8,123.467668,41.794567,魁星社区,,210104,024,210104003004,111,,,,,,,,,2,100,1005,1237,2457,15763,208930,,
208931,8,123.469357,41.795158,舟泉社区,,210104,024,210104003006,111,,,,,,,,,2,100,1005,1237,2457,15763,208931,,
208932,8,123.473847,41.795227,金星社区,,210104,024,210104003009,111,,,,,,,,,2,100,1005,1237,2457,15763,208932,,
208933,8,123.478547,41.793975,河沿社区,,210104,024,210104003011,111,,,,,,,,,2,100,1005,1237,2457,15763,208933,,
208934,8,123.483902,41.795983,永丰社区,,210104,024,210104003013,111,,,,,,,,,2,100,1005,1237,2457,15763,208934,,
208935,8,123.481615,41.793575,东逸社区,,210104,024,210104003014,111,,,,,,,,,2,100,1005,1237,2457,15763,208935,,
208936,8,123.474703,41.786124,万泉社区,,210104,024,210104003015,111,,,,,,,,,2,100,1005,1237,2457,15763,208936,,
208937,8,123.467208,41.825474,公务员社区,,210104,024,210104004002,111,,,,,,,,,2,100,1005,1237,2457,15764,208937,,
208938,8,123.468254,41.827827,合作社区,,210104,024,210104004004,111,,,,,,,,,2,100,1005,1237,2457,15764,208938,,
208939,8,123.460125,41.820115,世博社区,,210104,024,210104004008,111,,,,,,,,,2,100,1005,1237,2457,15764,208939,,
208940,8,123.477478,41.821719,吉祥社区,,210104,024,210104004012,111,,,,,,,,,2,100,1005,1237,2457,15764,208940,,
208941,8,123.471339,41.828151,北海社区,,210104,024,210104004014,111,,,,,,,,,2,100,1005,1237,2457,15764,208941,,
208942,8,123.474737,41.82239,铁岭社区,,210104,024,210104004015,111,,,,,,,,,2,100,1005,1237,2457,15764,208942,,
208943,8,123.466886,41.831843,法库社区,,210104,024,210104004016,111,,,,,,,,,2,100,1005,1237,2457,15764,208943,,
208944,8,123.48296,41.82777,梨树社区,,210104,024,210104004017,111,,,,,,,,,2,100,1005,1237,2457,15764,208944,,
208945,8,123.477196,41.81831,大北桥社区,,210104,024,210104004018,111,,,,,,,,,2,100,1005,1237,2457,15764,208945,,
208946,8,123.480347,41.817031,如意社区,,210104,024,210104004019,111,,,,,,,,,2,100,1005,1237,2457,15764,208946,,
208947,8,123.480315,41.869816,劳动社区,,210104,024,210104006001,111,,,,,,,,,2,100,1005,1237,2457,15765,208947,,
208948,8,123.486823,41.868406,生产社区,,210104,024,210104006002,111,,,,,,,,,2,100,1005,1237,2457,15765,208948,,
208949,8,123.48231,41.872433,乐群社区,,210104,024,210104006005,111,,,,,,,,,2,100,1005,1237,2457,15765,208949,,
208950,8,123.491074,41.87413,和平社区,,210104,024,210104006007,111,,,,,,,,,2,100,1005,1237,2457,15765,208950,,
208951,8,123.489931,41.873491,团结社区,,210104,024,210104006008,111,,,,,,,,,2,100,1005,1237,2457,15765,208951,,
208952,8,123.486562,41.881978,幸福社区,,210104,024,210104006010,111,,,,,,,,,2,100,1005,1237,2457,15765,208952,,
208953,8,123.486428,41.889741,三家子社区,,210104,024,210104006014,111,,,,,,,,,2,100,1005,1237,2457,15765,208953,,
208954,8,123.518301,41.927755,前詹社区,,210104,024,210104006015,112,,,,,,,,,2,100,1005,1237,2457,15765,208954,,
208955,8,123.488736,41.877793,柳岗社区,,210104,024,210104006016,111,,,,,,,,,2,100,1005,1237,2457,15765,208955,,
208956,8,123.497836,41.90585,朱尔社区,,210104,024,210104006017,112,,,,,,,,,2,100,1005,1237,2457,15765,208956,,
208957,8,123.5102,41.904084,木匠社区,,210104,024,210104006018,112,,,,,,,,,2,100,1005,1237,2457,15765,208957,,
208958,8,123.481833,41.886766,文兴社区,,210104,024,210104006020,111,,,,,,,,,2,100,1005,1237,2457,15765,208958,,
208959,8,123.49276,41.839434,前进社区,,210104,024,210104007003,111,,,,,,,,,2,100,1005,1237,2457,15766,208959,,
208960,8,123.502037,41.841653,林韵社区,,210104,024,210104007022,111,,,,,,,,,2,100,1005,1237,2457,15766,208960,,
208961,8,123.504884,41.84414,观泉苑社区,,210104,024,210104007027,111,,,,,,,,,2,100,1005,1237,2457,15766,208961,,
208962,8,123.476909,41.839771,北大营社区,,210104,024,210104007030,111,,,,,,,,,2,100,1005,1237,2457,15766,208962,,
208963,8,123.497433,41.847737,柳邻社区,,210104,024,210104007035,111,,,,,,,,,2,100,1005,1237,2457,15766,208963,,
208964,8,123.499666,41.840378,摩尔社区,,210104,024,210104007036,111,,,,,,,,,2,100,1005,1237,2457,15766,208964,,
208965,8,123.496525,41.845429,福安社区,,210104,024,210104007037,111,,,,,,,,,2,100,1005,1237,2457,15766,208965,,
208966,8,123.496663,41.842829,福城社区,,210104,024,210104007038,111,,,,,,,,,2,100,1005,1237,2457,15766,208966,,
208967,8,123.465588,41.806104,德增社区,,210104,024,210104008001,111,,,,,,,,,2,100,1005,1237,2457,15767,208967,,
208968,8,123.47179,41.808361,百乐社区,,210104,024,210104008004,111,,,,,,,,,2,100,1005,1237,2457,15767,208968,,
208969,8,123.48996,41.812809,锦绣社区,,210104,024,210104008008,111,,,,,,,,,2,100,1005,1237,2457,15767,208969,,
208970,8,123.475542,41.81222,大华社区,,210104,024,210104008009,111,,,,,,,,,2,100,1005,1237,2457,15767,208970,,
208971,8,123.476044,41.807326,五月社区,,210104,024,210104008015,111,,,,,,,,,2,100,1005,1237,2457,15767,208971,,
208972,8,123.480921,41.810469,河畔社区,,210104,024,210104008020,111,,,,,,,,,2,100,1005,1237,2457,15767,208972,,
208973,8,123.479009,41.806747,荣乐社区,,210104,024,210104008021,111,,,,,,,,,2,100,1005,1237,2457,15767,208973,,
208974,8,123.46823,41.81344,中学堂社区,,210104,024,210104008022,111,,,,,,,,,2,100,1005,1237,2457,15767,208974,,
208975,8,123.473508,41.807748,百兴社区,,210104,024,210104008023,111,,,,,,,,,2,100,1005,1237,2457,15767,208975,,
208976,8,123.496309,41.831158,东站社区,,210104,024,210104009001,111,,,,,,,,,2,100,1005,1237,2457,15768,208976,,
208977,8,123.495714,41.824852,顺景社区,,210104,024,210104009002,111,,,,,,,,,2,100,1005,1237,2457,15768,208977,,
208978,8,123.522138,41.834289,铁道兵社区,,210104,024,210104009008,111,,,,,,,,,2,100,1005,1237,2457,15768,208978,,
208979,8,123.526835,41.834375,金客社区,,210104,024,210104009010,111,,,,,,,,,2,100,1005,1237,2457,15768,208979,,
208980,8,123.511079,41.841238,钢花社区,,210104,024,210104009011,111,,,,,,,,,2,100,1005,1237,2457,15768,208980,,
208981,8,123.509825,41.831113,蓝山社区,,210104,024,210104009014,111,,,,,,,,,2,100,1005,1237,2457,15768,208981,,
208982,8,123.521173,41.843118,龙湖社区,,210104,024,210104009015,111,,,,,,,,,2,100,1005,1237,2457,15768,208982,,
208983,8,123.509883,41.835652,国瑞社区,,210104,024,210104009016,111,,,,,,,,,2,100,1005,1237,2457,15768,208983,,
208984,8,123.486958,41.825421,卫士社区,,210104,024,210104010005,111,,,,,,,,,2,100,1005,1237,2457,15769,208984,,
208985,8,123.481181,41.820915,矿北社区,,210104,024,210104010009,111,,,,,,,,,2,100,1005,1237,2457,15769,208985,,
208986,8,123.483899,41.825526,俪城社区,,210104,024,210104010012,111,,,,,,,,,2,100,1005,1237,2457,15769,208986,,
208987,8,123.494411,41.831936,领域社区,,210104,024,210104010013,111,,,,,,,,,2,100,1005,1237,2457,15769,208987,,
208988,8,123.49504,41.82765,四德社区,,210104,024,210104010014,111,,,,,,,,,2,100,1005,1237,2457,15769,208988,,
208989,8,123.489602,41.812934,锦园社区,,210104,024,210104010015,111,,,,,,,,,2,100,1005,1237,2457,15769,208989,,
208990,8,123.490789,41.821168,东方社区,,210104,024,210104010016,111,,,,,,,,,2,100,1005,1237,2457,15769,208990,,
208991,8,123.481168,41.821328,铂悦社区,,210104,024,210104010017,111,,,,,,,,,2,100,1005,1237,2457,15769,208991,,
208992,8,123.493871,41.787783,民航社区,,210104,024,210104012001,111,,,,,,,,,2,100,1005,1237,2457,15770,208992,,
208993,8,123.486457,41.794116,园中社区,,210104,024,210104012004,111,,,,,,,,,2,100,1005,1237,2457,15770,208993,,
208994,8,123.490207,41.790365,东胜社区,,210104,024,210104012006,111,,,,,,,,,2,100,1005,1237,2457,15770,208994,,
208995,8,123.486657,41.794083,滂江社区,,210104,024,210104012008,111,,,,,,,,,2,100,1005,1237,2457,15770,208995,,
208996,8,123.49165,41.796557,长安社区,,210104,024,210104012009,111,,,,,,,,,2,100,1005,1237,2457,15770,208996,,
208997,8,123.487818,41.786476,江东社区,,210104,024,210104012012,111,,,,,,,,,2,100,1005,1237,2457,15770,208997,,
208998,8,123.486246,41.790759,莲花社区,,210104,024,210104012015,111,,,,,,,,,2,100,1005,1237,2457,15770,208998,,
208999,8,123.485631,41.79623,军航社区,,210104,024,210104012016,111,,,,,,,,,2,100,1005,1237,2457,15770,208999,,
209000,8,123.508999,41.817388,民贵社区,,210104,024,210104014002,111,,,,,,,,,2,100,1005,1237,2457,15771,209000,,
209001,8,123.507012,41.815336,八家子社区,,210104,024,210104014010,111,,,,,,,,,2,100,1005,1237,2457,15771,209001,,
209002,8,123.510768,41.804391,临滨社区,,210104,024,210104014011,111,,,,,,,,,2,100,1005,1237,2457,15771,209002,,
209003,8,123.514695,41.810893,和睦路社区,,210104,024,210104014012,111,,,,,,,,,2,100,1005,1237,2457,15771,209003,,
209004,8,123.509102,41.810186,筑景社区,,210104,024,210104014016,111,,,,,,,,,2,100,1005,1237,2457,15771,209004,,
209005,8,123.515655,41.816442,中房社区,,210104,024,210104014017,111,,,,,,,,,2,100,1005,1237,2457,15771,209005,,
209006,8,123.495481,41.804134,久安社区,,210104,024,210104015001,111,,,,,,,,,2,100,1005,1237,2457,15772,209006,,
209007,8,123.505031,41.805221,富强社区,,210104,024,210104015003,111,,,,,,,,,2,100,1005,1237,2457,15772,209007,,
209008,8,123.498094,41.807727,春晖社区,,210104,024,210104015004,111,,,,,,,,,2,100,1005,1237,2457,15772,209008,,
209009,8,123.493023,41.811054,和睦亭社区,,210104,024,210104015007,111,,,,,,,,,2,100,1005,1237,2457,15772,209009,,
209010,8,123.488424,41.798388,黎明社区,,210104,024,210104015008,111,,,,,,,,,2,100,1005,1237,2457,15772,209010,,
209011,8,123.494411,41.812324,善邻社区,,210104,024,210104015009,111,,,,,,,,,2,100,1005,1237,2457,15772,209011,,
209012,8,123.46851,41.799377,华茂社区,,210104,024,210104016001,111,,,,,,,,,2,100,1005,1237,2457,15773,209012,,
209013,8,123.465919,41.80352,绍棠社区,,210104,024,210104016002,111,,,,,,,,,2,100,1005,1237,2457,15773,209013,,
209014,8,123.475968,41.801902,民强社区,,210104,024,210104016003,111,,,,,,,,,2,100,1005,1237,2457,15773,209014,,
209015,8,123.473452,41.801105,天龙社区,,210104,024,210104016004,111,,,,,,,,,2,100,1005,1237,2457,15773,209015,,
209016,8,123.483204,41.800545,龙源社区,,210104,024,210104016005,111,,,,,,,,,2,100,1005,1237,2457,15773,209016,,
209017,8,123.483029,41.834598,上园社区,,210104,024,210104017001,111,,,,,,,,,2,100,1005,1237,2457,15774,209017,,
209018,8,123.483242,41.828422,辰宇社区,,210104,024,210104017002,111,,,,,,,,,2,100,1005,1237,2457,15774,209018,,
209019,8,123.472415,41.837846,华诚社区,,210104,024,210104017003,111,,,,,,,,,2,100,1005,1237,2457,15774,209019,,
209020,8,123.467399,41.833658,高教社区,,210104,024,210104017004,111,,,,,,,,,2,100,1005,1237,2457,15774,209020,,
209021,8,123.470568,41.83341,浅草社区,,210104,024,210104017005,111,,,,,,,,,2,100,1005,1237,2457,15774,209021,,
209022,8,123.479517,41.835909,康都社区,,210104,024,210104017006,111,,,,,,,,,2,100,1005,1237,2457,15774,209022,,
209023,8,123.47867,41.831793,新华社区,,210104,024,210104017007,111,,,,,,,,,2,100,1005,1237,2457,15774,209023,,
209024,8,123.474056,41.841931,圣淘沙社区,,210104,024,210104017008,111,,,,,,,,,2,100,1005,1237,2457,15774,209024,,
209025,8,123.488117,41.837157,愿景社区,,210104,024,210104017009,111,,,,,,,,,2,100,1005,1237,2457,15774,209025,,
209026,8,123.545428,41.860902,赵家社区,,210104,024,210104018001,112,,,,,,,,,2,100,1005,1237,2457,15775,209026,,
209027,8,123.563729,41.843202,后陵社区,,210104,024,210104018002,112,,,,,,,,,2,100,1005,1237,2457,15775,209027,,
209028,8,123.552987,41.849528,山梨社区,,210104,024,210104018003,112,,,,,,,,,2,100,1005,1237,2457,15775,209028,,
209029,8,123.55751,41.874092,辛家社区,,210104,024,210104018004,112,,,,,,,,,2,100,1005,1237,2457,15775,209029,,
209030,8,123.507385,41.857754,东榆社区,,210104,024,210104018005,111,,,,,,,,,2,100,1005,1237,2457,15775,209030,,
209031,8,123.489302,41.847205,新望社区,,210104,024,210104018006,111,,,,,,,,,2,100,1005,1237,2457,15775,209031,,
209032,8,123.533585,41.859231,八棵树社区,,210104,024,210104018007,111,,,,,,,,,2,100,1005,1237,2457,15775,209032,,
209033,8,123.480323,41.86066,汇泽社区,,210104,024,210104018008,111,,,,,,,,,2,100,1005,1237,2457,15775,209033,,
209034,8,123.483365,41.850606,福居社区,,210104,024,210104018009,111,,,,,,,,,2,100,1005,1237,2457,15775,209034,,
209035,8,123.480744,41.852947,蓝庭社区,,210104,024,210104018010,111,,,,,,,,,2,100,1005,1237,2457,15775,209035,,
209036,8,123.536706,41.876656,王家社区,,210104,024,210104018011,112,,,,,,,,,2,100,1005,1237,2457,15775,209036,,
209037,8,123.486448,41.85887,望花社区,,210104,024,210104018012,112,,,,,,,,,2,100,1005,1237,2457,15775,209037,,
209038,8,123.51491,41.867919,榆林社区,,210104,024,210104018013,111,,,,,,,,,2,100,1005,1237,2457,15775,209038,,
209039,8,123.490351,41.846469,大洼社区,,210104,024,210104018014,112,,,,,,,,,2,100,1005,1237,2457,15775,209039,,
209040,8,123.526239,41.849581,大志社区,,210104,024,210104018015,112,,,,,,,,,2,100,1005,1237,2457,15775,209040,,
209041,8,123.526239,41.849581,皮台社区,,210104,024,210104018016,112,,,,,,,,,2,100,1005,1237,2457,15775,209041,,
209042,8,123.537205,41.859727,兴达社区,,210104,024,210104018017,111,,,,,,,,,2,100,1005,1237,2457,15775,209042,,
209043,8,123.526239,41.849581,宝地社区,,210104,024,210104018018,111,,,,,,,,,2,100,1005,1237,2457,15775,209043,,
209044,8,123.526239,41.849581,富东社区,,210104,024,210104018019,111,,,,,,,,,2,100,1005,1237,2457,15775,209044,,
209045,8,123.50438,41.846319,二台子农工商联合公司生活区,,210104,024,210104018500,112,,,,,,,,,2,100,1005,1237,2457,15775,209045,,
209046,8,123.526239,41.849581,东山农工商联合公司生活区,,210104,024,210104018501,111,,,,,,,,,2,100,1005,1237,2457,15775,209046,,
209047,8,123.425399,41.873744,桔蔷社区,,210105,024,210105001002,111,,,,,,,,,2,100,1005,1237,2458,15776,209047,,
209048,8,123.42358,41.885643,梅江西社区,,210105,024,210105001003,111,,,,,,,,,2,100,1005,1237,2458,15776,209048,,
209049,8,123.41966,41.88463,五四社区,,210105,024,210105001004,111,,,,,,,,,2,100,1005,1237,2458,15776,209049,,
209050,8,123.421253,41.882555,新航社区,,210105,024,210105001005,111,,,,,,,,,2,100,1005,1237,2458,15776,209050,,
209051,8,123.434402,41.886309,梅江东社区,,210105,024,210105001006,111,,,,,,,,,2,100,1005,1237,2458,15776,209051,,
209052,8,123.434853,41.887981,北飞社区,,210105,024,210105001008,111,,,,,,,,,2,100,1005,1237,2458,15776,209052,,
209053,8,123.419213,41.880845,百花社区,,210105,024,210105001009,111,,,,,,,,,2,100,1005,1237,2458,15776,209053,,
209054,8,123.419836,41.866762,牡丹社区,,210105,024,210105001010,111,,,,,,,,,2,100,1005,1237,2458,15776,209054,,
209055,8,123.423542,41.869359,乐山社区,,210105,024,210105001011,111,,,,,,,,,2,100,1005,1237,2458,15776,209055,,
209056,8,123.427933,41.871273,松莲社区,,210105,024,210105001012,111,,,,,,,,,2,100,1005,1237,2458,15776,209056,,
209057,8,123.4222,41.875059,柳江社区,,210105,024,210105001013,111,,,,,,,,,2,100,1005,1237,2458,15776,209057,,
209058,8,123.422923,41.8815,东油馨村社区,,210105,024,210105001014,111,,,,,,,,,2,100,1005,1237,2458,15776,209058,,
209059,8,123.406916,41.902965,中航社区,,210105,024,210105001015,111,,,,,,,,,2,100,1005,1237,2458,15776,209059,,
209060,8,123.378042,41.896208,溪湖社区,,210105,024,210105001016,111,,,,,,,,,2,100,1005,1237,2458,15776,209060,,
209061,8,123.422923,41.8815,北四台子村委会,,210105,024,210105001201,112,,,,,,,,,2,100,1005,1237,2458,15776,209061,,
209062,8,123.422923,41.8815,方溪湖村委会,,210105,024,210105001202,112,,,,,,,,,2,100,1005,1237,2458,15776,209062,,
209063,8,123.436142,41.828613,五一社区,,210105,024,210105003003,111,,,,,,,,,2,100,1005,1237,2458,15777,209063,,
209064,8,123.446606,41.836723,兴旺社区,,210105,024,210105003009,111,,,,,,,,,2,100,1005,1237,2458,15777,209064,,
209065,8,123.442258,41.831371,前进社区,,210105,024,210105003010,111,,,,,,,,,2,100,1005,1237,2458,15777,209065,,
209066,8,123.440277,41.840946,武功山社区,,210105,024,210105003011,111,,,,,,,,,2,100,1005,1237,2458,15777,209066,,
209067,8,123.444691,41.841012,富城社区,,210105,024,210105003012,111,,,,,,,,,2,100,1005,1237,2458,15777,209067,,
209068,8,123.430757,41.830122,辽河社区,,210105,024,210105003013,111,,,,,,,,,2,100,1005,1237,2458,15777,209068,,
209069,8,123.434165,41.838737,军区社区,,210105,024,210105003017,111,,,,,,,,,2,100,1005,1237,2458,15777,209069,,
209070,8,123.432359,41.821044,岐山南社区,,210105,024,210105003018,111,,,,,,,,,2,100,1005,1237,2458,15777,209070,,
209071,8,123.438568,41.826384,铁路西社区,,210105,024,210105003019,111,,,,,,,,,2,100,1005,1237,2458,15777,209071,,
209072,8,123.441761,41.82296,龙江东社区,,210105,024,210105003020,111,,,,,,,,,2,100,1005,1237,2458,15777,209072,,
209073,8,123.437241,41.827387,龙江社区,,210105,024,210105003021,111,,,,,,,,,2,100,1005,1237,2458,15777,209073,,
209074,8,123.442704,41.826179,松江社区,,210105,024,210105003022,111,,,,,,,,,2,100,1005,1237,2458,15777,209074,,
209075,8,123.441868,41.828979,铁路东社区,,210105,024,210105003023,111,,,,,,,,,2,100,1005,1237,2458,15777,209075,,
209076,8,123.442443,41.829186,晨报社区,,210105,024,210105003024,111,,,,,,,,,2,100,1005,1237,2458,15777,209076,,
209077,8,123.417552,41.820712,碧塘社区,,210105,024,210105008001,111,,,,,,,,,2,100,1005,1237,2458,15778,209077,,
209078,8,123.418538,41.824523,北行社区,,210105,024,210105008003,111,,,,,,,,,2,100,1005,1237,2458,15778,209078,,
209079,8,123.424036,41.826541,西湖社区,,210105,024,210105008007,111,,,,,,,,,2,100,1005,1237,2458,15778,209079,,
209080,8,123.42239,41.81967,湘江社区,,210105,024,210105008008,111,,,,,,,,,2,100,1005,1237,2458,15778,209080,,
209081,8,123.424874,41.820908,庐山社区,,210105,024,210105008010,111,,,,,,,,,2,100,1005,1237,2458,15778,209081,,
209082,8,123.42637,41.81963,嫩江社区,,210105,024,210105008011,111,,,,,,,,,2,100,1005,1237,2458,15778,209082,,
209083,8,123.424998,41.830016,御花社区,,210105,024,210105008012,111,,,,,,,,,2,100,1005,1237,2458,15778,209083,,
209084,8,123.411339,41.829412,珠东社区,,210105,024,210105008013,111,,,,,,,,,2,100,1005,1237,2458,15778,209084,,
209085,8,123.413296,41.827901,扬子江社区,,210105,024,210105008014,111,,,,,,,,,2,100,1005,1237,2458,15778,209085,,
209086,8,123.415543,41.830367,嘉陵江社区,,210105,024,210105008015,111,,,,,,,,,2,100,1005,1237,2458,15778,209086,,
209087,8,123.410324,41.820472,长江南社区,,210105,024,210105008016,111,,,,,,,,,2,100,1005,1237,2458,15778,209087,,
209088,8,123.411504,41.826021,长江北社区,,210105,024,210105008017,111,,,,,,,,,2,100,1005,1237,2458,15778,209088,,
209089,8,123.407792,41.814382,华城社区,,210105,024,210105012002,111,,,,,,,,,2,100,1005,1237,2458,15779,209089,,
209090,8,123.409681,41.813998,兴华社区,,210105,024,210105012003,111,,,,,,,,,2,100,1005,1237,2458,15779,209090,,
209091,8,123.425027,41.817579,永泰社区,,210105,024,210105012005,111,,,,,,,,,2,100,1005,1237,2458,15779,209091,,
209092,8,123.41996,41.816806,中光社区,,210105,024,210105012006,111,,,,,,,,,2,100,1005,1237,2458,15779,209092,,
209093,8,123.410628,41.816926,保安社区,,210105,024,210105012007,111,,,,,,,,,2,100,1005,1237,2458,15779,209093,,
209094,8,123.419543,41.816799,安民社区,,210105,024,210105012008,111,,,,,,,,,2,100,1005,1237,2458,15779,209094,,
209095,8,123.410248,41.818676,金龙社区,,210105,024,210105012009,111,,,,,,,,,2,100,1005,1237,2458,15779,209095,,
209096,8,123.401444,41.810843,兴隆社区,,210105,024,210105012010,111,,,,,,,,,2,100,1005,1237,2458,15779,209096,,
209097,8,123.403904,41.812996,惠胜社区,,210105,024,210105012011,111,,,,,,,,,2,100,1005,1237,2458,15779,209097,,
209098,8,123.394782,41.82267,白楼社区,,210105,024,210105013001,111,,,,,,,,,2,100,1005,1237,2458,15780,209098,,
209099,8,123.394266,41.821716,汇宝社区,,210105,024,210105013006,111,,,,,,,,,2,100,1005,1237,2458,15780,209099,,
209100,8,123.40338,41.82028,鲲鹏社区,,210105,024,210105013007,111,,,,,,,,,2,100,1005,1237,2458,15780,209100,,
209101,8,123.39724,41.816462,站北社区,,210105,024,210105013008,111,,,,,,,,,2,100,1005,1237,2458,15780,209101,,
209102,8,123.399474,41.818812,青云社区,,210105,024,210105013009,111,,,,,,,,,2,100,1005,1237,2458,15780,209102,,
209103,8,123.395223,41.814956,站南社区,,210105,024,210105013010,111,,,,,,,,,2,100,1005,1237,2458,15780,209103,,
209104,8,123.392257,41.783832,平安社区,,210102,024,210105013011,111,,,,,,,,,2,100,1005,1237,2458,15780,209104,,
209105,8,123.399683,41.81496,站东社区,,210105,024,210105013012,111,,,,,,,,,2,100,1005,1237,2458,15780,209105,,
209106,8,123.391915,41.816463,华山社区,,210105,024,210105013013,111,,,,,,,,,2,100,1005,1237,2458,15780,209106,,
209107,8,123.387282,41.820833,宝合社区,,210105,024,210105014001,111,,,,,,,,,2,100,1005,1237,2458,15781,209107,,
209108,8,123.388543,41.821209,寿山社区,,210105,024,210105014002,111,,,,,,,,,2,100,1005,1237,2458,15781,209108,,
209109,8,123.384116,41.8218,天山社区,,210105,024,210105014003,111,,,,,,,,,2,100,1005,1237,2458,15781,209109,,
209110,8,123.388934,41.818853,华凯社区,,210105,024,210105014004,111,,,,,,,,,2,100,1005,1237,2458,15781,209110,,
209111,8,123.378258,41.824214,中海西社区,,210105,024,210105014005,111,,,,,,,,,2,100,1005,1237,2458,15781,209111,,
209112,8,123.38588,41.82878,淮北社区,,210105,024,210105015003,111,,,,,,,,,2,100,1005,1237,2458,15782,209112,,
209113,8,123.39389,41.82848,淮东社区,,210105,024,210105015004,111,,,,,,,,,2,100,1005,1237,2458,15782,209113,,
209114,8,123.398556,41.826921,渭河社区,,210105,024,210105015005,111,,,,,,,,,2,100,1005,1237,2458,15782,209114,,
209115,8,123.379488,41.828217,汾河社区,,210105,024,210105015007,111,,,,,,,,,2,100,1005,1237,2458,15782,209115,,
209116,8,123.401356,41.826004,舍宅社区,,210105,024,210105015008,111,,,,,,,,,2,100,1005,1237,2458,15782,209116,,
209117,8,123.400084,41.824593,怒江社区,,210105,024,210105015009,111,,,,,,,,,2,100,1005,1237,2458,15782,209117,,
209118,8,123.403683,41.828398,翔凤社区,,210105,024,210105015010,111,,,,,,,,,2,100,1005,1237,2458,15782,209118,,
209119,8,123.396254,41.829651,百鸟社区,,210105,024,210105015011,111,,,,,,,,,2,100,1005,1237,2458,15782,209119,,
209120,8,123.405691,41.826344,紫荆花东社区,,210105,024,210105015012,111,,,,,,,,,2,100,1005,1237,2458,15782,209120,,
209121,8,123.404825,41.824315,紫荆花西社区,,210105,024,210105015013,111,,,,,,,,,2,100,1005,1237,2458,15782,209121,,
209122,8,123.369037,41.821115,新汉城社区,,210105,024,210105017001,111,,,,,,,,,2,100,1005,1237,2458,15783,209122,,
209123,8,123.362796,41.825521,明北社区,,210105,024,210105017002,111,,,,,,,,,2,100,1005,1237,2458,15783,209123,,
209124,8,123.369798,41.827873,秀水社区,,210105,024,210105017003,111,,,,,,,,,2,100,1005,1237,2458,15783,209124,,
209125,8,123.367581,41.826737,明西社区,,210105,024,210105017006,111,,,,,,,,,2,100,1005,1237,2458,15783,209125,,
209126,8,123.373094,41.828118,明东社区,,210105,024,210105017007,111,,,,,,,,,2,100,1005,1237,2458,15783,209126,,
209127,8,123.359182,41.828122,赤水社区,,210105,024,210105017009,111,,,,,,,,,2,100,1005,1237,2458,15783,209127,,
209128,8,123.360301,41.83015,文水社区,,210105,024,210105017010,111,,,,,,,,,2,100,1005,1237,2458,15783,209128,,
209129,8,123.354052,41.829526,福居社区,,210105,024,210105017011,111,,,,,,,,,2,100,1005,1237,2458,15783,209129,,
209130,8,123.358057,41.832205,涟水社区,,210105,024,210105017012,111,,,,,,,,,2,100,1005,1237,2458,15783,209130,,
209131,8,123.361066,41.83302,引水社区,,210105,024,210105017013,111,,,,,,,,,2,100,1005,1237,2458,15783,209131,,
209132,8,123.36786,41.831698,塔湾欣城社区,,210105,024,210105017014,111,,,,,,,,,2,100,1005,1237,2458,15783,209132,,
209133,8,123.413146,41.852252,航院社区,,210105,024,210105019001,111,,,,,,,,,2,100,1005,1237,2458,15784,209133,,
209134,8,123.413227,41.85231,新乐社区,,210105,024,210105019002,111,,,,,,,,,2,100,1005,1237,2458,15784,209134,,
209135,8,123.413021,41.84466,友谊社区,,210114,024,210105019004,111,,,,,,,,,2,100,1005,1237,2458,15784,209135,,
209136,8,123.404409,41.83422,辽大社区,,210105,024,210105019005,111,,,,,,,,,2,100,1005,1237,2458,15784,209136,,
209137,8,123.414968,41.837779,泰山社区,,210105,024,210105019006,111,,,,,,,,,2,100,1005,1237,2458,15784,209137,,
209138,8,123.42465,41.835583,北陵社区,,210105,024,210105019007,111,,,,,,,,,2,100,1005,1237,2458,15784,209138,,
209139,8,123.417059,41.837954,泰南社区,,210105,024,210105019008,111,,,,,,,,,2,100,1005,1237,2458,15784,209139,,
209140,8,123.41659,41.840146,泰北社区,,210105,024,210105019009,111,,,,,,,,,2,100,1005,1237,2458,15784,209140,,
209141,8,123.415921,41.841906,新南社区,,210105,024,210105019010,111,,,,,,,,,2,100,1005,1237,2458,15784,209141,,
209142,8,123.409476,41.836671,建赏欧洲社区,,210105,024,210105019011,111,,,,,,,,,2,100,1005,1237,2458,15784,209142,,
209143,8,123.415443,41.833762,公艺社区,,210105,024,210105019012,111,,,,,,,,,2,100,1005,1237,2458,15784,209143,,
209144,8,123.380155,41.850536,六零一社区,,210105,024,210105020001,111,,,,,,,,,2,100,1005,1237,2458,15785,209144,,
209145,8,123.379956,41.839338,塔中社区,,210105,024,210105020003,111,,,,,,,,,2,100,1005,1237,2458,15785,209145,,
209146,8,123.369684,41.836941,七六七社区,,210105,024,210105020004,111,,,,,,,,,2,100,1005,1237,2458,15785,209146,,
209147,8,123.38314,41.83306,太平社区,,210105,024,210105020005,111,,,,,,,,,2,100,1005,1237,2458,15785,209147,,
209148,8,123.378251,41.831716,舍利塔社区,,210105,024,210105020006,111,,,,,,,,,2,100,1005,1237,2458,15785,209148,,
209149,8,123.395567,41.837562,怒江北社区,,210105,024,210105020007,111,,,,,,,,,2,100,1005,1237,2458,15785,209149,,
209150,8,123.38759,41.834569,花园社区,,210105,024,210105020008,111,,,,,,,,,2,100,1005,1237,2458,15785,209150,,
209151,8,123.394734,41.833233,延河社区,,210105,024,210105020009,111,,,,,,,,,2,100,1005,1237,2458,15785,209151,,
209152,8,123.38762,41.8307,太东社区,,210105,024,210105020010,111,,,,,,,,,2,100,1005,1237,2458,15785,209152,,
209153,8,123.381701,41.844621,警院社区,,210105,024,210105020013,111,,,,,,,,,2,100,1005,1237,2458,15785,209153,,
209154,8,123.463745,41.836846,新铁社区,,210105,024,210105021001,111,,,,,,,,,2,100,1005,1237,2458,15786,209154,,
209155,8,123.447199,41.83162,兴建社区,,210105,024,210105021002,111,,,,,,,,,2,100,1005,1237,2458,15786,209155,,
209156,8,123.456291,41.834489,柳条湖社区,,210105,024,210105021005,111,,,,,,,,,2,100,1005,1237,2458,15786,209156,,
209157,8,123.451516,41.839641,崇东社区,,210105,024,210105021007,111,,,,,,,,,2,100,1005,1237,2458,15786,209157,,
209158,8,123.452778,41.831,北塔花园社区,,210105,024,210105021008,111,,,,,,,,,2,100,1005,1237,2458,15786,209158,,
209159,8,123.458187,41.840048,富裕社区,,210105,024,210105021009,111,,,,,,,,,2,100,1005,1237,2458,15786,209159,,
209160,8,123.457841,41.830572,北塔社区,,210105,024,210105021010,111,,,,,,,,,2,100,1005,1237,2458,15786,209160,,
209161,8,123.445663,41.844709,嘉麟社区,,210105,024,210105021012,111,,,,,,,,,2,100,1005,1237,2458,15786,209161,,
209162,8,123.44142,41.848777,金山社区,,210105,024,210105022001,111,,,,,,,,,2,100,1005,1237,2458,15787,209162,,
209163,8,123.462632,41.851324,东窑社区,,210105,024,210105022002,111,,,,,,,,,2,100,1005,1237,2458,15787,209163,,
209164,8,123.431624,41.889323,万方社区,,210105,024,210105022003,112,,,,,,,,,2,100,1005,1237,2458,15787,209164,,
209165,8,123.458819,41.84943,西窑社区,,210105,024,210105022004,111,,,,,,,,,2,100,1005,1237,2458,15787,209165,,
209166,8,123.424009,41.894144,万山社区,,210105,024,210105022005,111,,,,,,,,,2,100,1005,1237,2458,15787,209166,,
209167,8,123.458017,41.884549,观音社区,,210105,024,210105022006,112,,,,,,,,,2,100,1005,1237,2458,15787,209167,,
209168,8,123.453447,41.847792,富丽阳光社区,,210105,024,210105022007,111,,,,,,,,,2,100,1005,1237,2458,15787,209168,,
209169,8,123.448474,41.866248,上岗子社区,,210105,024,210105022008,111,,,,,,,,,2,100,1005,1237,2458,15787,209169,,
209170,8,123.457921,41.894449,文官社区,,210105,024,210105022009,111,,,,,,,,,2,100,1005,1237,2458,15787,209170,,
209171,8,123.461783,41.855009,城建北尚社区,,210105,024,210105022010,111,,,,,,,,,2,100,1005,1237,2458,15787,209171,,
209172,8,123.465152,41.864402,居易青年城社区,,210105,024,210105022011,111,,,,,,,,,2,100,1005,1237,2458,15787,209172,,
209173,8,123.481473,41.886907,文官村委会,,210104,024,210105022201,112,,,,,,,,,2,100,1005,1237,2458,15787,209173,,
209174,8,123.325068,41.77366,建农社区,,210106,024,210106001017,111,,,,,,,,,2,100,1005,1237,2459,15788,209174,,
209175,8,123.316701,41.773102,燕塞湖社区,,210106,024,210106001018,111,,,,,,,,,2,100,1005,1237,2459,15788,209175,,
209176,8,123.313037,41.778723,洪湖社区,,210106,024,210106001019,111,,,,,,,,,2,100,1005,1237,2459,15788,209176,,
209177,8,123.293186,41.770465,三隆社区,,210106,024,210106001020,111,,,,,,,,,2,100,1005,1237,2459,15788,209177,,
209178,8,123.300806,41.771952,星海社区,,210106,024,210106001023,111,,,,,,,,,2,100,1005,1237,2459,15788,209178,,
209179,8,123.309207,41.779758,云海社区,,210106,024,210106001024,111,,,,,,,,,2,100,1005,1237,2459,15788,209179,,
209180,8,123.323701,41.791335,劳模社区,,210106,024,210106003006,111,,,,,,,,,2,100,1005,1237,2459,15789,209180,,
209181,8,123.321951,41.79384,新喜社区,,210106,024,210106003007,111,,,,,,,,,2,100,1005,1237,2459,15789,209181,,
209182,8,123.323648,41.788895,新苑社区,,210106,024,210106003008,111,,,,,,,,,2,100,1005,1237,2459,15789,209182,,
209183,8,123.328594,41.788081,新利社区,,210106,024,210106003009,111,,,,,,,,,2,100,1005,1237,2459,15789,209183,,
209184,8,123.328861,41.784361,新华社区,,210106,024,210106003010,111,,,,,,,,,2,100,1005,1237,2459,15789,209184,,
209185,8,123.347033,41.786685,壮工社区,,210106,024,210106003011,111,,,,,,,,,2,100,1005,1237,2459,15789,209185,,
209186,8,123.321205,41.788079,清乐社区,,210106,024,210106003012,111,,,,,,,,,2,100,1005,1237,2459,15789,209186,,
209187,8,123.33093,41.792151,工人新村三社区,,210106,024,210106003015,111,,,,,,,,,2,100,1005,1237,2459,15789,209187,,
209188,8,123.336204,41.787821,功勋社区,,210106,024,210106003016,111,,,,,,,,,2,100,1005,1237,2459,15789,209188,,
209189,8,123.333203,41.783518,园西社区,,210106,024,210106003017,111,,,,,,,,,2,100,1005,1237,2459,15789,209189,,
209190,8,123.331352,41.779865,中海社区,,210106,024,210106003018,111,,,,,,,,,2,100,1005,1237,2459,15789,209190,,
209191,8,123.319595,41.782848,西站社区,,210106,024,210106003019,111,,,,,,,,,2,100,1005,1237,2459,15789,209191,,
209192,8,123.330343,41.779729,泰山社区,,210106,024,210106003020,111,,,,,,,,,2,100,1005,1237,2459,15789,209192,,
209193,8,123.336635,41.780482,仙女湖社区,,210106,024,210106003021,111,,,,,,,,,2,100,1005,1237,2459,15789,209193,,
209194,8,123.344637,41.800437,育工社区,,210106,024,210106005002,111,,,,,,,,,2,100,1005,1237,2459,15790,209194,,
209195,8,123.340217,41.796066,创意社区,,210106,024,210106005003,111,,,,,,,,,2,100,1005,1237,2459,15790,209195,,
209196,8,123.336451,41.797173,星光社区,,210106,024,210106005004,111,,,,,,,,,2,100,1005,1237,2459,15790,209196,,
209197,8,123.341523,41.801839,建设社区,,210106,024,210106005012,111,,,,,,,,,2,100,1005,1237,2459,15790,209197,,
209198,8,123.341225,41.79326,开发社区,,210106,024,210106005013,111,,,,,,,,,2,100,1005,1237,2459,15790,209198,,
209199,8,123.337553,41.791887,工人新村一社区,,210106,024,210106005014,111,,,,,,,,,2,100,1005,1237,2459,15790,209199,,
209200,8,123.340605,41.789804,工人新村二社区,,210106,024,210106005015,111,,,,,,,,,2,100,1005,1237,2459,15790,209200,,
209201,8,123.338924,41.809206,第一城社区,,210106,024,210106005016,111,,,,,,,,,2,100,1005,1237,2459,15790,209201,,
209202,8,123.345958,41.823592,启明社区,,210106,024,210106007012,111,,,,,,,,,2,100,1005,1237,2459,15791,209202,,
209203,8,123.337216,41.828461,启迪社区,,210106,024,210106007013,111,,,,,,,,,2,100,1005,1237,2459,15791,209203,,
209204,8,123.33088,41.817223,启新社区,,210106,024,210106007014,111,,,,,,,,,2,100,1005,1237,2459,15791,209204,,
209205,8,123.319499,41.814288,启飞社区,,210106,024,210106007015,111,,,,,,,,,2,100,1005,1237,2459,15791,209205,,
209206,8,123.336395,41.815558,启阳社区,,210106,024,210106007016,111,,,,,,,,,2,100,1005,1237,2459,15791,209206,,
209207,8,123.338569,41.825375,重工新村社区,,210106,024,210106007017,111,,,,,,,,,2,100,1005,1237,2459,15791,209207,,
209208,8,123.339337,41.798263,北一新村社区,,210106,024,210106007018,111,,,,,,,,,2,100,1005,1237,2459,15791,209208,,
209209,8,123.321964,41.816855,保利心语花园社区,,210106,024,210106007019,111,,,,,,,,,2,100,1005,1237,2459,15791,209209,,
209210,8,123.372545,41.816829,劳动里社区,,210106,024,210106013003,111,,,,,,,,,2,100,1005,1237,2459,15792,209210,,
209211,8,123.369257,41.819783,人民里社区,,210106,024,210106013004,111,,,,,,,,,2,100,1005,1237,2459,15792,209211,,
209212,8,123.360344,41.808927,圣工社区,,210106,024,210106013006,111,,,,,,,,,2,100,1005,1237,2459,15792,209212,,
209213,8,123.37048,41.800335,北四路社区,,210106,024,210106013007,111,,,,,,,,,2,100,1005,1237,2459,15792,209213,,
209214,8,123.374757,41.812133,光明新村社区,,210106,024,210106013008,111,,,,,,,,,2,100,1005,1237,2459,15792,209214,,
209215,8,123.381217,41.811892,北一中路社区,,210106,024,210106013009,111,,,,,,,,,2,100,1005,1237,2459,15792,209215,,
209216,8,123.358791,41.811196,北二中路社区,,210106,024,210106013010,111,,,,,,,,,2,100,1005,1237,2459,15792,209216,,
209217,8,123.363554,41.805071,北三中路社区,,210106,024,210106013011,111,,,,,,,,,2,100,1005,1237,2459,15792,209217,,
209218,8,123.366166,41.790214,志成里社区,,210106,024,210106015001,111,,,,,,,,,2,100,1005,1237,2459,15793,209218,,
209219,8,123.364989,41.78547,勋望南社区,,210106,024,210106015004,111,,,,,,,,,2,100,1005,1237,2459,15793,209219,,
209220,8,123.354403,41.782644,体育场社区,,210106,024,210106015006,111,,,,,,,,,2,100,1005,1237,2459,15793,209220,,
209221,8,123.367262,41.787416,兴华园社区,,210106,024,210106015007,111,,,,,,,,,2,100,1005,1237,2459,15793,209221,,
209222,8,123.361963,41.791971,景星南社区,,210106,024,210106015009,111,,,,,,,,,2,100,1005,1237,2459,15793,209222,,
209223,8,123.364958,41.77781,爱心社区,,210106,024,210106015010,111,,,,,,,,,2,100,1005,1237,2459,15793,209223,,
209224,8,123.384994,41.785863,两洞桥社区,,210106,024,210106018011,111,,,,,,,,,2,100,1005,1237,2459,15794,209224,,
209225,8,123.380425,41.790917,爱工社区,,210106,024,210106018012,111,,,,,,,,,2,100,1005,1237,2459,15794,209225,,
209226,8,123.381005,41.785185,九委社区,,210106,024,210106018013,111,,,,,,,,,2,100,1005,1237,2459,15794,209226,,
209227,8,123.376472,41.787138,南七东路社区,,210106,024,210106018015,111,,,,,,,,,2,100,1005,1237,2459,15794,209227,,
209228,8,123.379097,41.780006,沈辽东路社区,,210106,024,210106018016,111,,,,,,,,,2,100,1005,1237,2459,15794,209228,,
209229,8,123.372254,41.778529,飞翔路社区,,210106,024,210106018017,111,,,,,,,,,2,100,1005,1237,2459,15794,209229,,
209230,8,123.39975,41.809257,北虹桥社区,,210106,024,210106019001,111,,,,,,,,,2,100,1005,1237,2459,15795,209230,,
209231,8,123.395313,41.800717,明朗社区,,210106,024,210106019002,111,,,,,,,,,2,100,1005,1237,2459,15795,209231,,
209232,8,123.385742,41.799339,青年居易社区,,210106,024,210106019003,111,,,,,,,,,2,100,1005,1237,2459,15795,209232,,
209233,8,123.387017,41.797348,兴工北社区,,210106,024,210106019004,111,,,,,,,,,2,100,1005,1237,2459,15795,209233,,
209234,8,123.386663,41.795691,爱工北社区,,210106,024,210106019005,111,,,,,,,,,2,100,1005,1237,2459,15795,209234,,
209235,8,123.387622,41.805458,铁军社区,,210106,024,210106019006,111,,,,,,,,,2,100,1005,1237,2459,15795,209235,,
209236,8,123.39177,41.81317,荣华社区,,210106,024,210106019007,111,,,,,,,,,2,100,1005,1237,2459,15795,209236,,
209237,8,123.389647,41.811722,黎明公寓社区,,210106,024,210106019008,111,,,,,,,,,2,100,1005,1237,2459,15795,209237,,
209238,8,123.394235,41.805304,公和桥社区,,210106,024,210106019009,111,,,,,,,,,2,100,1005,1237,2459,15795,209238,,
209239,8,123.387671,41.812369,新湖社区,,210106,024,210106019010,111,,,,,,,,,2,100,1005,1237,2459,15795,209239,,
209240,8,123.39642,41.801905,兴华北街社区,,210106,024,210106019011,111,,,,,,,,,2,100,1005,1237,2459,15795,209240,,
209241,8,123.39642,41.801905,云峰北街社区,,210106,024,210106019012,111,,,,,,,,,2,100,1005,1237,2459,15795,209241,,
209242,8,123.366182,41.775785,一小区社区,,210106,024,210106020021,111,,,,,,,,,2,100,1005,1237,2459,15796,209242,,
209243,8,123.376102,41.776948,二小区社区,,210106,024,210106020022,111,,,,,,,,,2,100,1005,1237,2459,15796,209243,,
209244,8,123.376412,41.77155,滑翔西社区,,210106,024,210106020024,111,,,,,,,,,2,100,1005,1237,2459,15796,209244,,
209245,8,123.375071,41.763542,五小区社区,,210106,024,210106020025,111,,,,,,,,,2,100,1005,1237,2459,15796,209245,,
209246,8,123.364149,41.766473,六小区社区,,210106,024,210106020026,111,,,,,,,,,2,100,1005,1237,2459,15796,209246,,
209247,8,123.35782,41.768437,七小区社区,,210106,024,210106020027,111,,,,,,,,,2,100,1005,1237,2459,15796,209247,,
209248,8,123.375681,41.772439,八小区社区,,210106,024,210106020028,111,,,,,,,,,2,100,1005,1237,2459,15796,209248,,
209249,8,123.368202,41.770028,九小区社区,,210106,024,210106020029,111,,,,,,,,,2,100,1005,1237,2459,15796,209249,,
209250,8,123.332771,41.795715,水源社区,,210106,024,210106021001,111,,,,,,,,,2,100,1005,1237,2459,15797,209250,,
209251,8,123.332844,41.796491,建业社区,,210106,024,210106021002,111,,,,,,,,,2,100,1005,1237,2459,15797,209251,,
209252,8,123.328355,41.797434,富祥园社区,,210106,024,210106021003,111,,,,,,,,,2,100,1005,1237,2459,15797,209252,,
209253,8,123.331619,41.806679,省安社区,,210106,024,210106021004,111,,,,,,,,,2,100,1005,1237,2459,15797,209253,,
209254,8,123.330093,41.803487,零公里社区,,210106,024,210106021005,111,,,,,,,,,2,100,1005,1237,2459,15797,209254,,
209255,8,123.317809,41.797909,南七社区,,210106,024,210106021006,111,,,,,,,,,2,100,1005,1237,2459,15797,209255,,
209256,8,123.320034,41.795756,南十社区,,210106,024,210106021007,111,,,,,,,,,2,100,1005,1237,2459,15797,209256,,
209257,8,123.326122,41.799109,重工北社区,,210106,024,210106021008,111,,,,,,,,,2,100,1005,1237,2459,15797,209257,,
209258,8,123.325773,41.796118,重工南社区,,210106,024,210106021009,111,,,,,,,,,2,100,1005,1237,2459,15797,209258,,
209259,8,123.324534,41.800793,花苑社区,,210106,024,210106021010,111,,,,,,,,,2,100,1005,1237,2459,15797,209259,,
209260,8,123.333469,41.80371,肇工社区,,210106,024,210106021011,111,,,,,,,,,2,100,1005,1237,2459,15797,209260,,
209261,8,123.344,41.772898,永善社区,,210106,024,210106022001,111,,,,,,,,,2,100,1005,1237,2459,15798,209261,,
209262,8,123.351142,41.778324,红艳路社区,,210106,024,210106022002,111,,,,,,,,,2,100,1005,1237,2459,15798,209262,,
209263,8,123.347757,41.775767,光学社区,,210106,024,210106022003,111,,,,,,,,,2,100,1005,1237,2459,15798,209263,,
209264,8,123.35299,41.77589,光辉社区,,210106,024,210106022004,111,,,,,,,,,2,100,1005,1237,2459,15798,209264,,
209265,8,123.34029,41.774526,永合社区,,210106,024,210106022005,111,,,,,,,,,2,100,1005,1237,2459,15798,209265,,
209266,8,123.3594,41.778446,艳华社区,,210106,024,210106022006,111,,,,,,,,,2,100,1005,1237,2459,15798,209266,,
209267,8,123.354028,41.778018,艳粉街社区,,210106,024,210106022007,111,,,,,,,,,2,100,1005,1237,2459,15798,209267,,
209268,8,123.355214,41.776126,红昌社区,,210106,024,210106022008,111,,,,,,,,,2,100,1005,1237,2459,15798,209268,,
209269,8,123.359009,41.773966,红盛社区,,210106,024,210106022009,111,,,,,,,,,2,100,1005,1237,2459,15798,209269,,
209270,8,123.353926,41.770469,艳阳社区,,210106,024,210106022010,111,,,,,,,,,2,100,1005,1237,2459,15798,209270,,
209271,8,123.333732,41.774113,大天地社区,,210106,024,210106022011,111,,,,,,,,,2,100,1005,1237,2459,15798,209271,,
209272,8,123.353912,41.784642,兴盛社区,,210106,024,210106023001,111,,,,,,,,,2,100,1005,1237,2459,15799,209272,,
209273,8,123.351343,41.789845,兴达社区,,210106,024,210106023002,111,,,,,,,,,2,100,1005,1237,2459,15799,209273,,
209274,8,123.352615,41.785351,宏伟社区,,210106,024,210106023003,111,,,,,,,,,2,100,1005,1237,2459,15799,209274,,
209275,8,123.348922,41.787668,长春社区,,210106,024,210106023004,111,,,,,,,,,2,100,1005,1237,2459,15799,209275,,
209276,8,123.344197,41.790203,文化宫社区,,210106,024,210106023006,111,,,,,,,,,2,100,1005,1237,2459,15799,209276,,
209277,8,123.345248,41.785025,康宁社区,,210106,024,210106023007,111,,,,,,,,,2,100,1005,1237,2459,15799,209277,,
209278,8,123.344145,41.785181,前进社区,,210106,024,210106023008,111,,,,,,,,,2,100,1005,1237,2459,15799,209278,,
209279,8,123.343396,41.780567,繁荣东社区,,210106,024,210106023009,111,,,,,,,,,2,100,1005,1237,2459,15799,209279,,
209280,8,123.344933,41.782845,繁荣社区,,210106,024,210106023010,111,,,,,,,,,2,100,1005,1237,2459,15799,209280,,
209281,8,123.358733,41.798289,建二社区,,210106,024,210106024001,111,,,,,,,,,2,100,1005,1237,2459,15800,209281,,
209282,8,123.359465,41.7961,建四社区,,210106,024,210106024002,111,,,,,,,,,2,100,1005,1237,2459,15800,209282,,
209283,8,123.351053,41.798225,德工社区,,210106,024,210106024004,111,,,,,,,,,2,100,1005,1237,2459,15800,209283,,
209284,8,123.359353,41.798555,建北社区,,210106,024,210106024005,111,,,,,,,,,2,100,1005,1237,2459,15800,209284,,
209285,8,123.35272,41.805838,高楼社区,,210106,024,210106024006,111,,,,,,,,,2,100,1005,1237,2459,15800,209285,,
209286,8,123.355951,41.794522,建绣社区,,210106,024,210106024008,111,,,,,,,,,2,100,1005,1237,2459,15800,209286,,
209287,8,123.352886,41.793299,神瑞社区,,210106,024,210106024009,111,,,,,,,,,2,100,1005,1237,2459,15800,209287,,
209288,8,123.346807,41.796066,嘉业社区,,210106,024,210106024010,111,,,,,,,,,2,100,1005,1237,2459,15800,209288,,
209289,8,123.367223,41.797085,贵和社区,,210106,024,210106025001,111,,,,,,,,,2,100,1005,1237,2459,15801,209289,,
209290,8,123.37528,41.794806,建云社区,,210106,024,210106025002,111,,,,,,,,,2,100,1005,1237,2459,15801,209290,,
209291,8,123.364267,41.795476,建大社区,,210106,024,210106025003,111,,,,,,,,,2,100,1005,1237,2459,15801,209291,,
209292,8,123.365039,41.793292,勋望社区,,210106,024,210106025005,111,,,,,,,,,2,100,1005,1237,2459,15801,209292,,
209293,8,123.372718,41.790961,广场社区,,210106,024,210106025006,111,,,,,,,,,2,100,1005,1237,2459,15801,209293,,
209294,8,123.366364,41.783234,祥云社区,,210106,024,210106025008,111,,,,,,,,,2,100,1005,1237,2459,15801,209294,,
209295,8,123.200798,41.732645,大青社区,,210106,024,210106026001,111,,,,,,,,,2,100,1005,1237,2459,15802,209295,,
209296,8,123.204463,41.733112,西胜社区,,210106,024,210106026002,111,,,,,,,,,2,100,1005,1237,2459,15802,209296,,
209297,8,123.222458,41.749614,孤家社区,,210106,024,210106026003,111,,,,,,,,,2,100,1005,1237,2459,15802,209297,,
209298,8,123.242281,41.739249,得胜社区,,210106,024,210106026004,111,,,,,,,,,2,100,1005,1237,2459,15802,209298,,
209299,8,123.226239,41.774014,团结社区,,210106,024,210106026005,111,,,,,,,,,2,100,1005,1237,2459,15802,209299,,
209300,8,123.243445,41.783291,共和社区,,210106,024,210106026006,111,,,,,,,,,2,100,1005,1237,2459,15802,209300,,
209301,8,123.204463,41.733112,安乐社区,,210106,024,210106026007,111,,,,,,,,,2,100,1005,1237,2459,15802,209301,,
209302,8,123.238494,41.748706,中央湖畔社区,,210106,024,210106026008,111,,,,,,,,,2,100,1005,1237,2459,15802,209302,,
209303,8,123.204463,41.733112,隆湖社区,,210106,024,210106026009,111,,,,,,,,,2,100,1005,1237,2459,15802,209303,,
209304,8,123.243934,41.747658,熙湖社区,,210106,024,210106026010,111,,,,,,,,,2,100,1005,1237,2459,15802,209304,,
209305,8,123.204463,41.733112,锦绣社区,,210106,024,210106026011,111,,,,,,,,,2,100,1005,1237,2459,15802,209305,,
209306,8,123.204463,41.733112,小青村委会,,210106,024,210106026201,111,,,,,,,,,2,100,1005,1237,2459,15802,209306,,
209307,8,123.224098,41.728237,四王村委会,,210106,024,210106026203,111,,,,,,,,,2,100,1005,1237,2459,15802,209307,,
209308,8,123.239954,41.786662,高明村委会,,210106,024,210106026208,111,,,,,,,,,2,100,1005,1237,2459,15802,209308,,
209309,8,123.284927,41.743055,余粮村委会,,210106,024,210106026210,111,,,,,,,,,2,100,1005,1237,2459,15802,209309,,
209310,8,123.305809,41.73255,后谟村委会,,210114,024,210106026211,111,,,,,,,,,2,100,1005,1237,2459,15802,209310,,
209311,8,123.258284,41.744529,翟家新社区,,210106,024,210106027001,111,,,,,,,,,2,100,1005,1237,2459,15803,209311,,
209312,8,123.255078,41.74074,曹家社区,,210106,024,210106027002,111,,,,,,,,,2,100,1005,1237,2459,15803,209312,,
209313,8,123.266016,41.737647,小于社区,,210106,024,210106027003,111,,,,,,,,,2,100,1005,1237,2459,15803,209313,,
209314,8,123.260903,41.721054,大于社区,,210106,024,210106027004,111,,,,,,,,,2,100,1005,1237,2459,15803,209314,,
209315,8,123.235516,41.711651,翟家社区,,210106,024,210106027005,111,,,,,,,,,2,100,1005,1237,2459,15803,209315,,
209316,8,123.257103,41.746395,土台子社区,,210106,024,210106027006,111,,,,,,,,,2,100,1005,1237,2459,15803,209316,,
209317,8,123.257103,41.746395,壕上社区,,210106,024,210106027007,111,,,,,,,,,2,100,1005,1237,2459,15803,209317,,
209318,8,123.257103,41.746395,大挨金社区,,210106,024,210106027008,111,,,,,,,,,2,100,1005,1237,2459,15803,209318,,
209319,8,123.257103,41.746395,小挨金社区,,210106,024,210106027009,111,,,,,,,,,2,100,1005,1237,2459,15803,209319,,
209320,8,123.257103,41.746395,下地社区,,210106,024,210106027010,111,,,,,,,,,2,100,1005,1237,2459,15803,209320,,
209321,8,123.257103,41.746395,东胜社区,,210106,024,210106027011,111,,,,,,,,,2,100,1005,1237,2459,15803,209321,,
209322,8,123.257103,41.746395,中央大街社区,,210106,024,210106027012,111,,,,,,,,,2,100,1005,1237,2459,15803,209322,,
209323,8,123.256128,41.706868,郎家村委会,,210106,024,210106027203,112,,,,,,,,,2,100,1005,1237,2459,15803,209323,,
209324,8,123.268656,41.749436,宁官社区,,210106,024,210106028001,111,,,,,,,,,2,100,1005,1237,2459,15804,209324,,
209325,8,123.284431,41.756324,宁鹏社区,,210106,024,210106028002,111,,,,,,,,,2,100,1005,1237,2459,15804,209325,,
209326,8,123.277355,41.76159,军营社区,,210106,024,210106028003,111,,,,,,,,,2,100,1005,1237,2459,15804,209326,,
209327,8,123.262957,41.757959,七号街社区,,210106,024,210106028004,111,,,,,,,,,2,100,1005,1237,2459,15804,209327,,
209328,8,123.376301,41.802914,宁新社区,,210106,024,210106028005,111,,,,,,,,,2,100,1005,1237,2459,15804,209328,,
209329,8,123.269949,41.742109,宁民社区,,210106,024,210106028006,111,,,,,,,,,2,100,1005,1237,2459,15804,209329,,
209330,8,123.280227,41.783492,张士村委会,,210114,024,210106028200,111,,,,,,,,,2,100,1005,1237,2459,15804,209330,,
209331,8,123.281519,41.754242,宁官村委会,,210106,024,210106028201,111,,,,,,,,,2,100,1005,1237,2459,15804,209331,,
209332,8,123.149236,41.694652,大潘社区,,210106,024,210106029001,111,,,,,,,,,2,100,1005,1237,2459,15805,209332,,
209333,8,123.15343,41.692071,小潘居委会,,210106,024,210106029002,111,,,,,,,,,2,100,1005,1237,2459,15805,209333,,
209334,8,123.122466,41.682917,大潘居委会,,210106,024,210106029003,112,,,,,,,,,2,100,1005,1237,2459,15805,209334,,
209335,8,123.15343,41.692071,马贝村委会,,210106,024,210106029200,122,,,,,,,,,2,100,1005,1237,2459,15805,209335,,
209336,8,123.15343,41.692071,岳家村委会,,210106,024,210106029201,122,,,,,,,,,2,100,1005,1237,2459,15805,209336,,
209337,8,123.15343,41.692071,李达村委会,,210106,024,210106029202,122,,,,,,,,,2,100,1005,1237,2459,15805,209337,,
209338,8,123.15343,41.692071,西古村委会,,210106,024,210106029203,220,,,,,,,,,2,100,1005,1237,2459,15805,209338,,
209339,8,123.153347,41.691988,大祝村委会,,210106,024,210106029204,112,,,,,,,,,2,100,1005,1237,2459,15805,209339,,
209340,8,123.15343,41.692071,侯家村委会,,210106,024,210106029205,112,,,,,,,,,2,100,1005,1237,2459,15805,209340,,
209341,8,123.154444,41.685315,赵家村委会,,210106,024,210106029206,111,,,,,,,,,2,100,1005,1237,2459,15805,209341,,
209342,8,123.15343,41.692071,林台村委会,,210106,024,210106029207,111,,,,,,,,,2,100,1005,1237,2459,15805,209342,,
209343,8,123.15343,41.692071,前马村委会,,210106,024,210106029208,111,,,,,,,,,2,100,1005,1237,2459,15805,209343,,
209344,8,123.15343,41.692071,四台子村委会,,210106,024,210106029209,111,,,,,,,,,2,100,1005,1237,2459,15805,209344,,
209345,8,123.15343,41.692071,后马村委会,,210106,024,210106029210,111,,,,,,,,,2,100,1005,1237,2459,15805,209345,,
209346,8,123.092815,41.660506,彰驿社区,,210106,024,210106030001,111,,,,,,,,,2,100,1005,1237,2459,15806,209346,,
209347,8,123.091796,41.660552,彰驿站村委会,,210106,024,210106030200,111,,,,,,,,,2,100,1005,1237,2459,15806,209347,,
209348,8,123.093168,41.626751,朴坨子村委会,,210106,024,210106030201,220,,,,,,,,,2,100,1005,1237,2459,15806,209348,,
209349,8,123.106524,41.63942,双树坨子村委会,,210106,024,210106030202,220,,,,,,,,,2,100,1005,1237,2459,15806,209349,,
209350,8,123.109944,41.653363,前庙三台村委会,,210106,024,210106030203,220,,,,,,,,,2,100,1005,1237,2459,15806,209350,,
209351,8,123.091797,41.660551,中庙三台村委会,,210106,024,210106030204,220,,,,,,,,,2,100,1005,1237,2459,15806,209351,,
209352,8,123.091797,41.660551,蔡家台村委会,,210106,024,210106030205,220,,,,,,,,,2,100,1005,1237,2459,15806,209352,,
209353,8,123.085754,41.688275,高花社区,,210106,024,210106031001,111,,,,,,,,,2,100,1005,1237,2459,15807,209353,,
209354,8,123.085888,41.689001,大高花村委会,,210106,024,210106031200,111,,,,,,,,,2,100,1005,1237,2459,15807,209354,,
209355,8,123.093465,41.688994,小高花村委会,,210106,024,210106031201,112,,,,,,,,,2,100,1005,1237,2459,15807,209355,,
209356,8,123.085888,41.689001,青台村委会,,210106,024,210106031202,220,,,,,,,,,2,100,1005,1237,2459,15807,209356,,
209357,8,123.085888,41.689001,南荒村委会,,210106,024,210106031203,220,,,,,,,,,2,100,1005,1237,2459,15807,209357,,
209358,8,123.085888,41.689001,沙河村委会,,210106,024,210106031204,220,,,,,,,,,2,100,1005,1237,2459,15807,209358,,
209359,8,123.082014,41.713302,东狼村委会,,210106,024,210106031205,220,,,,,,,,,2,100,1005,1237,2459,15807,209359,,
209360,8,123.085888,41.689001,西狼村委会,,210106,024,210106031206,220,,,,,,,,,2,100,1005,1237,2459,15807,209360,,
209361,8,123.085888,41.689001,车家村委会,,210106,024,210106031207,220,,,,,,,,,2,100,1005,1237,2459,15807,209361,,
209362,8,123.085888,41.689001,夏家村委会,,210106,024,210106031208,220,,,,,,,,,2,100,1005,1237,2459,15807,209362,,
209363,8,123.085888,41.689001,张福安村委会,,210106,024,210106031209,220,,,,,,,,,2,100,1005,1237,2459,15807,209363,,
209364,8,123.252653,41.741766,沈阳市经济技术开发区虚拟社区,,210106,024,210106401498,111,,,,,,,,,2,100,1005,1237,2459,15808,209364,,
209365,8,123.341921,41.663441,广场社区,,210111,024,210111001002,111,,,,,,,,,2,100,1005,1237,2460,15809,209365,,
209366,8,123.342991,41.668401,公园西社区,,210111,024,210111001004,111,,,,,,,,,2,100,1005,1237,2460,15809,209366,,
209367,8,123.346594,41.673746,人民路社区,,210111,024,210111001006,111,,,,,,,,,2,100,1005,1237,2460,15809,209367,,
209368,8,123.346464,41.679754,冬青社区,,210111,024,210111001007,111,,,,,,,,,2,100,1005,1237,2460,15809,209368,,
209369,8,123.351137,41.664633,站前社区,,210111,024,210111001008,111,,,,,,,,,2,100,1005,1237,2460,15809,209369,,
209370,8,123.34623,41.667063,苏白路社区,,210111,024,210111001009,111,,,,,,,,,2,100,1005,1237,2460,15809,209370,,
209371,8,123.362462,41.686251,苏北社区,,210111,024,210111001010,111,,,,,,,,,2,100,1005,1237,2460,15809,209371,,
209372,8,123.347025,41.686313,浑农社区,,210111,024,210111001011,112,,,,,,,,,2,100,1005,1237,2460,15809,209372,,
209373,8,123.35685,41.682639,高楼子村委会,,210111,024,210111001200,112,,,,,,,,,2,100,1005,1237,2460,15809,209373,,
209374,8,123.347756,41.660097,人字路社区,,210111,024,210111003001,111,,,,,,,,,2,100,1005,1237,2460,15810,209374,,
209375,8,123.352906,41.659571,老街社区,,210111,024,210111003004,111,,,,,,,,,2,100,1005,1237,2460,15810,209375,,
209376,8,123.349447,41.65232,南舍宅社区,,210111,024,210111003006,111,,,,,,,,,2,100,1005,1237,2460,15810,209376,,
209377,8,123.345753,41.658692,临湖社区,,210111,024,210111003008,111,,,,,,,,,2,100,1005,1237,2460,15810,209377,,
209378,8,123.34732,41.656225,地号社区,,210111,024,210111003010,111,,,,,,,,,2,100,1005,1237,2460,15810,209378,,
209379,8,123.354395,41.648513,富城社区,,210111,024,210111003011,111,,,,,,,,,2,100,1005,1237,2460,15810,209379,,
209380,8,123.337342,41.648373,工人村社区,,210111,024,210111003012,111,,,,,,,,,2,100,1005,1237,2460,15810,209380,,
209381,8,123.332016,41.673263,振兴东社区,,210111,024,210111003013,111,,,,,,,,,2,100,1005,1237,2460,15810,209381,,
209382,8,123.322212,41.656509,振兴西社区,,210111,024,210111003014,111,,,,,,,,,2,100,1005,1237,2460,15810,209382,,
209383,8,123.333551,41.653531,河畔社区,,210111,024,210111003015,111,,,,,,,,,2,100,1005,1237,2460,15810,209383,,
209384,8,123.324014,41.645236,碧桂园社区,,210111,024,210111003016,111,,,,,,,,,2,100,1005,1237,2460,15810,209384,,
209385,8,123.338374,41.657894,小格镇社区,,210111,024,210111003017,111,,,,,,,,,2,100,1005,1237,2460,15810,209385,,
209386,8,123.333692,41.649845,南营子社区,,210111,024,210111003018,111,,,,,,,,,2,100,1005,1237,2460,15810,209386,,
209387,8,123.327549,41.655229,红星村委会,,210111,024,210111003200,112,,,,,,,,,2,100,1005,1237,2460,15810,209387,,
209388,8,123.346015,41.647745,联盟村委会,,210111,024,210111003201,220,,,,,,,,,2,100,1005,1237,2460,15810,209388,,
209389,8,123.335355,41.651472,星光村委会,,210111,024,210111003202,112,,,,,,,,,2,100,1005,1237,2460,15810,209389,,
209390,8,123.313317,41.656451,富民社区,,210111,024,210111004007,111,,,,,,,,,2,100,1005,1237,2460,15811,209390,,
209391,8,123.296834,41.675178,孔雀城幸福社区,,210111,024,210111004012,111,,,,,,,,,2,100,1005,1237,2460,15811,209391,,
209392,8,123.336477,41.659644,前谟家堡村委会,,210111,024,210111004204,220,,,,,,,,,2,100,1005,1237,2460,15811,209392,,
209393,8,123.336477,41.659644,东谟家堡村委会,,210111,024,210111004205,220,,,,,,,,,2,100,1005,1237,2460,15811,209393,,
209394,8,123.309434,41.655343,大淑堡村委会,,210111,024,210111004207,111,,,,,,,,,2,100,1005,1237,2460,15811,209394,,
209395,8,123.336477,41.659644,王秀庄村委会,,210111,024,210111004208,220,,,,,,,,,2,100,1005,1237,2460,15811,209395,,
209396,8,123.336477,41.659644,代古家子村委会,,210111,024,210111004209,220,,,,,,,,,2,100,1005,1237,2460,15811,209396,,
209397,8,123.29561,41.660681,新兴屯村委会,,210111,024,210111004210,112,,,,,,,,,2,100,1005,1237,2460,15811,209397,,
209398,8,123.247776,41.678778,西苏堡村委会,,210111,024,210111004211,220,,,,,,,,,2,100,1005,1237,2460,15811,209398,,
209399,8,123.284509,41.68628,胡家甸村委会,,210111,024,210111004212,220,,,,,,,,,2,100,1005,1237,2460,15811,209399,,
209400,8,123.317415,41.676284,北营子村委会,,210111,024,210111004213,112,,,,,,,,,2,100,1005,1237,2460,15811,209400,,
209401,8,123.392888,41.690142,莱茵南郡社区,,210111,024,210111005001,111,,,,,,,,,2,100,1005,1237,2460,15812,209401,,
209402,8,123.375869,41.683005,育红社区,,210111,024,210111005002,111,,,,,,,,,2,100,1005,1237,2460,15812,209402,,
209403,8,123.376776,41.686626,中兴社区,,210111,024,210111005003,111,,,,,,,,,2,100,1005,1237,2460,15812,209403,,
209404,8,123.368674,41.675745,官房社区,,210111,024,210111005006,111,,,,,,,,,2,100,1005,1237,2460,15812,209404,,
209405,8,123.37128,41.680135,铜兴社区,,210111,024,210111005007,111,,,,,,,,,2,100,1005,1237,2460,15812,209405,,
209406,8,123.374058,41.664497,十里锦城社区,,210111,024,210111005008,111,,,,,,,,,2,100,1005,1237,2460,15812,209406,,
209407,8,123.385124,41.68122,施官社区,,210111,024,210111005009,111,,,,,,,,,2,100,1005,1237,2460,15812,209407,,
209408,8,123.37025,41.680646,七家社区,,210111,024,210111005010,111,,,,,,,,,2,100,1005,1237,2460,15812,209408,,
209409,8,123.360777,41.662596,苏家社区,,210111,024,210111005011,111,,,,,,,,,2,100,1005,1237,2460,15812,209409,,
209410,8,123.394084,41.678015,华府丹郡社区,,210111,024,210111005012,111,,,,,,,,,2,100,1005,1237,2460,15812,209410,,
209411,8,123.378185,41.685568,恒大名都社区,,210111,024,210111005013,111,,,,,,,,,2,100,1005,1237,2460,15812,209411,,
209412,8,123.383269,41.677645,奥园新城社区,,210111,024,210111005014,111,,,,,,,,,2,100,1005,1237,2460,15812,209412,,
209413,8,123.326327,41.66185,林校社区,,210111,024,210111006001,111,,,,,,,,,2,100,1005,1237,2460,15813,209413,,
209414,8,123.332904,41.660484,育林社区,,210111,024,210111006003,111,,,,,,,,,2,100,1005,1237,2460,15813,209414,,
209415,8,123.330069,41.664973,大格社区,,210111,024,210111006006,111,,,,,,,,,2,100,1005,1237,2460,15813,209415,,
209416,8,123.335725,41.67265,金山社区,,210111,024,210111006011,111,,,,,,,,,2,100,1005,1237,2460,15813,209416,,
209417,8,123.334821,41.669503,电业社区,,210111,024,210111006013,111,,,,,,,,,2,100,1005,1237,2460,15813,209417,,
209418,8,123.330261,41.679173,金宝花园社区,,210111,024,210111006014,111,,,,,,,,,2,100,1005,1237,2460,15813,209418,,
209419,8,123.327484,41.669113,葵花社区,,210111,024,210111006015,111,,,,,,,,,2,100,1005,1237,2460,15813,209419,,
209420,8,123.340537,41.680209,浑南社区,,210111,024,210111006016,111,,,,,,,,,2,100,1005,1237,2460,15813,209420,,
209421,8,123.325341,41.686279,金电社区,,210111,024,210111006017,111,,,,,,,,,2,100,1005,1237,2460,15813,209421,,
209422,8,123.329045,41.6878,金宝台村委会,,210111,024,210111006200,112,,,,,,,,,2,100,1005,1237,2460,15813,209422,,
209423,8,123.30453,41.614429,八一社区,,210111,024,210111007001,111,,,,,,,,,2,100,1005,1237,2460,15814,209423,,
209424,8,123.300041,41.615782,官立堡村委会,,210111,024,210111007200,111,,,,,,,,,2,100,1005,1237,2460,15814,209424,,
209425,8,123.303411,41.615522,来胜堡村委会,,210111,024,210111007201,220,,,,,,,,,2,100,1005,1237,2460,15814,209425,,
209426,8,123.24601,41.637017,佟罗堡村委会,,210111,024,210111007202,220,,,,,,,,,2,100,1005,1237,2460,15814,209426,,
209427,8,123.303411,41.615522,仁而堡村委会,,210111,024,210111007203,220,,,,,,,,,2,100,1005,1237,2460,15814,209427,,
209428,8,123.24133,41.618235,八家子村委会,,210111,024,210111007204,220,,,,,,,,,2,100,1005,1237,2460,15814,209428,,
209429,8,123.303411,41.615522,邵林子村委会,,210111,024,210111007205,220,,,,,,,,,2,100,1005,1237,2460,15814,209429,,
209430,8,123.251679,41.582265,三家子村委会,,210111,024,210111007206,220,,,,,,,,,2,100,1005,1237,2460,15814,209430,,
209431,8,123.303411,41.615522,武镇营村委会,,210111,024,210111007207,220,,,,,,,,,2,100,1005,1237,2460,15814,209431,,
209432,8,123.303411,41.615522,双台子村委会,,210111,024,210111007208,220,,,,,,,,,2,100,1005,1237,2460,15814,209432,,
209433,8,123.299167,41.552949,铁北社区,,210111,024,210111008004,111,,,,,,,,,2,100,1005,1237,2460,15815,209433,,
209434,8,123.28947,41.549081,三矿社区,,210111,024,210111008006,123,,,,,,,,,2,100,1005,1237,2460,15815,209434,,
209435,8,123.295275,41.549337,道南社区,,210111,024,210111008007,111,,,,,,,,,2,100,1005,1237,2460,15815,209435,,
209436,8,123.31639,41.548859,南红菱堡村委会,,210111,024,210111008200,220,,,,,,,,,2,100,1005,1237,2460,15815,209436,,
209437,8,123.300635,41.553902,北红菱堡村委会,,210111,024,210111008201,111,,,,,,,,,2,100,1005,1237,2460,15815,209437,,
209438,8,123.300635,41.553902,烟台村委会,,210111,024,210111008202,220,,,,,,,,,2,100,1005,1237,2460,15815,209438,,
209439,8,123.300635,41.553902,宋大台村委会,,210111,024,210111008203,220,,,,,,,,,2,100,1005,1237,2460,15815,209439,,
209440,8,123.300635,41.553902,黑林台村委会,,210111,024,210111008204,220,,,,,,,,,2,100,1005,1237,2460,15815,209440,,
209441,8,123.300635,41.553902,宛庄子村委会,,210111,024,210111008205,220,,,,,,,,,2,100,1005,1237,2460,15815,209441,,
209442,8,123.313039,41.57926,张良堡村委会,,210111,024,210111008206,220,,,,,,,,,2,100,1005,1237,2460,15815,209442,,
209443,8,123.388455,41.582764,矿工社区,,210111,024,210111009004,123,,,,,,,,,2,100,1005,1237,2460,15816,209443,,
209444,8,123.361967,41.57718,林盛社区,,210111,024,210111009005,111,,,,,,,,,2,100,1005,1237,2460,15816,209444,,
209445,8,123.3534,41.60083,文城堡村委会,,210111,024,210111009200,112,,,,,,,,,2,100,1005,1237,2460,15816,209445,,
209446,8,123.3534,41.60083,四方台村委会,,210111,024,210111009201,220,,,,,,,,,2,100,1005,1237,2460,15816,209446,,
209447,8,123.35362,41.59986,林盛堡村委会,,210111,024,210111009202,111,,,,,,,,,2,100,1005,1237,2460,15816,209447,,
209448,8,123.324178,41.600595,达连屯村委会,,210111,024,210111009203,220,,,,,,,,,2,100,1005,1237,2460,15816,209448,,
209449,8,123.326597,41.582457,史三家子村委会,,210111,024,210111009204,220,,,,,,,,,2,100,1005,1237,2460,15816,209449,,
209450,8,123.3534,41.60083,吉祥屯村委会,,210111,024,210111009205,220,,,,,,,,,2,100,1005,1237,2460,15816,209450,,
209451,8,123.3534,41.60083,褚贵堡村委会,,210111,024,210111009206,220,,,,,,,,,2,100,1005,1237,2460,15816,209451,,
209452,8,123.3534,41.60083,沙河站村委会,,210111,024,210111009207,112,,,,,,,,,2,100,1005,1237,2460,15816,209452,,
209453,8,123.3534,41.60083,长兴甸村委会,,210111,024,210111009208,220,,,,,,,,,2,100,1005,1237,2460,15816,209453,,
209454,8,123.3534,41.60083,南乱木屯村委会,,210111,024,210111009209,112,,,,,,,,,2,100,1005,1237,2460,15816,209454,,
209455,8,123.3534,41.60083,北乱木屯村委会,,210111,024,210111009210,112,,,,,,,,,2,100,1005,1237,2460,15816,209455,,
209456,8,123.3534,41.60083,大古家子村委会,,210111,024,210111009211,220,,,,,,,,,2,100,1005,1237,2460,15816,209456,,
209457,8,123.406484,41.594116,沙河社区,,210111,024,210111010001,111,,,,,,,,,2,100,1005,1237,2460,15817,209457,,
209458,8,123.405195,41.585635,新立村委会,,210111,024,210111010200,220,,,,,,,,,2,100,1005,1237,2460,15817,209458,,
209459,8,123.39625,41.615148,官屯村委会,,210111,024,210111010201,220,,,,,,,,,2,100,1005,1237,2460,15817,209459,,
209460,8,123.405195,41.585635,韩城堡村委会,,210111,024,210111010202,220,,,,,,,,,2,100,1005,1237,2460,15817,209460,,
209461,8,123.405195,41.585635,鲍家洼子村委会,,210111,024,210111010203,220,,,,,,,,,2,100,1005,1237,2460,15817,209461,,
209462,8,123.186366,41.686067,河北村委会,,210106,024,210111010204,112,,,,,,,,,2,100,1005,1237,2460,15817,209462,,
209463,8,123.405195,41.585635,吴家屯村委会,,210111,024,210111010205,220,,,,,,,,,2,100,1005,1237,2460,15817,209463,,
209464,8,123.412854,41.565264,东大房身村委会,,210111,024,210111010206,220,,,,,,,,,2,100,1005,1237,2460,15817,209464,,
209465,8,123.405195,41.585635,沙河铺村委会,,210111,024,210111010207,111,,,,,,,,,2,100,1005,1237,2460,15817,209465,,
209466,8,123.405195,41.585635,长岭子村委会,,210111,024,210111010208,220,,,,,,,,,2,100,1005,1237,2460,15817,209466,,
209467,8,123.405195,41.585635,三道岗子村委会,,210111,024,210111010209,220,,,,,,,,,2,100,1005,1237,2460,15817,209467,,
209468,8,123.37026,41.514453,十里河社区,,210111,024,210111011001,111,,,,,,,,,2,100,1005,1237,2460,15818,209468,,
209469,8,123.374443,41.51545,十里河村委会,,210111,024,210111011200,111,,,,,,,,,2,100,1005,1237,2460,15818,209469,,
209470,8,123.381324,41.51591,三洪庄村委会,,210111,024,210111011201,220,,,,,,,,,2,100,1005,1237,2460,15818,209470,,
209471,8,123.379031,41.53195,板桥堡村委会,,210111,024,210111011202,220,,,,,,,,,2,100,1005,1237,2460,15818,209471,,
209472,8,123.374443,41.51545,灰菜泡村委会,,210111,024,210111011203,220,,,,,,,,,2,100,1005,1237,2460,15818,209472,,
209473,8,123.374443,41.51545,新庄村委会,,210111,024,210111011204,220,,,,,,,,,2,100,1005,1237,2460,15818,209473,,
209474,8,123.374443,41.51545,江浒屯村委会,,210111,024,210111011205,220,,,,,,,,,2,100,1005,1237,2460,15818,209474,,
209475,8,123.374443,41.51545,柳塘沟村委会,,210111,024,210111011206,220,,,,,,,,,2,100,1005,1237,2460,15818,209475,,
209476,8,123.374443,41.51545,浪子街村委会,,210111,024,210111011207,220,,,,,,,,,2,100,1005,1237,2460,15818,209476,,
209477,8,123.347516,41.522377,五里街村委会,,210111,024,210111011208,220,,,,,,,,,2,100,1005,1237,2460,15818,209477,,
209478,8,123.562933,41.573208,铁东社区,,210111,024,210111012003,111,,,,,,,,,2,100,1005,1237,2460,15819,209478,,
209479,8,123.504308,41.57482,铁西社区,,210111,024,210111012004,111,,,,,,,,,2,100,1005,1237,2460,15819,209479,,
209480,8,123.513854,41.56804,塔山社区,,210111,024,210111012005,111,,,,,,,,,2,100,1005,1237,2460,15819,209480,,
209481,8,123.517171,41.572866,大陈相屯村委会,,210111,024,210111012200,111,,,,,,,,,2,100,1005,1237,2460,15819,209481,,
209482,8,123.526413,41.565109,小陈相屯村委会,,210111,024,210111012201,112,,,,,,,,,2,100,1005,1237,2460,15819,209482,,
209483,8,123.513854,41.56804,朱庄子村委会,,210111,024,210111012202,220,,,,,,,,,2,100,1005,1237,2460,15819,209483,,
209484,8,123.513854,41.56804,桃木村委会,,210111,024,210111012203,220,,,,,,,,,2,100,1005,1237,2460,15819,209484,,
209485,8,123.513854,41.56804,柳匠屯村委会,,210111,024,210111012204,220,,,,,,,,,2,100,1005,1237,2460,15819,209485,,
209486,8,123.513854,41.56804,胡老屯村委会,,210111,024,210111012205,220,,,,,,,,,2,100,1005,1237,2460,15819,209486,,
209487,8,123.513854,41.56804,丰收村委会,,210111,024,210111012206,220,,,,,,,,,2,100,1005,1237,2460,15819,209487,,
209488,8,123.513854,41.56804,蛇山村委会,,210111,024,210111012207,220,,,,,,,,,2,100,1005,1237,2460,15819,209488,,
209489,8,123.513854,41.56804,东英守屯村委会,,210111,024,210111012208,220,,,,,,,,,2,100,1005,1237,2460,15819,209489,,
209490,8,123.513854,41.56804,黑牛屯村委会,,210111,024,210111012209,220,,,,,,,,,2,100,1005,1237,2460,15819,209490,,
209491,8,123.514444,41.554981,河山村委会,,210111,024,210111012210,220,,,,,,,,,2,100,1005,1237,2460,15819,209491,,
209492,8,123.513854,41.56804,英守村委会,,210111,024,210111012211,220,,,,,,,,,2,100,1005,1237,2460,15819,209492,,
209493,8,123.617424,41.527323,姚千社区,,210111,024,210111013003,111,,,,,,,,,2,100,1005,1237,2460,15820,209493,,
209494,8,123.581777,41.532489,姚千户屯村委会,,210111,024,210111013200,111,,,,,,,,,2,100,1005,1237,2460,15820,209494,,
209495,8,123.621461,41.558156,上瓦房村委会,,210111,024,210111013201,220,,,,,,,,,2,100,1005,1237,2460,15820,209495,,
209496,8,123.624545,41.572116,刘千户屯村委会,,210111,024,210111013202,220,,,,,,,,,2,100,1005,1237,2460,15820,209496,,
209497,8,123.581777,41.532489,刘太平村委会,,210111,024,210111013203,220,,,,,,,,,2,100,1005,1237,2460,15820,209497,,
209498,8,123.581072,41.540162,佟家村委会,,210111,024,210111013204,220,,,,,,,,,2,100,1005,1237,2460,15820,209498,,
209499,8,123.581777,41.532489,田水村委会,,210111,024,210111013205,220,,,,,,,,,2,100,1005,1237,2460,15820,209499,,
209500,8,123.581777,41.532489,代官屯村委会,,210111,024,210111013206,220,,,,,,,,,2,100,1005,1237,2460,15820,209500,,
209501,8,123.589454,41.523961,马耳山村委会,,210111,024,210111013207,220,,,,,,,,,2,100,1005,1237,2460,15820,209501,,
209502,8,123.581777,41.532489,唐家台村委会,,210111,024,210111013208,220,,,,,,,,,2,100,1005,1237,2460,15820,209502,,
209503,8,123.59614,41.575017,小堡屯村委会,,210111,024,210111013209,220,,,,,,,,,2,100,1005,1237,2460,15820,209503,,
209504,8,123.581777,41.532489,杨千后房村委会,,210111,024,210111013210,220,,,,,,,,,2,100,1005,1237,2460,15820,209504,,
209505,8,123.658051,41.597339,陡子峪村委会,,210111,024,210111013211,220,,,,,,,,,2,100,1005,1237,2460,15820,209505,,
209506,8,123.158739,41.630628,大庄科村委会,,210111,024,210111014200,220,,,,,,,,,2,100,1005,1237,2460,15821,209506,,
209507,8,123.222139,41.669381,杨孟达村委会,,210111,024,210111014201,220,,,,,,,,,2,100,1005,1237,2460,15821,209507,,
209508,8,123.158739,41.630628,张当堡村委会,,210111,024,210111014202,220,,,,,,,,,2,100,1005,1237,2460,15821,209508,,
209509,8,123.158739,41.630628,拉他泡村委会,,210111,024,210111014203,220,,,,,,,,,2,100,1005,1237,2460,15821,209509,,
209510,8,123.181519,41.637934,新开河村委会,,210111,024,210111014204,220,,,,,,,,,2,100,1005,1237,2460,15821,209510,,
209511,8,123.156277,41.628693,王纲堡村委会,,210111,024,210111014205,111,,,,,,,,,2,100,1005,1237,2460,15821,209511,,
209512,8,123.14193,41.622889,马头浪村委会,,210111,024,210111014206,112,,,,,,,,,2,100,1005,1237,2460,15821,209512,,
209513,8,123.14212,41.587721,新台子村委会,,210111,024,210111015200,112,,,,,,,,,2,100,1005,1237,2460,15822,209513,,
209514,8,123.14212,41.587721,大韩台村委会,,210111,024,210111015201,111,,,,,,,,,2,100,1005,1237,2460,15822,209514,,
209515,8,123.14212,41.587721,小韩台村委会,,210111,024,210111015202,220,,,,,,,,,2,100,1005,1237,2460,15822,209515,,
209516,8,123.14212,41.587721,互助村委会,,210111,024,210111015203,220,,,,,,,,,2,100,1005,1237,2460,15822,209516,,
209517,8,123.14212,41.587721,宝相屯村委会,,210111,024,210111015204,220,,,,,,,,,2,100,1005,1237,2460,15822,209517,,
209518,8,123.14212,41.587721,永乐村委会,,210111,024,210111015205,220,,,,,,,,,2,100,1005,1237,2460,15822,209518,,
209519,8,123.188015,41.5832,杨树林子村委会,,210111,024,210111015206,220,,,,,,,,,2,100,1005,1237,2460,15822,209519,,
209520,8,123.14212,41.587721,孟达堡村委会,,210111,024,210111015207,220,,,,,,,,,2,100,1005,1237,2460,15822,209520,,
209521,8,123.219922,41.586057,永胜村委会,,210111,024,210111015208,220,,,,,,,,,2,100,1005,1237,2460,15822,209521,,
209522,8,123.412811,41.501436,大范屯村委会,,210111,024,210111016200,220,,,,,,,,,2,100,1005,1237,2460,15823,209522,,
209523,8,123.440106,41.491533,大沟村委会,,210111,024,210111016201,111,,,,,,,,,2,100,1005,1237,2460,15823,209523,,
209524,8,123.460068,41.488923,蔡家屯村委会,,210111,024,210111016202,220,,,,,,,,,2,100,1005,1237,2460,15823,209524,,
209525,8,123.48729,41.486882,杨城寨村委会,,210111,024,210111016203,220,,,,,,,,,2,100,1005,1237,2460,15823,209525,,
209526,8,123.509693,41.495237,哈蚂塘村委会,,210111,024,210111016204,220,,,,,,,,,2,100,1005,1237,2460,15823,209526,,
209527,8,123.476559,41.506423,莽公屯村委会,,210111,024,210111016205,220,,,,,,,,,2,100,1005,1237,2460,15823,209527,,
209528,8,123.468875,41.536384,团山寺村委会,,210111,024,210111016206,220,,,,,,,,,2,100,1005,1237,2460,15823,209528,,
209529,8,123.450935,41.531574,胡古家子村委会,,210111,024,210111016207,220,,,,,,,,,2,100,1005,1237,2460,15823,209529,,
209530,8,123.437004,41.512217,沈双台子村委会,,210111,024,210111016208,220,,,,,,,,,2,100,1005,1237,2460,15823,209530,,
209531,8,123.74745,41.587334,和顺堡村委会,,210111,024,210111017200,220,,,,,,,,,2,100,1005,1237,2460,15824,209531,,
209532,8,123.718555,41.586447,邓家沟村委会,,210111,024,210111017201,220,,,,,,,,,2,100,1005,1237,2460,15824,209532,,
209533,8,123.702975,41.607222,太平山村委会,,210111,024,210111017202,220,,,,,,,,,2,100,1005,1237,2460,15824,209533,,
209534,8,123.690422,41.57724,白清寨村委会,,210111,024,210111017203,111,,,,,,,,,2,100,1005,1237,2460,15824,209534,,
209535,8,123.680856,41.560404,康宁营村委会,,210111,024,210111017204,220,,,,,,,,,2,100,1005,1237,2460,15824,209535,,
209536,8,123.657063,41.548255,台沟村委会,,210111,024,210111017205,220,,,,,,,,,2,100,1005,1237,2460,15824,209536,,
209537,8,123.697196,41.538558,康家山村委会,,210111,024,210111017206,220,,,,,,,,,2,100,1005,1237,2460,15824,209537,,
209538,8,123.719507,41.54637,营盘村委会,,210111,024,210111017207,220,,,,,,,,,2,100,1005,1237,2460,15824,209538,,
209539,8,123.548555,41.606024,胜利村委会,,210111,024,210111018200,111,,,,,,,,,2,100,1005,1237,2460,15825,209539,,
209540,8,123.561939,41.615683,佟沟村委会,,210111,024,210111018201,220,,,,,,,,,2,100,1005,1237,2460,15825,209540,,
209541,8,123.548555,41.606024,苏沟村委会,,210111,024,210111018202,220,,,,,,,,,2,100,1005,1237,2460,15825,209541,,
209542,8,123.548555,41.606024,刘后地村委会,,210111,024,210111018203,220,,,,,,,,,2,100,1005,1237,2460,15825,209542,,
209543,8,123.534331,41.774348,文欣社区,,210112,024,210112009001,111,,,,,,,,,2,100,1005,1237,2461,15826,209543,,
209544,8,123.576009,41.747322,温馨港湾社区,,210112,024,210112009002,111,,,,,,,,,2,100,1005,1237,2461,15826,209544,,
209545,8,123.576009,41.747322,恒大江湾社区,,210112,024,210112009003,111,,,,,,,,,2,100,1005,1237,2461,15826,209545,,
209546,8,123.576009,41.747322,紫提东郡社区,,210112,024,210112009004,111,,,,,,,,,2,100,1005,1237,2461,15826,209546,,
209547,8,123.576009,41.747322,石庙子村委会,,210112,024,210112009200,220,,,,,,,,,2,100,1005,1237,2461,15826,209547,,
209548,8,123.576009,41.747322,刘付屯村委会,,210112,024,210112009201,220,,,,,,,,,2,100,1005,1237,2461,15826,209548,,
209549,8,123.576009,41.747322,东岗子村委会,,210112,024,210112009202,220,,,,,,,,,2,100,1005,1237,2461,15826,209549,,
209550,8,123.576009,41.747322,王家湾村委会,,210112,024,210112009203,220,,,,,,,,,2,100,1005,1237,2461,15826,209550,,
209551,8,123.576009,41.747322,李巴彦村委会,,210112,024,210112009204,220,,,,,,,,,2,100,1005,1237,2461,15826,209551,,
209552,8,123.576009,41.747322,养竹村委会,,210112,024,210112009205,220,,,,,,,,,2,100,1005,1237,2461,15826,209552,,
209553,8,123.576009,41.747322,万家屯村委会,,210112,024,210112009206,111,,,,,,,,,2,100,1005,1237,2461,15826,209553,,
209554,8,123.576009,41.747322,杨官屯村委会,,210112,024,210112009207,220,,,,,,,,,2,100,1005,1237,2461,15826,209554,,
209555,8,123.576009,41.747322,麦子屯村委会,,210112,024,210112009208,220,,,,,,,,,2,100,1005,1237,2461,15826,209555,,
209556,8,123.576009,41.747322,古城子村委会,,210112,024,210112009209,111,,,,,,,,,2,100,1005,1237,2461,15826,209556,,
209557,8,123.576009,41.747322,牛相屯村委会,,210112,024,210112009210,220,,,,,,,,,2,100,1005,1237,2461,15826,209557,,
209558,8,123.576009,41.747322,水家屯村委会,,210112,024,210112009211,111,,,,,,,,,2,100,1005,1237,2461,15826,209558,,
209559,8,123.576009,41.747322,罗官屯村委会,,210112,024,210112009212,220,,,,,,,,,2,100,1005,1237,2461,15826,209559,,
209560,8,123.489091,41.738588,孤家子社区,,210112,024,210112010012,111,,,,,,,,,2,100,1005,1237,2461,15827,209560,,
209561,8,123.476808,41.727268,文澜苑社区,,210112,024,210112010017,111,,,,,,,,,2,100,1005,1237,2461,15827,209561,,
209562,8,123.476144,41.746603,河畔新城社区,,210112,024,210112010019,111,,,,,,,,,2,100,1005,1237,2461,15827,209562,,
209563,8,123.50029,41.748539,在水一方社区,,210112,024,210112010020,111,,,,,,,,,2,100,1005,1237,2461,15827,209563,,
209564,8,123.487447,41.749075,富都丽景社区,,210112,024,210112010021,111,,,,,,,,,2,100,1005,1237,2461,15827,209564,,
209565,8,123.495066,41.733286,嘉华新城社区,,210112,024,210112010022,111,,,,,,,,,2,100,1005,1237,2461,15827,209565,,
209566,8,123.487434,41.74353,慧缘新村社区,,210112,024,210112010023,111,,,,,,,,,2,100,1005,1237,2461,15827,209566,,
209567,8,123.513289,41.742869,万科新里程社区,,210112,024,210112010024,111,,,,,,,,,2,100,1005,1237,2461,15827,209567,,
209568,8,123.498648,41.749258,塞纳家园社区,,210112,024,210112010025,111,,,,,,,,,2,100,1005,1237,2461,15827,209568,,
209569,8,123.468794,41.748066,金水花城社区,,210112,024,210112010026,111,,,,,,,,,2,100,1005,1237,2461,15827,209569,,
209570,8,123.48737,41.733599,优品天地社区,,210112,024,210112010031,111,,,,,,,,,2,100,1005,1237,2461,15827,209570,,
209571,8,123.45965,41.730992,沿海社区,,210112,024,210112010032,111,,,,,,,,,2,100,1005,1237,2461,15827,209571,,
209572,8,123.48737,41.733599,文华苑社区,,210112,024,210112010033,111,,,,,,,,,2,100,1005,1237,2461,15827,209572,,
209573,8,123.48737,41.733599,奉天九里社区,,210112,024,210112010035,111,,,,,,,,,2,100,1005,1237,2461,15827,209573,,
209574,8,123.48737,41.733599,正大社区,,210112,024,210112010036,111,,,,,,,,,2,100,1005,1237,2461,15827,209574,,
209575,8,123.484987,41.745508,金地社区,,210112,024,210112010037,111,,,,,,,,,2,100,1005,1237,2461,15827,209575,,
209576,8,123.48737,41.733599,奥体社区,,210112,024,210112010039,111,,,,,,,,,2,100,1005,1237,2461,15827,209576,,
209577,8,123.48737,41.733599,美好社区,,210112,024,210112010040,111,,,,,,,,,2,100,1005,1237,2461,15827,209577,,
209578,8,123.48737,41.733599,文溯社区,,210112,024,210112010041,111,,,,,,,,,2,100,1005,1237,2461,15827,209578,,
209579,8,123.4429,41.727749,榆工社区,,210112,024,210112012009,111,,,,,,,,,2,100,1005,1237,2461,15828,209579,,
209580,8,123.454865,41.712382,库榆社区,,210112,024,210112012010,111,,,,,,,,,2,100,1005,1237,2461,15828,209580,,
209581,8,123.428457,41.712026,万科新榆社区,,210112,024,210112012012,111,,,,,,,,,2,100,1005,1237,2461,15828,209581,,
209582,8,123.431146,41.721868,嘉榆社区,,210112,024,210112012013,111,,,,,,,,,2,100,1005,1237,2461,15828,209582,,
209583,8,123.42227,41.730489,格林英郡社区,,210112,024,210112012014,111,,,,,,,,,2,100,1005,1237,2461,15828,209583,,
209584,8,123.42227,41.730489,首创国际社区,,210112,024,210112012015,111,,,,,,,,,2,100,1005,1237,2461,15828,209584,,
209585,8,123.44387,41.726328,世纪新城社区,,210112,024,210112012016,111,,,,,,,,,2,100,1005,1237,2461,15828,209585,,
209586,8,123.45282,41.739268,浑河堡社区,,210112,024,210112012017,111,,,,,,,,,2,100,1005,1237,2461,15828,209586,,
209587,8,123.438244,41.716488,糖厂子社区,,210112,024,210112012018,111,,,,,,,,,2,100,1005,1237,2461,15828,209587,,
209588,8,123.450974,41.731518,彩霞社区,,210112,024,210112012019,111,,,,,,,,,2,100,1005,1237,2461,15828,209588,,
209589,8,123.447787,41.742617,浦江社区,,210112,024,210112012020,111,,,,,,,,,2,100,1005,1237,2461,15828,209589,,
209590,8,123.42227,41.730489,爱家丽都社区,,210112,024,210112012021,111,,,,,,,,,2,100,1005,1237,2461,15828,209590,,
209591,8,123.42227,41.730489,锦程社区,,210112,024,210112012022,111,,,,,,,,,2,100,1005,1237,2461,15828,209591,,
209592,8,123.408598,41.699957,王士村委会,,210102,024,210112012200,112,,,,,,,,,2,100,1005,1237,2461,15828,209592,,
209593,8,123.43576,41.729194,后榆树台村委会,,210112,024,210112012201,111,,,,,,,,,2,100,1005,1237,2461,15828,209593,,
209594,8,123.42227,41.730489,前榆树台村委会,,210112,024,210112012202,112,,,,,,,,,2,100,1005,1237,2461,15828,209594,,
209595,8,123.42227,41.730489,金家湾村委会,,210112,024,210112012203,112,,,,,,,,,2,100,1005,1237,2461,15828,209595,,
209596,8,123.42227,41.730489,金家湾朝鲜族村委会,,210112,024,210112012204,112,,,,,,,,,2,100,1005,1237,2461,15828,209596,,
209597,8,123.42227,41.730489,上河湾朝鲜族村委会,,210112,024,210112012205,122,,,,,,,,,2,100,1005,1237,2461,15828,209597,,
209598,8,123.685384,41.856691,高坎社区,,210112,024,210112014001,111,,,,,,,,,2,100,1005,1237,2461,15829,209598,,
209599,8,123.627866,41.8396,奥园社区,,210112,024,210112014002,111,,,,,,,,,2,100,1005,1237,2461,15829,209599,,
209600,8,123.687137,41.85631,中马社区,,210112,024,210112014004,123,,,,,,,,,2,100,1005,1237,2461,15829,209600,,
209601,8,123.687137,41.85631,高坎一社区,,210112,024,210112014005,112,,,,,,,,,2,100,1005,1237,2461,15829,209601,,
209602,8,123.687137,41.85631,兴隆社区,,210112,024,210112014006,112,,,,,,,,,2,100,1005,1237,2461,15829,209602,,
209603,8,123.713279,41.861068,仁镜社区,,210112,024,210112014007,112,,,,,,,,,2,100,1005,1237,2461,15829,209603,,
209604,8,123.687137,41.85631,小仁镜社区,,210112,024,210112014008,112,,,,,,,,,2,100,1005,1237,2461,15829,209604,,
209605,8,123.687137,41.85631,大夫社区,,210112,024,210112014009,123,,,,,,,,,2,100,1005,1237,2461,15829,209605,,
209606,8,123.687137,41.85631,上马社区,,210112,024,210112014010,123,,,,,,,,,2,100,1005,1237,2461,15829,209606,,
209607,8,123.678804,41.8584,旧站社区,,210112,024,210112014011,111,,,,,,,,,2,100,1005,1237,2461,15829,209607,,
209608,8,123.678596,41.858358,河西社区,,210112,024,210112014012,111,,,,,,,,,2,100,1005,1237,2461,15829,209608,,
209609,8,123.687137,41.85631,棉花社区,,210112,024,210112014013,220,,,,,,,,,2,100,1005,1237,2461,15829,209609,,
209610,8,123.687137,41.85631,葫芦社区,,210112,024,210112014014,220,,,,,,,,,2,100,1005,1237,2461,15829,209610,,
209611,8,123.687137,41.85631,腰沟社区,,210112,024,210112014015,220,,,,,,,,,2,100,1005,1237,2461,15829,209611,,
209612,8,123.687137,41.85631,下马社区,,210112,024,210112014016,220,,,,,,,,,2,100,1005,1237,2461,15829,209612,,
209613,8,123.687137,41.85631,三家子社区,,210112,024,210112014017,220,,,,,,,,,2,100,1005,1237,2461,15829,209613,,
209614,8,123.687137,41.85631,下洼子社区,,210112,024,210112014018,220,,,,,,,,,2,100,1005,1237,2461,15829,209614,,
209615,8,123.687137,41.85631,中和社区,,210112,024,210112014019,220,,,,,,,,,2,100,1005,1237,2461,15829,209615,,
209616,8,123.61746,41.866588,中水社区,,210112,024,210112015002,111,,,,,,,,,2,100,1005,1237,2461,15830,209616,,
209617,8,123.65015,41.883644,上水社区,,210112,024,210112015003,111,,,,,,,,,2,100,1005,1237,2461,15830,209617,,
209618,8,123.65015,41.883644,满堂社区,,210112,024,210112015004,111,,,,,,,,,2,100,1005,1237,2461,15830,209618,,
