{"GeographyCode": [
    {"level":"村","longitude":108.380367,"latitude":30.801545,"chinese_name":"东方广场社区居民委员会","code1":"500101","code2":"023","code3":"500101001001","code4":"111","continent":"亚洲","country":"中国","province":"重庆","city":"市辖区","county":"万州区","town":"高笋塘街道","village":"东方广场社区居民委员会"    },
    {"level":"村","longitude":108.3752,"latitude":30.799656,"chinese_name":"乌龙池社区居民委员会","code1":"500101","code2":"023","code3":"500101001002","code4":"111","continent":"亚洲","country":"中国","province":"重庆","city":"市辖区","county":"万州区","town":"高笋塘街道","village":"乌龙池社区居民委员会"    },
    {"level":"村","longitude":108.379923,"latitude":30.800755,"chinese_name":"王家坡社区居民委员会","code1":"500101","code2":"023","code3":"500101001003","code4":"111","continent":"亚洲","country":"中国","province":"重庆","city":"市辖区","county":"万州区","town":"高笋塘街道","village":"王家坡社区居民委员会"    },
    {"level":"村","longitude":108.378001,"latitude":30.80689,"chinese_name":"太白路社区居民委员会","code1":"500101","code2":"023","code3":"500101001004","code4":"111","continent":"亚洲","country":"中国","province":"重庆","city":"市辖区","county":"万州区","town":"高笋塘街道","village":"太白路社区居民委员会"    },
    {"level":"村","longitude":108.379923,"latitude":30.800755,"chinese_name":"甘家院社区居民委员会","code1":"500101","code2":"023","code3":"500101001005","code4":"111","continent":"亚洲","country":"中国","province":"重庆","city":"市辖区","county":"万州区","town":"高笋塘街道","village":"甘家院社区居民委员会"    },
    {"level":"村","longitude":108.379923,"latitude":30.800755,"chinese_name":"苗圃社区居民委员会","code1":"500101","code2":"023","code3":"500101001006","code4":"111","continent":"亚洲","country":"中国","province":"重庆","city":"市辖区","county":"万州区","town":"高笋塘街道","village":"苗圃社区居民委员会"    },
    {"level":"村","longitude":108.379923,"latitude":30.800755,"chinese_name":"望江路社区居民委员会","code1":"500101","code2":"023","code3":"500101001007","code4":"111","continent":"亚洲","country":"中国","province":"重庆","city":"市辖区","county":"万州区","town":"高笋塘街道","village":"望江路社区居民委员会"    },
    {"level":"村","longitude":108.377817,"latitude":30.81149,"chinese_name":"高笋塘社区居民委员会","code1":"500101","code2":"023","code3":"500101001008","code4":"111","continent":"亚洲","country":"中国","province":"重庆","city":"市辖区","county":"万州区","town":"高笋塘街道","village":"高笋塘社区居民委员会"    },
    {"level":"村","longitude":108.379923,"latitude":30.800755,"chinese_name":"电报路社区居民委员会","code1":"500101","code2":"023","code3":"500101001009","code4":"111","continent":"亚洲","country":"中国","province":"重庆","city":"市辖区","county":"万州区","town":"高笋塘街道","village":"电报路社区居民委员会"    },
    {"level":"村","longitude":108.379923,"latitude":30.800755,"chinese_name":"西山路社区居民委员会","code1":"500101","code2":"023","code3":"500101001010","code4":"111","continent":"亚洲","country":"中国","province":"重庆","city":"市辖区","county":"万州区","town":"高笋塘街道","village":"西山路社区居民委员会"    },
    {"level":"村","longitude":108.356664,"latitude":30.817549,"chinese_name":"青羊宫社区居民委员会","code1":"500101","code2":"023","code3":"500101017001","code4":"111","continent":"亚洲","country":"中国","province":"重庆","city":"市辖区","county":"万州区","town":"太白街道","village":"青羊宫社区居民委员会"    },
    {"level":"村","longitude":108.356664,"latitude":30.817549,"chinese_name":"白岩路社区居民委员会","code1":"500101","code2":"023","code3":"500101017002","code4":"111","continent":"亚洲","country":"中国","province":"重庆","city":"市辖区","county":"万州区","town":"太白街道","village":"白岩路社区居民委员会"    },
    {"level":"村","longitude":108.356664,"latitude":30.817549,"chinese_name":"桂花堰塘社区居民委员会","code1":"500101","code2":"023","code3":"500101017003","code4":"111","continent":"亚洲","country":"中国","province":"重庆","city":"市辖区","county":"万州区","town":"太白街道","village":"桂花堰塘社区居民委员会"    },
    {"level":"村","longitude":108.356664,"latitude":30.817549,"chinese_name":"桔园社区居民委员会","code1":"500101","code2":"023","code3":"500101017004","code4":"111","continent":"亚洲","country":"中国","province":"重庆","city":"市辖区","county":"万州区","town":"太白街道","village":"桔园社区居民委员会"    },
    {"level":"村","longitude":108.375726,"latitude":30.815409,"chinese_name":"孙家书房社区居民委员会","code1":"500101","code2":"023","code3":"500101017005","code4":"111","continent":"亚洲","country":"中国","province":"重庆","city":"市辖区","county":"万州区","town":"太白街道","village":"孙家书房社区居民委员会"    },
    {"level":"村","longitude":108.369705,"latitude":30.814731,"chinese_name":"文化里社区居民委员会","code1":"500101","code2":"023","code3":"500101017006","code4":"111","continent":"亚洲","country":"中国","province":"重庆","city":"市辖区","county":"万州区","town":"太白街道","village":"文化里社区居民委员会"    },
    {"level":"村","longitude":108.356664,"latitude":30.817549,"chinese_name":"国本路社区居民委员会","code1":"500101","code2":"023","code3":"500101017007","code4":"111","continent":"亚洲","country":"中国","province":"重庆","city":"市辖区","county":"万州区","town":"太白街道","village":"国本路社区居民委员会"    },
    {"level":"村","longitude":108.377624,"latitude":30.814973,"chinese_name":"复兴路社区居民委员会","code1":"500101","code2":"023","code3":"500101017008","code4":"111","continent":"亚洲","country":"中国","province":"重庆","city":"市辖区","county":"万州区","town":"太白街道","village":"复兴路社区居民委员会"    },
    {"level":"村","longitude":108.356664,"latitude":30.817549,"chinese_name":"和平路社区居民委员会","code1":"500101","code2":"023","code3":"500101017009","code4":"111","continent":"亚洲","country":"中国","province":"重庆","city":"市辖区","county":"万州区","town":"太白街道","village":"和平路社区居民委员会"    },
    {"level":"村","longitude":108.356664,"latitude":30.817549,"chinese_name":"红光社区居民委员会","code1":"500101","code2":"023","code3":"500101017010","code4":"111","continent":"亚洲","country":"中国","province":"重庆","city":"市辖区","county":"万州区","town":"太白街道","village":"红光社区居民委员会"    },
    {"level":"村","longitude":108.356664,"latitude":30.817549,"chinese_name":"南池沟社区居民委员会","code1":"500101","code2":"023","code3":"500101017011","code4":"111","continent":"亚洲","country":"中国","province":"重庆","city":"市辖区","county":"万州区","town":"太白街道","village":"南池沟社区居民委员会"    },
    {"level":"村","longitude":108.356664,"latitude":30.817549,"chinese_name":"吴家湾社区居民委员会","code1":"500101","code2":"023","code3":"500101017012","code4":"111","continent":"亚洲","country":"中国","province":"重庆","city":"市辖区","county":"万州区","town":"太白街道","village":"吴家湾社区居民委员会"    },
    {"level":"村","longitude":108.356664,"latitude":30.817549,"chinese_name":"太白村村民委员会","code1":"500101","code2":"023","code3":"500101017200","code4":"220","continent":"亚洲","country":"中国","province":"重庆","city":"市辖区","county":"万州区","town":"太白街道","village":"太白村村民委员会"    },
    {"level":"村","longitude":108.356664,"latitude":30.817549,"chinese_name":"永宁村村民委员会","code1":"500101","code2":"023","code3":"500101017201","code4":"220","continent":"亚洲","country":"中国","province":"重庆","city":"市辖区","county":"万州区","town":"太白街道","village":"永宁村村民委员会"    },
    {"level":"村","longitude":108.356664,"latitude":30.817549,"chinese_name":"红光村村民委员会","code1":"500101","code2":"023","code3":"500101017202","code4":"112","continent":"亚洲","country":"中国","province":"重庆","city":"市辖区","county":"万州区","town":"太白街道","village":"红光村村民委员会"    },
    {"level":"村","longitude":108.356664,"latitude":30.817549,"chinese_name":"万二村村民委员会","code1":"500101","code2":"023","code3":"500101017203","code4":"112","continent":"亚洲","country":"中国","province":"重庆","city":"市辖区","county":"万州区","town":"太白街道","village":"万二村村民委员会"    },
    {"level":"村","longitude":108.392782,"latitude":30.791047,"chinese_name":"牌楼社区居民委员会","code1":"500101","code2":"023","code3":"500101018001","code4":"111","continent":"亚洲","country":"中国","province":"重庆","city":"市辖区","county":"万州区","town":"牌楼街道","village":"牌楼社区居民委员会"    },
    {"level":"村","longitude":108.392121,"latitude":30.783296,"chinese_name":"袁家墩社区居民委员会","code1":"500101","code2":"023","code3":"500101018002","code4":"111","continent":"亚洲","country":"中国","province":"重庆","city":"市辖区","county":"万州区","town":"牌楼街道","village":"袁家墩社区居民委员会"    },
    {"level":"村","longitude":108.392121,"latitude":30.783296,"chinese_name":"搭马桥社区居民委员会","code1":"500101","code2":"023","code3":"500101018003","code4":"111","continent":"亚洲","country":"中国","province":"重庆","city":"市辖区","county":"万州区","town":"牌楼街道","village":"搭马桥社区居民委员会"    },
    {"level":"村","longitude":108.392121,"latitude":30.783296,"chinese_name":"太平社区居民委员会","code1":"500101","code2":"023","code3":"500101018004","code4":"111","continent":"亚洲","country":"中国","province":"重庆","city":"市辖区","county":"万州区","town":"牌楼街道","village":"太平社区居民委员会"    },
    {"level":"村","longitude":108.392121,"latitude":30.783296,"chinese_name":"观音岩社区居民委员会","code1":"500101","code2":"023","code3":"500101018005","code4":"111","continent":"亚洲","country":"中国","province":"重庆","city":"市辖区","county":"万州区","town":"牌楼街道","village":"观音岩社区居民委员会"    },
    {"level":"村","longitude":108.4037,"latitude":30.769274,"chinese_name":"印盒石社区居民委员会","code1":"500101","code2":"023","code3":"500101018006","code4":"111","continent":"亚洲","country":"中国","province":"重庆","city":"市辖区","county":"万州区","town":"牌楼街道","village":"印盒石社区居民委员会"    },
    {"level":"村","longitude":108.392121,"latitude":30.783296,"chinese_name":"万安社区居民委员会","code1":"500101","code2":"023","code3":"500101018007","code4":"111","continent":"亚洲","country":"中国","province":"重庆","city":"市辖区","county":"万州区","town":"牌楼街道","village":"万安社区居民委员会"    },
    {"level":"村","longitude":108.392121,"latitude":30.783296,"chinese_name":"大河沟社区居民委员会","code1":"500101","code2":"023","code3":"500101018008","code4":"111","continent":"亚洲","country":"中国","province":"重庆","city":"市辖区","county":"万州区","town":"牌楼街道","village":"大河沟社区居民委员会"    },
    {"level":"村","longitude":108.392121,"latitude":30.783296,"chinese_name":"石峰社区居民委员会","code1":"500101","code2":"023","code3":"500101018009","code4":"111","continent":"亚洲","country":"中国","province":"重庆","city":"市辖区","county":"万州区","town":"牌楼街道","village":"石峰社区居民委员会"    },
    {"level":"村","longitude":108.383434,"latitude":30.752862,"chinese_name":"螺蛳包社区居民委员会","code1":"500101","code2":"023","code3":"500101019001","code4":"111","continent":"亚洲","country":"中国","province":"重庆","city":"市辖区","county":"万州区","town":"双河口街道","village":"螺蛳包社区居民委员会"    },
    {"level":"村","longitude":108.3725,"latitude":30.756032,"chinese_name":"学堂湾社区居民委员会","code1":"500101","code2":"023","code3":"500101019002","code4":"111","continent":"亚洲","country":"中国","province":"重庆","city":"市辖区","county":"万州区","town":"双河口街道","village":"学堂湾社区居民委员会"    },
    {"level":"村","longitude":108.37474,"latitude":30.742549,"chinese_name":"槽房社区居民委员会","code1":"500101","code2":"023","code3":"500101019003","code4":"111","continent":"亚洲","country":"中国","province":"重庆","city":"市辖区","county":"万州区","town":"双河口街道","village":"槽房社区居民委员会"    },
    {"level":"村","longitude":108.3725,"latitude":30.756032,"chinese_name":"一碗水社区居民委员会","code1":"500101","code2":"023","code3":"500101019004","code4":"111","continent":"亚洲","country":"中国","province":"重庆","city":"市辖区","county":"万州区","town":"双河口街道","village":"一碗水社区居民委员会"    },
    {"level":"村","longitude":108.3725,"latitude":30.756032,"chinese_name":"石梁社区居民委员会","code1":"500101","code2":"023","code3":"500101019005","code4":"112","continent":"亚洲","country":"中国","province":"重庆","city":"市辖区","county":"万州区","town":"双河口街道","village":"石梁社区居民委员会"    },
    {"level":"村","longitude":108.3725,"latitude":30.756032,"chinese_name":"永清村村民委员会","code1":"500101","code2":"023","code3":"500101019200","code4":"220","continent":"亚洲","country":"中国","province":"重庆","city":"市辖区","county":"万州区","town":"双河口街道","village":"永清村村民委员会"    },
    {"level":"村","longitude":108.3725,"latitude":30.756032,"chinese_name":"石鼓村村民委员会","code1":"500101","code2":"023","code3":"500101019201","code4":"220","continent":"亚洲","country":"中国","province":"重庆","city":"市辖区","county":"万州区","town":"双河口街道","village":"石鼓村村民委员会"    },
    {"level":"村","longitude":108.3725,"latitude":30.756032,"chinese_name":"龙宝村村民委员会","code1":"500101","code2":"023","code3":"500101019202","code4":"112","continent":"亚洲","country":"中国","province":"重庆","city":"市辖区","county":"万州区","town":"双河口街道","village":"龙宝村村民委员会"    },
    {"level":"村","longitude":108.3725,"latitude":30.756032,"chinese_name":"大榜村村民委员会","code1":"500101","code2":"023","code3":"500101019203","code4":"112","continent":"亚洲","country":"中国","province":"重庆","city":"市辖区","county":"万州区","town":"双河口街道","village":"大榜村村民委员会"    },
    {"level":"村","longitude":108.3725,"latitude":30.756032,"chinese_name":"万利村村民委员会","code1":"500101","code2":"023","code3":"500101019204","code4":"220","continent":"亚洲","country":"中国","province":"重庆","city":"市辖区","county":"万州区","town":"双河口街道","village":"万利村村民委员会"    },
    {"level":"村","longitude":108.401587,"latitude":30.756445,"chinese_name":"大塘边社区居民委员会","code1":"500101","code2":"023","code3":"500101020001","code4":"111","continent":"亚洲","country":"中国","province":"重庆","city":"市辖区","county":"万州区","town":"龙都街道","village":"大塘边社区居民委员会"    },
    {"level":"村","longitude":108.411649,"latitude":30.763107,"chinese_name":"红溪沟社区居民委员会","code1":"500101","code2":"023","code3":"500101020002","code4":"111","continent":"亚洲","country":"中国","province":"重庆","city":"市辖区","county":"万州区","town":"龙都街道","village":"红溪沟社区居民委员会"    },
    {"level":"村","longitude":108.413687,"latitude":30.763061,"chinese_name":"岩上坝社区居民委员会","code1":"500101","code2":"023","code3":"500101020003","code4":"111","continent":"亚洲","country":"中国","province":"重庆","city":"市辖区","county":"万州区","town":"龙都街道","village":"岩上坝社区居民委员会"    },
    {"level":"村","longitude":108.411649,"latitude":30.763107,"chinese_name":"九龙园社区居民委员会","code1":"500101","code2":"023","code3":"500101020004","code4":"111","continent":"亚洲","country":"中国","province":"重庆","city":"市辖区","county":"万州区","town":"龙都街道","village":"九龙园社区居民委员会"    },
    {"level":"村","longitude":108.411649,"latitude":30.763107,"chinese_name":"金港社区居民委员会","code1":"500101","code2":"023","code3":"500101020005","code4":"111","continent":"亚洲","country":"中国","province":"重庆","city":"市辖区","county":"万州区","town":"龙都街道","village":"金港社区居民委员会"    },
    {"level":"村","longitude":108.411649,"latitude":30.763107,"chinese_name":"三吉村村民委员会","code1":"500101","code2":"023","code3":"500101020200","code4":"220","continent":"亚洲","country":"中国","province":"重庆","city":"市辖区","county":"万州区","town":"龙都街道","village":"三吉村村民委员会"    },
    {"level":"村","longitude":108.372519,"latitude":30.84512,"chinese_name":"天子湖社区居民委员会","code1":"500101","code2":"023","code3":"500101021001","code4":"111","continent":"亚洲","country":"中国","province":"重庆","city":"市辖区","county":"万州区","town":"周家坝街道","village":"天子湖社区居民委员会"    },
    {"level":"村","longitude":108.372519,"latitude":30.84512,"chinese_name":"天生城社区居民委员会","code1":"500101","code2":"023","code3":"500101021002","code4":"111","continent":"亚洲","country":"中国","province":"重庆","city":"市辖区","county":"万州区","town":"周家坝街道","village":"天生城社区居民委员会"    },
    {"level":"村","longitude":108.372519,"latitude":30.84512,"chinese_name":"流水社区居民委员会","code1":"500101","code2":"023","code3":"500101021003","code4":"111","continent":"亚洲","country":"中国","province":"重庆","city":"市辖区","county":"万州区","town":"周家坝街道","village":"流水社区居民委员会"    },
    {"level":"村","longitude":108.37505,"latitude":30.847719,"chinese_name":"周家坝社区居民委员会","code1":"500101","code2":"023","code3":"500101021004","code4":"111","continent":"亚洲","country":"中国","province":"重庆","city":"市辖区","county":"万州区","town":"周家坝街道","village":"周家坝社区居民委员会"    },
    {"level":"村","longitude":108.372519,"latitude":30.84512,"chinese_name":"救兵城社区居民委员会","code1":"500101","code2":"023","code3":"500101021005","code4":"111","continent":"亚洲","country":"中国","province":"重庆","city":"市辖区","county":"万州区","town":"周家坝街道","village":"救兵城社区居民委员会"    },
    {"level":"村","longitude":108.361772,"latitude":30.824466,"chinese_name":"天子路社区居民委员会","code1":"500101","code2":"023","code3":"500101021006","code4":"111","continent":"亚洲","country":"中国","province":"重庆","city":"市辖区","county":"万州区","town":"周家坝街道","village":"天子路社区居民委员会"    },
    {"level":"村","longitude":108.372519,"latitude":30.84512,"chinese_name":"映水坪社区居民委员会","code1":"500101","code2":"023","code3":"500101021007","code4":"111","continent":"亚洲","country":"中国","province":"重庆","city":"市辖区","county":"万州区","town":"周家坝街道","village":"映水坪社区居民委员会"    },
    {"level":"村","longitude":108.372519,"latitude":30.84512,"chinese_name":"双堰塘社区居民委员会","code1":"500101","code2":"023","code3":"500101021008","code4":"111","continent":"亚洲","country":"中国","province":"重庆","city":"市辖区","county":"万州区","town":"周家坝街道","village":"双堰塘社区居民委员会"    },
    {"level":"村","longitude":108.372519,"latitude":30.84512,"chinese_name":"长生河社区居民委员会","code1":"500101","code2":"023","code3":"500101021009","code4":"111","continent":"亚洲","country":"中国","province":"重庆","city":"市辖区","county":"万州区","town":"周家坝街道","village":"长生河社区居民委员会"    },
    {"level":"村","longitude":108.37706,"latitude":30.825289,"chinese_name":"集中社区居民委员会","code1":"500101","code2":"023","code3":"500101021010","code4":"112","continent":"亚洲","country":"中国","province":"重庆","city":"市辖区","county":"万州区","town":"周家坝街道","village":"集中社区居民委员会"    },
    {"level":"村","longitude":108.372519,"latitude":30.84512,"chinese_name":"狮子社区居民委员会","code1":"500101","code2":"023","code3":"500101021011","code4":"112","continent":"亚洲","country":"中国","province":"重庆","city":"市辖区","county":"万州区","town":"周家坝街道","village":"狮子社区居民委员会"    },
    {"level":"村","longitude":108.345684,"latitude":30.851326,"chinese_name":"落凼社区居民委员会","code1":"500101","code2":"023","code3":"500101022001","code4":"112","continent":"亚洲","country":"中国","province":"重庆","city":"市辖区","county":"万州区","town":"沙河街道","village":"落凼社区居民委员会"    },
    {"level":"村","longitude":108.365493,"latitude":30.848978,"chinese_name":"凤仙路社区居民委员会","code1":"500101","code2":"023","code3":"500101022002","code4":"111","continent":"亚洲","country":"中国","province":"重庆","city":"市辖区","county":"万州区","town":"沙河街道","village":"凤仙路社区居民委员会"    },
    {"level":"村","longitude":108.365493,"latitude":30.848978,"chinese_name":"申明社区居民委员会","code1":"500101","code2":"023","code3":"500101022003","code4":"111","continent":"亚洲","country":"中国","province":"重庆","city":"市辖区","county":"万州区","town":"沙河街道","village":"申明社区居民委员会"    },
    {"level":"村","longitude":108.365493,"latitude":30.848978,"chinese_name":"花青路社区居民委员会","code1":"500101","code2":"023","code3":"500101022004","code4":"111","continent":"亚洲","country":"中国","province":"重庆","city":"市辖区","county":"万州区","town":"沙河街道","village":"花青路社区居民委员会"    },
    {"level":"村","longitude":108.365493,"latitude":30.848978,"chinese_name":"沙河社区居民委员会","code1":"500101","code2":"023","code3":"500101022005","code4":"111","continent":"亚洲","country":"中国","province":"重庆","city":"市辖区","county":"万州区","town":"沙河街道","village":"沙河社区居民委员会"    },
    {"level":"村","longitude":108.365493,"latitude":30.848978,"chinese_name":"玉城社区居民委员会","code1":"500101","code2":"023","code3":"500101022006","code4":"112","continent":"亚洲","country":"中国","province":"重庆","city":"市辖区","county":"万州区","town":"沙河街道","village":"玉城社区居民委员会"    },
    {"level":"村","longitude":108.365493,"latitude":30.848978,"chinese_name":"上坪村村民委员会","code1":"500101","code2":"023","code3":"500101022200","code4":"112","continent":"亚洲","country":"中国","province":"重庆","city":"市辖区","county":"万州区","town":"沙河街道","village":"上坪村村民委员会"    },
    {"level":"村","longitude":108.365493,"latitude":30.848978,"chinese_name":"安乐村村民委员会","code1":"500101","code2":"023","code3":"500101022201","code4":"112","continent":"亚洲","country":"中国","province":"重庆","city":"市辖区","county":"万州区","town":"沙河街道","village":"安乐村村民委员会"    },
    {"level":"村","longitude":108.365493,"latitude":30.848978,"chinese_name":"万斛村村民委员会","code1":"500101","code2":"023","code3":"500101022202","code4":"112","continent":"亚洲","country":"中国","province":"重庆","city":"市辖区","county":"万州区","town":"沙河街道","village":"万斛村村民委员会"    },
    {"level":"村","longitude":108.365493,"latitude":30.848978,"chinese_name":"孙家村村民委员会","code1":"500101","code2":"023","code3":"500101022203","code4":"220","continent":"亚洲","country":"中国","province":"重庆","city":"市辖区","county":"万州区","town":"沙河街道","village":"孙家村村民委员会"    },
    {"level":"村","longitude":108.388801,"latitude":30.823399,"chinese_name":"棉花地社区居民委员会","code1":"500101","code2":"023","code3":"500101023001","code4":"111","continent":"亚洲","country":"中国","province":"重庆","city":"市辖区","county":"万州区","town":"钟鼓楼街道","village":"棉花地社区居民委员会"    },
    {"level":"村","longitude":108.388801,"latitude":30.823399,"chinese_name":"丰收社区居民委员会","code1":"500101","code2":"023","code3":"500101023002","code4":"111","continent":"亚洲","country":"中国","province":"重庆","city":"市辖区","county":"万州区","town":"钟鼓楼街道","village":"丰收社区居民委员会"    },
    {"level":"村","longitude":108.389786,"latitude":30.826271,"chinese_name":"八角井社区居民委员会","code1":"500101","code2":"023","code3":"500101023003","code4":"111","continent":"亚洲","country":"中国","province":"重庆","city":"市辖区","county":"万州区","town":"钟鼓楼街道","village":"八角井社区居民委员会"    },
    {"level":"村","longitude":108.388801,"latitude":30.823399,"chinese_name":"幸福社区居民委员会","code1":"500101","code2":"023","code3":"500101023004","code4":"111","continent":"亚洲","country":"中国","province":"重庆","city":"市辖区","county":"万州区","town":"钟鼓楼街道","village":"幸福社区居民委员会"    },
    {"level":"村","longitude":108.396611,"latitude":30.82697,"chinese_name":"陶家坪社区居民委员会","code1":"500101","code2":"023","code3":"500101023005","code4":"111","continent":"亚洲","country":"中国","province":"重庆","city":"市辖区","county":"万州区","town":"钟鼓楼街道","village":"陶家坪社区居民委员会"    },
    {"level":"村","longitude":108.388801,"latitude":30.823399,"chinese_name":"枇杷坪社区居民委员会","code1":"500101","code2":"023","code3":"500101023006","code4":"111","continent":"亚洲","country":"中国","province":"重庆","city":"市辖区","county":"万州区","town":"钟鼓楼街道","village":"枇杷坪社区居民委员会"    },
    {"level":"村","longitude":108.388801,"latitude":30.823399,"chinese_name":"玉安社区居民委员会","code1":"500101","code2":"023","code3":"500101023007","code4":"111","continent":"亚洲","country":"中国","province":"重庆","city":"市辖区","county":"万州区","town":"钟鼓楼街道","village":"玉安社区居民委员会"    },
    {"level":"村","longitude":108.388801,"latitude":30.823399,"chinese_name":"桑树社区居民委员会","code1":"500101","code2":"023","code3":"500101023008","code4":"112","continent":"亚洲","country":"中国","province":"重庆","city":"市辖区","county":"万州区","town":"钟鼓楼街道","village":"桑树社区居民委员会"    },
    {"level":"村","longitude":108.388801,"latitude":30.823399,"chinese_name":"双溪社区居民委员会","code1":"500101","code2":"023","code3":"500101023009","code4":"112","continent":"亚洲","country":"中国","province":"重庆","city":"市辖区","county":"万州区","town":"钟鼓楼街道","village":"双溪社区居民委员会"    },
    {"level":"村","longitude":108.388801,"latitude":30.823399,"chinese_name":"百步社区居民委员会","code1":"500101","code2":"023","code3":"500101023010","code4":"112","continent":"亚洲","country":"中国","province":"重庆","city":"市辖区","county":"万州区","town":"钟鼓楼街道","village":"百步社区居民委员会"    },
    {"level":"村","longitude":108.40331,"latitude":30.832431,"chinese_name":"富祥社区居民委员会","code1":"500101","code2":"023","code3":"500101023011","code4":"111","continent":"亚洲","country":"中国","province":"重庆","city":"市辖区","county":"万州区","town":"钟鼓楼街道","village":"富祥社区居民委员会"    },
    {"level":"村","longitude":108.388801,"latitude":30.823399,"chinese_name":"都历村村民委员会","code1":"500101","code2":"023","code3":"500101023200","code4":"112","continent":"亚洲","country":"中国","province":"重庆","city":"市辖区","county":"万州区","town":"钟鼓楼街道","village":"都历村村民委员会"    },
    {"level":"村","longitude":108.388801,"latitude":30.823399,"chinese_name":"驸马村村民委员会","code1":"500101","code2":"023","code3":"500101023201","code4":"220","continent":"亚洲","country":"中国","province":"重庆","city":"市辖区","county":"万州区","town":"钟鼓楼街道","village":"驸马村村民委员会"    },
    {"level":"村","longitude":108.388801,"latitude":30.823399,"chinese_name":"吊龙村村民委员会","code1":"500101","code2":"023","code3":"500101023202","code4":"220","continent":"亚洲","country":"中国","province":"重庆","city":"市辖区","county":"万州区","town":"钟鼓楼街道","village":"吊龙村村民委员会"    },
    {"level":"村","longitude":108.388801,"latitude":30.823399,"chinese_name":"小岩村村民委员会","code1":"500101","code2":"023","code3":"500101023203","code4":"220","continent":"亚洲","country":"中国","province":"重庆","city":"市辖区","county":"万州区","town":"钟鼓楼街道","village":"小岩村村民委员会"    },
    {"level":"村","longitude":108.388801,"latitude":30.823399,"chinese_name":"大团村村民委员会","code1":"500101","code2":"023","code3":"500101023204","code4":"220","continent":"亚洲","country":"中国","province":"重庆","city":"市辖区","county":"万州区","town":"钟鼓楼街道","village":"大团村村民委员会"    },
    {"level":"村","longitude":108.388801,"latitude":30.823399,"chinese_name":"抗建村村民委员会","code1":"500101","code2":"023","code3":"500101023205","code4":"112","continent":"亚洲","country":"中国","province":"重庆","city":"市辖区","county":"万州区","town":"钟鼓楼街道","village":"抗建村村民委员会"    },
    {"level":"村","longitude":108.44986,"latitude":30.75974,"chinese_name":"庆宁社区居民委员会","code1":"500101","code2":"023","code3":"500101024001","code4":"111","continent":"亚洲","country":"中国","province":"重庆","city":"市辖区","county":"万州区","town":"百安坝街道","village":"庆宁社区居民委员会"    },
    {"level":"村","longitude":108.44986,"latitude":30.75974,"chinese_name":"学府社区居民委员会","code1":"500101","code2":"023","code3":"500101024002","code4":"111","continent":"亚洲","country":"中国","province":"重庆","city":"市辖区","county":"万州区","town":"百安坝街道","village":"学府社区居民委员会"    },
    {"level":"村","longitude":108.44986,"latitude":30.75974,"chinese_name":"百安社区居民委员会","code1":"500101","code2":"023","code3":"500101024003","code4":"111","continent":"亚洲","country":"中国","province":"重庆","city":"市辖区","county":"万州区","town":"百安坝街道","village":"百安社区居民委员会"    },
    {"level":"村","longitude":108.43558,"latitude":30.763179,"chinese_name":"乐居苑社区居民委员会","code1":"500101","code2":"023","code3":"500101024004","code4":"111","continent":"亚洲","country":"中国","province":"重庆","city":"市辖区","county":"万州区","town":"百安坝街道","village":"乐居苑社区居民委员会"    },
    {"level":"村","longitude":108.44953,"latitude":30.766388,"chinese_name":"张家湾社区居民委员会","code1":"500101","code2":"023","code3":"500101024005","code4":"111","continent":"亚洲","country":"中国","province":"重庆","city":"市辖区","county":"万州区","town":"百安坝街道","village":"张家湾社区居民委员会"    },
    {"level":"村","longitude":108.447914,"latitude":30.763969,"chinese_name":"尖峰岭社区居民委员会","code1":"500101","code2":"023","code3":"500101024006","code4":"111","continent":"亚洲","country":"中国","province":"重庆","city":"市辖区","county":"万州区","town":"百安坝街道","village":"尖峰岭社区居民委员会"    },
    {"level":"村","longitude":108.448417,"latitude":30.757879,"chinese_name":"程家社区居民委员会","code1":"500101","code2":"023","code3":"500101024007","code4":"111","continent":"亚洲","country":"中国","province":"重庆","city":"市辖区","county":"万州区","town":"百安坝街道","village":"程家社区居民委员会"    },
    {"level":"村","longitude":108.44986,"latitude":30.75974,"chinese_name":"扁寨社区居民委员会","code1":"500101","code2":"023","code3":"500101024008","code4":"111","continent":"亚洲","country":"中国","province":"重庆","city":"市辖区","county":"万州区","town":"百安坝街道","village":"扁寨社区居民委员会"    },
    {"level":"村","longitude":108.44986,"latitude":30.75974,"chinese_name":"天台社区居民委员会","code1":"500101","code2":"023","code3":"500101024009","code4":"111","continent":"亚洲","country":"中国","province":"重庆","city":"市辖区","county":"万州区","town":"百安坝街道","village":"天台社区居民委员会"    },
    {"level":"村","longitude":108.435698,"latitude":30.746437,"chinese_name":"三洲社区居民委员会","code1":"500101","code2":"023","code3":"500101024010","code4":"112","continent":"亚洲","country":"中国","province":"重庆","city":"市辖区","county":"万州区","town":"百安坝街道","village":"三洲社区居民委员会"    },
    {"level":"村","longitude":108.469439,"latitude":30.752169,"chinese_name":"天星村村民委员会","code1":"500101","code2":"023","code3":"500101024200","code4":"112","continent":"亚洲","country":"中国","province":"重庆","city":"市辖区","county":"万州区","town":"百安坝街道","village":"天星村村民委员会"    },
    {"level":"村","longitude":108.448811,"latitude":30.738094,"chinese_name":"保安村村民委员会","code1":"500101","code2":"023","code3":"500101024201","code4":"220","continent":"亚洲","country":"中国","province":"重庆","city":"市辖区","county":"万州区","town":"百安坝街道","village":"保安村村民委员会"    },
    {"level":"村","longitude":108.448885,"latitude":30.770818,"chinese_name":"五间桥社区居民委员会","code1":"500101","code2":"023","code3":"500101025001","code4":"111","continent":"亚洲","country":"中国","province":"重庆","city":"市辖区","county":"万州区","town":"五桥街道","village":"五间桥社区居民委员会"    },
    {"level":"村","longitude":108.448885,"latitude":30.770818,"chinese_name":"香炉山社区居民委员会","code1":"500101","code2":"023","code3":"500101025002","code4":"111","continent":"亚洲","country":"中国","province":"重庆","city":"市辖区","county":"万州区","town":"五桥街道","village":"香炉山社区居民委员会"    },
    {"level":"村","longitude":108.448885,"latitude":30.770818,"chinese_name":"万石桥社区居民委员会","code1":"500101","code2":"023","code3":"500101025003","code4":"112","continent":"亚洲","country":"中国","province":"重庆","city":"市辖区","county":"万州区","town":"五桥街道","village":"万石桥社区居民委员会"    },
    {"level":"村","longitude":108.448885,"latitude":30.770818,"chinese_name":"石人社区居民委员会","code1":"500101","code2":"023","code3":"500101025004","code4":"220","continent":"亚洲","country":"中国","province":"重庆","city":"市辖区","county":"万州区","town":"五桥街道","village":"石人社区居民委员会"    },
    {"level":"村","longitude":108.448885,"latitude":30.770818,"chinese_name":"龚家社区居民委员会","code1":"500101","code2":"023","code3":"500101025005","code4":"112","continent":"亚洲","country":"中国","province":"重庆","city":"市辖区","county":"万州区","town":"五桥街道","village":"龚家社区居民委员会"    },
    {"level":"村","longitude":108.4612,"latitude":30.7786,"chinese_name":"民安社区居民委员会","code1":"500101","code2":"023","code3":"500101025006","code4":"112","continent":"亚洲","country":"中国","province":"重庆","city":"市辖区","county":"万州区","town":"五桥街道","village":"民安社区居民委员会"    },
    {"level":"村","longitude":108.448885,"latitude":30.770818,"chinese_name":"莲花社区居民委员会","code1":"500101","code2":"023","code3":"500101025007","code4":"111","continent":"亚洲","country":"中国","province":"重庆","city":"市辖区","county":"万州区","town":"五桥街道","village":"莲花社区居民委员会"    },
    {"level":"村","longitude":108.448885,"latitude":30.770818,"chinese_name":"长龙社区居民委员会","code1":"500101","code2":"023","code3":"500101025008","code4":"111","continent":"亚洲","country":"中国","province":"重庆","city":"市辖区","county":"万州区","town":"五桥街道","village":"长龙社区居民委员会"    },
    {"level":"村","longitude":108.448885,"latitude":30.770818,"chinese_name":"民强村村民委员会","code1":"500101","code2":"023","code3":"500101025200","code4":"220","continent":"亚洲","country":"中国","province":"重庆","city":"市辖区","county":"万州区","town":"五桥街道","village":"民强村村民委员会"    },
    {"level":"村","longitude":108.413297,"latitude":30.811712,"chinese_name":"陈家坝社区居民委员会","code1":"500101","code2":"023","code3":"500101026001","code4":"111","continent":"亚洲","country":"中国","province":"重庆","city":"市辖区","county":"万州区","town":"陈家坝街道","village":"陈家坝社区居民委员会"    },
    {"level":"村","longitude":108.41801,"latitude":30.81567,"chinese_name":"南山社区居民委员会","code1":"500101","code2":"023","code3":"500101026002","code4":"111","continent":"亚洲","country":"中国","province":"重庆","city":"市辖区","county":"万州区","town":"陈家坝街道","village":"南山社区居民委员会"    },
    {"level":"村","longitude":108.413297,"latitude":30.811712,"chinese_name":"大河社区居民委员会","code1":"500101","code2":"023","code3":"500101026003","code4":"220","continent":"亚洲","country":"中国","province":"重庆","city":"市辖区","county":"万州区","town":"陈家坝街道","village":"大河社区居民委员会"    },
    {"level":"村","longitude":108.409228,"latitude":30.792486,"chinese_name":"大石社区居民委员会","code1":"500101","code2":"023","code3":"500101026004","code4":"112","continent":"亚洲","country":"中国","province":"重庆","city":"市辖区","county":"万州区","town":"陈家坝街道","village":"大石社区居民委员会"    },
    {"level":"村","longitude":108.413297,"latitude":30.811712,"chinese_name":"沱口社区居民委员会","code1":"500101","code2":"023","code3":"500101026005","code4":"112","continent":"亚洲","country":"中国","province":"重庆","city":"市辖区","county":"万州区","town":"陈家坝街道","village":"沱口社区居民委员会"    },
    {"level":"村","longitude":108.413297,"latitude":30.811712,"chinese_name":"联合社区居民委员会","code1":"500101","code2":"023","code3":"500101026006","code4":"111","continent":"亚洲","country":"中国","province":"重庆","city":"市辖区","county":"万州区","town":"陈家坝街道","village":"联合社区居民委员会"    },
    {"level":"村","longitude":108.413297,"latitude":30.811712,"chinese_name":"机场社区居民委员会","code1":"500101","code2":"023","code3":"500101026007","code4":"111","continent":"亚洲","country":"中国","province":"重庆","city":"市辖区","county":"万州区","town":"陈家坝街道","village":"机场社区居民委员会"    },
    {"level":"村","longitude":108.413297,"latitude":30.811712,"chinese_name":"旅密村村民委员会","code1":"500101","code2":"023","code3":"500101026200","code4":"220","continent":"亚洲","country":"中国","province":"重庆","city":"市辖区","county":"万州区","town":"陈家坝街道","village":"旅密村村民委员会"    },
    {"level":"村","longitude":108.413297,"latitude":30.811712,"chinese_name":"晒网村村民委员会","code1":"500101","code2":"023","code3":"500101026201","code4":"220","continent":"亚洲","country":"中国","province":"重庆","city":"市辖区","county":"万州区","town":"陈家坝街道","village":"晒网村村民委员会"    },
    {"level":"村","longitude":108.464672,"latitude":30.821456,"chinese_name":"塘角村村民委员会","code1":"500101","code2":"023","code3":"500101026202","code4":"220","continent":"亚洲","country":"中国","province":"重庆","city":"市辖区","county":"万州区","town":"陈家坝街道","village":"塘角村村民委员会"    },
    {"level":"村","longitude":108.413297,"latitude":30.811712,"chinese_name":"翠屏村村民委员会","code1":"500101","code2":"023","code3":"500101026203","code4":"112","continent":"亚洲","country":"中国","province":"重庆","city":"市辖区","county":"万州区","town":"陈家坝街道","village":"翠屏村村民委员会"    },
    {"level":"村","longitude":108.413297,"latitude":30.811712,"chinese_name":"茂合村村民委员会","code1":"500101","code2":"023","code3":"500101026204","code4":"112","continent":"亚洲","country":"中国","province":"重庆","city":"市辖区","county":"万州区","town":"陈家坝街道","village":"茂合村村民委员会"    },
    {"level":"村","longitude":108.528313,"latitude":30.919288,"chinese_name":"刘家坝社区居民委员会","code1":"500101","code2":"023","code3":"500101109001","code4":"121","continent":"亚洲","country":"中国","province":"重庆","city":"市辖区","county":"万州区","town":"小周镇","village":"刘家坝社区居民委员会"    },
    {"level":"村","longitude":108.527813,"latitude":30.91965,"chinese_name":"马褡村村民委员会","code1":"500101","code2":"023","code3":"500101109200","code4":"220","continent":"亚洲","country":"中国","province":"重庆","city":"市辖区","county":"万州区","town":"小周镇","village":"马褡村村民委员会"    },
    {"level":"村","longitude":108.527813,"latitude":30.91965,"chinese_name":"小周村村民委员会","code1":"500101","code2":"023","code3":"500101109201","code4":"220","continent":"亚洲","country":"中国","province":"重庆","city":"市辖区","county":"万州区","town":"小周镇","village":"小周村村民委员会"    },
    {"level":"村","longitude":108.527813,"latitude":30.91965,"chinese_name":"姚家村村民委员会","code1":"500101","code2":"023","code3":"500101109202","code4":"220","continent":"亚洲","country":"中国","province":"重庆","city":"市辖区","county":"万州区","town":"小周镇","village":"姚家村村民委员会"    },
    {"level":"村","longitude":108.52636,"latitude":30.921151,"chinese_name":"大堡村村民委员会","code1":"500101","code2":"023","code3":"500101109203","code4":"220","continent":"亚洲","country":"中国","province":"重庆","city":"市辖区","county":"万州区","town":"小周镇","village":"大堡村村民委员会"    },
    {"level":"村","longitude":108.5228,"latitude":30.93268,"chinese_name":"马道村村民委员会","code1":"500101","code2":"023","code3":"500101109204","code4":"220","continent":"亚洲","country":"中国","province":"重庆","city":"市辖区","county":"万州区","town":"小周镇","village":"马道村村民委员会"    },
    {"level":"村","longitude":108.502386,"latitude":30.884865,"chinese_name":"常家坪社区居民委员会","code1":"500101","code2":"023","code3":"500101110001","code4":"121","continent":"亚洲","country":"中国","province":"重庆","city":"市辖区","county":"万州区","town":"大周镇","village":"常家坪社区居民委员会"    },
    {"level":"村","longitude":108.502386,"latitude":30.884865,"chinese_name":"铺垭村村民委员会","code1":"500101","code2":"023","code3":"500101110200","code4":"220","continent":"亚洲","country":"中国","province":"重庆","city":"市辖区","county":"万州区","town":"大周镇","village":"铺垭村村民委员会"    },
    {"level":"村","longitude":108.502386,"latitude":30.884865,"chinese_name":"五土村村民委员会","code1":"500101","code2":"023","code3":"500101110201","code4":"220","continent":"亚洲","country":"中国","province":"重庆","city":"市辖区","county":"万州区","town":"大周镇","village":"五土村村民委员会"    },
    {"level":"村","longitude":108.502386,"latitude":30.884865,"chinese_name":"宋家村村民委员会","code1":"500101","code2":"023","code3":"500101110202","code4":"220","continent":"亚洲","country":"中国","province":"重庆","city":"市辖区","county":"万州区","town":"大周镇","village":"宋家村村民委员会"    },
    {"level":"村","longitude":108.502386,"latitude":30.884865,"chinese_name":"莫家村村民委员会","code1":"500101","code2":"023","code3":"500101110203","code4":"220","continent":"亚洲","country":"中国","province":"重庆","city":"市辖区","county":"万州区","town":"大周镇","village":"莫家村村民委员会"    },
    {"level":"村","longitude":108.502386,"latitude":30.884865,"chinese_name":"凤凰村村民委员会","code1":"500101","code2":"023","code3":"500101110204","code4":"220","continent":"亚洲","country":"中国","province":"重庆","city":"市辖区","county":"万州区","town":"大周镇","village":"凤凰村村民委员会"    },
    {"level":"村","longitude":108.2772,"latitude":30.497821,"chinese_name":"新埸社区居民委员会","code1":"500101","code2":"023","code3":"500101123001","code4":"121","continent":"亚洲","country":"中国","province":"重庆","city":"市辖区","county":"万州区","town":"新乡镇","village":"新埸社区居民委员会"    },
    {"level":"村","longitude":108.27801,"latitude":30.492401,"chinese_name":"万顺村村民委员会","code1":"500101","code2":"023","code3":"500101123200","code4":"220","continent":"亚洲","country":"中国","province":"重庆","city":"市辖区","county":"万州区","town":"新乡镇","village":"万顺村村民委员会"    },
    {"level":"村","longitude":108.2772,"latitude":30.497821,"chinese_name":"合作村村民委员会","code1":"500101","code2":"023","code3":"500101123201","code4":"220","continent":"亚洲","country":"中国","province":"重庆","city":"市辖区","county":"万州区","town":"新乡镇","village":"合作村村民委员会"    },
    {"level":"村","longitude":108.2772,"latitude":30.497821,"chinese_name":"治华村村民委员会","code1":"500101","code2":"023","code3":"500101123202","code4":"220","continent":"亚洲","country":"中国","province":"重庆","city":"市辖区","county":"万州区","town":"新乡镇","village":"治华村村民委员会"    },
    {"level":"村","longitude":108.2772,"latitude":30.497821,"chinese_name":"龙泉村村民委员会","code1":"500101","code2":"023","code3":"500101123203","code4":"220","continent":"亚洲","country":"中国","province":"重庆","city":"市辖区","county":"万州区","town":"新乡镇","village":"龙泉村村民委员会"    },
    {"level":"村","longitude":108.2772,"latitude":30.497821,"chinese_name":"三水村村民委员会","code1":"500101","code2":"023","code3":"500101123204","code4":"220","continent":"亚洲","country":"中国","province":"重庆","city":"市辖区","county":"万州区","town":"新乡镇","village":"三水村村民委员会"    },
    {"level":"村","longitude":108.019963,"latitude":30.726767,"chinese_name":"飞龙桥社区居民委员会","code1":"500101","code2":"023","code3":"500101132001","code4":"121","continent":"亚洲","country":"中国","province":"重庆","city":"市辖区","county":"万州区","town":"孙家镇","village":"飞龙桥社区居民委员会"    },
    {"level":"村","longitude":108.019963,"latitude":30.726767,"chinese_name":"田弯村村民委员会","code1":"500101","code2":"023","code3":"500101132200","code4":"220","continent":"亚洲","country":"中国","province":"重庆","city":"市辖区","county":"万州区","town":"孙家镇","village":"田弯村村民委员会"    },
    {"level":"村","longitude":108.019963,"latitude":30.726767,"chinese_name":"兰草村村民委员会","code1":"500101","code2":"023","code3":"500101132201","code4":"220","continent":"亚洲","country":"中国","province":"重庆","city":"市辖区","county":"万州区","town":"孙家镇","village":"兰草村村民委员会"    },
    {"level":"村","longitude":108.019963,"latitude":30.726767,"chinese_name":"快乐村村民委员会","code1":"500101","code2":"023","code3":"500101132202","code4":"220","continent":"亚洲","country":"中国","province":"重庆","city":"市辖区","county":"万州区","town":"孙家镇","village":"快乐村村民委员会"    },
    {"level":"村","longitude":108.019963,"latitude":30.726767,"chinese_name":"天宝村村民委员会","code1":"500101","code2":"023","code3":"500101132203","code4":"220","continent":"亚洲","country":"中国","province":"重庆","city":"市辖区","county":"万州区","town":"孙家镇","village":"天宝村村民委员会"    },
    {"level":"村","longitude":108.019963,"latitude":30.726767,"chinese_name":"大河村村民委员会","code1":"500101","code2":"023","code3":"500101132204","code4":"220","continent":"亚洲","country":"中国","province":"重庆","city":"市辖区","county":"万州区","town":"孙家镇","village":"大河村村民委员会"    },
    {"level":"村","longitude":108.019963,"latitude":30.726767,"chinese_name":"槐花村村民委员会","code1":"500101","code2":"023","code3":"500101132205","code4":"220","continent":"亚洲","country":"中国","province":"重庆","city":"市辖区","county":"万州区","town":"孙家镇","village":"槐花村村民委员会"    },
    {"level":"村","longitude":108.019963,"latitude":30.726767,"chinese_name":"兴发村村民委员会","code1":"500101","code2":"023","code3":"500101132206","code4":"220","continent":"亚洲","country":"中国","province":"重庆","city":"市辖区","county":"万州区","town":"孙家镇","village":"兴发村村民委员会"    },
    {"level":"村","longitude":108.346585,"latitude":30.70995,"chinese_name":"高峰社区居民委员会","code1":"500101","code2":"023","code3":"500101134001","code4":"121","continent":"亚洲","country":"中国","province":"重庆","city":"市辖区","county":"万州区","town":"高峰镇","village":"高峰社区居民委员会"    },
    {"level":"村","longitude":108.346585,"latitude":30.70995,"chinese_name":"鹿山社区居民委员会","code1":"500101","code2":"023","code3":"500101134002","code4":"121","continent":"亚洲","country":"中国","province":"重庆","city":"市辖区","county":"万州区","town":"高峰镇","village":"鹿山社区居民委员会"    },
    {"level":"村","longitude":108.346585,"latitude":30.70995,"chinese_name":"雷家社区居民委员会","code1":"500101","code2":"023","code3":"500101134003","code4":"122","continent":"亚洲","country":"中国","province":"重庆","city":"市辖区","county":"万州区","town":"高峰镇","village":"雷家社区居民委员会"    },
    {"level":"村","longitude":108.346585,"latitude":30.70995,"chinese_name":"赵家村村民委员会","code1":"500101","code2":"023","code3":"500101134200","code4":"220","continent":"亚洲","country":"中国","province":"重庆","city":"市辖区","county":"万州区","town":"高峰镇","village":"赵家村村民委员会"    },
    {"level":"村","longitude":108.346585,"latitude":30.70995,"chinese_name":"兴隆村村民委员会","code1":"500101","code2":"023","code3":"500101134201","code4":"220","continent":"亚洲","country":"中国","province":"重庆","city":"市辖区","county":"万州区","town":"高峰镇","village":"兴隆村村民委员会"    },
    {"level":"村","longitude":108.346585,"latitude":30.70995,"chinese_name":"相思村村民委员会","code1":"500101","code2":"023","code3":"500101134203","code4":"220","continent":"亚洲","country":"中国","province":"重庆","city":"市辖区","county":"万州区","town":"高峰镇","village":"相思村村民委员会"    },
    {"level":"村","longitude":108.346585,"latitude":30.70995,"chinese_name":"吟水村村民委员会","code1":"500101","code2":"023","code3":"500101134204","code4":"220","continent":"亚洲","country":"中国","province":"重庆","city":"市辖区","county":"万州区","town":"高峰镇","village":"吟水村村民委员会"    },
    {"level":"村","longitude":108.346585,"latitude":30.70995,"chinese_name":"大寨村村民委员会","code1":"500101","code2":"023","code3":"500101134205","code4":"220","continent":"亚洲","country":"中国","province":"重庆","city":"市辖区","county":"万州区","town":"高峰镇","village":"大寨村村民委员会"    },
    {"level":"村","longitude":108.346585,"latitude":30.70995,"chinese_name":"朝阳村村民委员会","code1":"500101","code2":"023","code3":"500101134206","code4":"220","continent":"亚洲","country":"中国","province":"重庆","city":"市辖区","county":"万州区","town":"高峰镇","village":"朝阳村村民委员会"    },
    {"level":"村","longitude":108.346585,"latitude":30.70995,"chinese_name":"洪安村村民委员会","code1":"500101","code2":"023","code3":"500101134207","code4":"220","continent":"亚洲","country":"中国","province":"重庆","city":"市辖区","county":"万州区","town":"高峰镇","village":"洪安村村民委员会"    },
    {"level":"村","longitude":108.346585,"latitude":30.70995,"chinese_name":"石羊村村民委员会","code1":"500101","code2":"023","code3":"500101134208","code4":"220","continent":"亚洲","country":"中国","province":"重庆","city":"市辖区","county":"万州区","town":"高峰镇","village":"石羊村村民委员会"    },
    {"level":"村","longitude":108.346585,"latitude":30.70995,"chinese_name":"灵凤村村民委员会","code1":"500101","code2":"023","code3":"500101134209","code4":"220","continent":"亚洲","country":"中国","province":"重庆","city":"市辖区","county":"万州区","town":"高峰镇","village":"灵凤村村民委员会"    },
    {"level":"村","longitude":108.346585,"latitude":30.70995,"chinese_name":"马岭村村民委员会","code1":"500101","code2":"023","code3":"500101134210","code4":"220","continent":"亚洲","country":"中国","province":"重庆","city":"市辖区","county":"万州区","town":"高峰镇","village":"马岭村村民委员会"    },
    {"level":"村","longitude":108.237769,"latitude":30.634316,"chinese_name":"龙沙社区居民委员会","code1":"500101","code2":"023","code3":"500101135001","code4":"121","continent":"亚洲","country":"中国","province":"重庆","city":"市辖区","county":"万州区","town":"龙沙镇","village":"龙沙社区居民委员会"    },
    {"level":"村","longitude":108.237769,"latitude":30.634316,"chinese_name":"龙古社区居民委员会","code1":"500101","code2":"023","code3":"500101135002","code4":"121","continent":"亚洲","country":"中国","province":"重庆","city":"市辖区","county":"万州区","town":"龙沙镇","village":"龙古社区居民委员会"    },
    {"level":"村","longitude":108.237769,"latitude":30.634316,"chinese_name":"岩口社区居民委员会","code1":"500101","code2":"023","code3":"500101135003","code4":"121","continent":"亚洲","country":"中国","province":"重庆","city":"市辖区","county":"万州区","town":"龙沙镇","village":"岩口社区居民委员会"    },
    {"level":"村","longitude":108.237769,"latitude":30.634316,"chinese_name":"沙包村村民委员会","code1":"500101","code2":"023","code3":"500101135200","code4":"122","continent":"亚洲","country":"中国","province":"重庆","city":"市辖区","county":"万州区","town":"龙沙镇","village":"沙包村村民委员会"    },
    {"level":"村","longitude":108.237769,"latitude":30.634316,"chinese_name":"青龙村村民委员会","code1":"500101","code2":"023","code3":"500101135201","code4":"122","continent":"亚洲","country":"中国","province":"重庆","city":"市辖区","county":"万州区","town":"龙沙镇","village":"青龙村村民委员会"    },
    {"level":"村","longitude":108.237769,"latitude":30.634316,"chinese_name":"海螺村村民委员会","code1":"500101","code2":"023","code3":"500101135202","code4":"220","continent":"亚洲","country":"中国","province":"重庆","city":"市辖区","county":"万州区","town":"龙沙镇","village":"海螺村村民委员会"    },
    {"level":"村","longitude":108.237769,"latitude":30.634316,"chinese_name":"岩口村村民委员会","code1":"500101","code2":"023","code3":"500101135203","code4":"220","continent":"亚洲","country":"中国","province":"重庆","city":"市辖区","county":"万州区","town":"龙沙镇","village":"岩口村村民委员会"    },
    {"level":"村","longitude":108.237769,"latitude":30.634316,"chinese_name":"雨台村村民委员会","code1":"500101","code2":"023","code3":"500101135204","code4":"220","continent":"亚洲","country":"中国","province":"重庆","city":"市辖区","county":"万州区","town":"龙沙镇","village":"雨台村村民委员会"    },
    {"level":"村","longitude":108.237769,"latitude":30.634316,"chinese_name":"黄金村村民委员会","code1":"500101","code2":"023","code3":"500101135205","code4":"220","continent":"亚洲","country":"中国","province":"重庆","city":"市辖区","county":"万州区","town":"龙沙镇","village":"黄金村村民委员会"    },
    {"level":"村","longitude":108.237769,"latitude":30.634316,"chinese_name":"印合村村民委员会","code1":"500101","code2":"023","code3":"500101135206","code4":"220","continent":"亚洲","country":"中国","province":"重庆","city":"市辖区","county":"万州区","town":"龙沙镇","village":"印合村村民委员会"    },
    {"level":"村","longitude":108.237769,"latitude":30.634316,"chinese_name":"何院村村民委员会","code1":"500101","code2":"023","code3":"500101135207","code4":"220","continent":"亚洲","country":"中国","province":"重庆","city":"市辖区","county":"万州区","town":"龙沙镇","village":"何院村村民委员会"    },
    {"level":"村","longitude":108.237769,"latitude":30.634316,"chinese_name":"龙安村村民委员会","code1":"500101","code2":"023","code3":"500101135208","code4":"220","continent":"亚洲","country":"中国","province":"重庆","city":"市辖区","county":"万州区","town":"龙沙镇","village":"龙安村村民委员会"    },
    {"level":"村","longitude":108.237769,"latitude":30.634316,"chinese_name":"彭家村村民委员会","code1":"500101","code2":"023","code3":"500101135209","code4":"220","continent":"亚洲","country":"中国","province":"重庆","city":"市辖区","county":"万州区","town":"龙沙镇","village":"彭家村村民委员会"    },
    {"level":"村","longitude":108.237769,"latitude":30.634316,"chinese_name":"马岩村村民委员会","code1":"500101","code2":"023","code3":"500101135210","code4":"220","continent":"亚洲","country":"中国","province":"重庆","city":"市辖区","county":"万州区","town":"龙沙镇","village":"马岩村村民委员会"    },
    {"level":"村","longitude":108.237769,"latitude":30.634316,"chinese_name":"周坝村村民委员会","code1":"500101","code2":"023","code3":"500101135211","code4":"220","continent":"亚洲","country":"中国","province":"重庆","city":"市辖区","county":"万州区","town":"龙沙镇","village":"周坝村村民委员会"    },
    {"level":"村","longitude":108.237769,"latitude":30.634316,"chinese_name":"老林村村民委员会","code1":"500101","code2":"023","code3":"500101135212","code4":"220","continent":"亚洲","country":"中国","province":"重庆","city":"市辖区","county":"万州区","town":"龙沙镇","village":"老林村村民委员会"    },
    {"level":"村","longitude":108.237769,"latitude":30.634316,"chinese_name":"红鹤村村民委员会","code1":"500101","code2":"023","code3":"500101135213","code4":"220","continent":"亚洲","country":"中国","province":"重庆","city":"市辖区","county":"万州区","town":"龙沙镇","village":"红鹤村村民委员会"    },
    {"level":"村","longitude":108.19774,"latitude":30.653519,"chinese_name":"响水社区居民委员会","code1":"500101","code2":"023","code3":"500101136001","code4":"121","continent":"亚洲","country":"中国","province":"重庆","city":"市辖区","county":"万州区","town":"响水镇","village":"响水社区居民委员会"    },
    {"level":"村","longitude":108.19774,"latitude":30.653519,"chinese_name":"车兴岭社区居民委员会","code1":"500101","code2":"023","code3":"500101136002","code4":"121","continent":"亚洲","country":"中国","province":"重庆","city":"市辖区","county":"万州区","town":"响水镇","village":"车兴岭社区居民委员会"    },
    {"level":"村","longitude":108.19774,"latitude":30.653519,"chinese_name":"总角村村民委员会","code1":"500101","code2":"023","code3":"500101136200","code4":"220","continent":"亚洲","country":"中国","province":"重庆","city":"市辖区","county":"万州区","town":"响水镇","village":"总角村村民委员会"    },
    {"level":"村","longitude":108.19774,"latitude":30.653519,"chinese_name":"响水村村民委员会","code1":"500101","code2":"023","code3":"500101136201","code4":"122","continent":"亚洲","country":"中国","province":"重庆","city":"市辖区","county":"万州区","town":"响水镇","village":"响水村村民委员会"    },
    {"level":"村","longitude":108.19774,"latitude":30.653519,"chinese_name":"万民村村民委员会","code1":"500101","code2":"023","code3":"500101136202","code4":"220","continent":"亚洲","country":"中国","province":"重庆","city":"市辖区","county":"万州区","town":"响水镇","village":"万民村村民委员会"    },
    {"level":"村","longitude":108.19774,"latitude":30.653519,"chinese_name":"联合村村民委员会","code1":"500101","code2":"023","code3":"500101136203","code4":"220","continent":"亚洲","country":"中国","province":"重庆","city":"市辖区","county":"万州区","town":"响水镇","village":"联合村村民委员会"    },
    {"level":"村","longitude":108.19774,"latitude":30.653519,"chinese_name":"张家村村民委员会","code1":"500101","code2":"023","code3":"500101136204","code4":"220","continent":"亚洲","country":"中国","province":"重庆","city":"市辖区","county":"万州区","town":"响水镇","village":"张家村村民委员会"    },
    {"level":"村","longitude":108.19774,"latitude":30.653519,"chinese_name":"公议村村民委员会","code1":"500101","code2":"023","code3":"500101136205","code4":"220","continent":"亚洲","country":"中国","province":"重庆","city":"市辖区","county":"万州区","town":"响水镇","village":"公议村村民委员会"    },
    {"level":"村","longitude":108.19774,"latitude":30.653519,"chinese_name":"青林村村民委员会","code1":"500101","code2":"023","code3":"500101136206","code4":"220","continent":"亚洲","country":"中国","province":"重庆","city":"市辖区","county":"万州区","town":"响水镇","village":"青林村村民委员会"    },
    {"level":"村","longitude":108.19774,"latitude":30.653519,"chinese_name":"宝莲村村民委员会","code1":"500101","code2":"023","code3":"500101136207","code4":"220","continent":"亚洲","country":"中国","province":"重庆","city":"市辖区","county":"万州区","town":"响水镇","village":"宝莲村村民委员会"    },
    {"level":"村","longitude":108.19774,"latitude":30.653519,"chinese_name":"高石村村民委员会","code1":"500101","code2":"023","code3":"500101136208","code4":"220","continent":"亚洲","country":"中国","province":"重庆","city":"市辖区","county":"万州区","town":"响水镇","village":"高石村村民委员会"    },
    {"level":"村","longitude":108.19774,"latitude":30.653519,"chinese_name":"付家村村民委员会","code1":"500101","code2":"023","code3":"500101136209","code4":"220","continent":"亚洲","country":"中国","province":"重庆","city":"市辖区","county":"万州区","town":"响水镇","village":"付家村村民委员会"    },
    {"level":"村","longitude":108.250179,"latitude":30.51301,"chinese_name":"椅城社区居民委员会","code1":"500101","code2":"023","code3":"500101137001","code4":"121","continent":"亚洲","country":"中国","province":"重庆","city":"市辖区","county":"万州区","town":"武陵镇","village":"椅城社区居民委员会"    },
    {"level":"村","longitude":108.250179,"latitude":30.51301,"chinese_name":"源阳社区居民委员会","code1":"500101","code2":"023","code3":"500101137002","code4":"121","continent":"亚洲","country":"中国","province":"重庆","city":"市辖区","county":"万州区","town":"武陵镇","village":"源阳社区居民委员会"    },
    {"level":"村","longitude":108.250179,"latitude":30.51301,"chinese_name":"鹿井社区居民委员会","code1":"500101","code2":"023","code3":"500101137003","code4":"121","continent":"亚洲","country":"中国","province":"重庆","city":"市辖区","county":"万州区","town":"武陵镇","village":"鹿井社区居民委员会"    },
    {"level":"村","longitude":108.250179,"latitude":30.51301,"chinese_name":"石桥社区居民委员会","code1":"500101","code2":"023","code3":"500101137004","code4":"121","continent":"亚洲","country":"中国","province":"重庆","city":"市辖区","county":"万州区","town":"武陵镇","village":"石桥社区居民委员会"    },
    {"level":"村","longitude":108.250179,"latitude":30.51301,"chinese_name":"客群村村民委员会","code1":"500101","code2":"023","code3":"500101137200","code4":"220","continent":"亚洲","country":"中国","province":"重庆","city":"市辖区","county":"万州区","town":"武陵镇","village":"客群村村民委员会"    },
    {"level":"村","longitude":108.250179,"latitude":30.51301,"chinese_name":"黄金村村民委员会","code1":"500101","code2":"023","code3":"500101137201","code4":"220","continent":"亚洲","country":"中国","province":"重庆","city":"市辖区","county":"万州区","town":"武陵镇","village":"黄金村村民委员会"    },
    {"level":"村","longitude":108.250179,"latitude":30.51301,"chinese_name":"下中村村民委员会","code1":"500101","code2":"023","code3":"500101137202","code4":"122","continent":"亚洲","country":"中国","province":"重庆","city":"市辖区","county":"万州区","town":"武陵镇","village":"下中村村民委员会"    },
    {"level":"村","longitude":108.250179,"latitude":30.51301,"chinese_name":"长榜村村民委员会","code1":"500101","code2":"023","code3":"500101137203","code4":"220","continent":"亚洲","country":"中国","province":"重庆","city":"市辖区","county":"万州区","town":"武陵镇","village":"长榜村村民委员会"    },
    {"level":"村","longitude":108.250179,"latitude":30.51301,"chinese_name":"禹安村村民委员会","code1":"500101","code2":"023","code3":"500101137204","code4":"220","continent":"亚洲","country":"中国","province":"重庆","city":"市辖区","county":"万州区","town":"武陵镇","village":"禹安村村民委员会"    },
    {"level":"村","longitude":108.250179,"latitude":30.51301,"chinese_name":"八羊村村民委员会","code1":"500101","code2":"023","code3":"500101137205","code4":"220","continent":"亚洲","country":"中国","province":"重庆","city":"市辖区","county":"万州区","town":"武陵镇","village":"八羊村村民委员会"    },
    {"level":"村","longitude":108.250179,"latitude":30.51301,"chinese_name":"朝阳村村民委员会","code1":"500101","code2":"023","code3":"500101137206","code4":"220","continent":"亚洲","country":"中国","province":"重庆","city":"市辖区","county":"万州区","town":"武陵镇","village":"朝阳村村民委员会"    },
    {"level":"村","longitude":108.250179,"latitude":30.51301,"chinese_name":"和平村村民委员会","code1":"500101","code2":"023","code3":"500101137207","code4":"220","continent":"亚洲","country":"中国","province":"重庆","city":"市辖区","county":"万州区","town":"武陵镇","village":"和平村村民委员会"    },
    {"level":"村","longitude":108.250179,"latitude":30.51301,"chinese_name":"红谷村村民委员会","code1":"500101","code2":"023","code3":"500101137208","code4":"220","continent":"亚洲","country":"中国","province":"重庆","city":"市辖区","county":"万州区","town":"武陵镇","village":"红谷村村民委员会"    },
    {"level":"村","longitude":108.250179,"latitude":30.51301,"chinese_name":"鹿井村村民委员会","code1":"500101","code2":"023","code3":"500101137209","code4":"220","continent":"亚洲","country":"中国","province":"重庆","city":"市辖区","county":"万州区","town":"武陵镇","village":"鹿井村村民委员会"    },
    {"level":"村","longitude":108.250179,"latitude":30.51301,"chinese_name":"复龙村村民委员会","code1":"500101","code2":"023","code3":"500101137210","code4":"220","continent":"亚洲","country":"中国","province":"重庆","city":"市辖区","county":"万州区","town":"武陵镇","village":"复龙村村民委员会"    },
    {"level":"村","longitude":108.24964,"latitude":30.56275,"chinese_name":"石桥村村民委员会","code1":"500101","code2":"023","code3":"500101137211","code4":"220","continent":"亚洲","country":"中国","province":"重庆","city":"市辖区","county":"万州区","town":"武陵镇","village":"石桥村村民委员会"    },
    {"level":"村","longitude":108.250179,"latitude":30.51301,"chinese_name":"乐安村村民委员会","code1":"500101","code2":"023","code3":"500101137212","code4":"220","continent":"亚洲","country":"中国","province":"重庆","city":"市辖区","county":"万州区","town":"武陵镇","village":"乐安村村民委员会"    },
    {"level":"村","longitude":108.30884,"latitude":30.590118,"chinese_name":"龙井社区居民委员会","code1":"500101","code2":"023","code3":"500101138001","code4":"121","continent":"亚洲","country":"中国","province":"重庆","city":"市辖区","county":"万州区","town":"瀼渡镇","village":"龙井社区居民委员会"    },
    {"level":"村","longitude":108.310272,"latitude":30.589596,"chinese_name":"重岩村村民委员会","code1":"500101","code2":"023","code3":"500101138200","code4":"220","continent":"亚洲","country":"中国","province":"重庆","city":"市辖区","county":"万州区","town":"瀼渡镇","village":"重岩村村民委员会"    },
    {"level":"村","longitude":108.310272,"latitude":30.589596,"chinese_name":"碑牌村村民委员会","code1":"500101","code2":"023","code3":"500101138201","code4":"220","continent":"亚洲","country":"中国","province":"重庆","city":"市辖区","county":"万州区","town":"瀼渡镇","village":"碑牌村村民委员会"    },
    {"level":"村","longitude":108.30437,"latitude":30.584189,"chinese_name":"高村村民委员会","code1":"500101","code2":"023","code3":"500101138202","code4":"220","continent":"亚洲","country":"中国","province":"重庆","city":"市辖区","county":"万州区","town":"瀼渡镇","village":"高村村民委员会"    },
    {"level":"村","longitude":108.310272,"latitude":30.589596,"chinese_name":"炉头村村民委员会","code1":"500101","code2":"023","code3":"500101138203","code4":"220","continent":"亚洲","country":"中国","province":"重庆","city":"市辖区","county":"万州区","town":"瀼渡镇","village":"炉头村村民委员会"    },
    {"level":"村","longitude":108.310272,"latitude":30.589596,"chinese_name":"河溪村村民委员会","code1":"500101","code2":"023","code3":"500101138204","code4":"220","continent":"亚洲","country":"中国","province":"重庆","city":"市辖区","county":"万州区","town":"瀼渡镇","village":"河溪村村民委员会"    },
    {"level":"村","longitude":108.310272,"latitude":30.589596,"chinese_name":"双鸡村村民委员会","code1":"500101","code2":"023","code3":"500101138205","code4":"220","continent":"亚洲","country":"中国","province":"重庆","city":"市辖区","county":"万州区","town":"瀼渡镇","village":"双鸡村村民委员会"    },
    {"level":"村","longitude":108.282265,"latitude":30.668997,"chinese_name":"凉风社区居民委员会","code1":"500101","code2":"023","code3":"500101139001","code4":"121","continent":"亚洲","country":"中国","province":"重庆","city":"市辖区","county":"万州区","town":"甘宁镇","village":"凉风社区居民委员会"    },
    {"level":"村","longitude":108.246653,"latitude":30.675093,"chinese_name":"天宫社区居民委员会","code1":"500101","code2":"023","code3":"500101139002","code4":"121","continent":"亚洲","country":"中国","province":"重庆","city":"市辖区","county":"万州区","town":"甘宁镇","village":"天宫社区居民委员会"    },
    {"level":"村","longitude":108.282265,"latitude":30.668997,"chinese_name":"河口社区居民委员会","code1":"500101","code2":"023","code3":"500101139003","code4":"121","continent":"亚洲","country":"中国","province":"重庆","city":"市辖区","county":"万州区","town":"甘宁镇","village":"河口社区居民委员会"    },
    {"level":"村","longitude":108.282265,"latitude":30.668997,"chinese_name":"黑马村村民委员会","code1":"500101","code2":"023","code3":"500101139200","code4":"220","continent":"亚洲","country":"中国","province":"重庆","city":"市辖区","county":"万州区","town":"甘宁镇","village":"黑马村村民委员会"    },
    {"level":"村","longitude":108.282265,"latitude":30.668997,"chinese_name":"新农村村民委员会","code1":"500101","code2":"023","code3":"500101139201","code4":"122","continent":"亚洲","country":"中国","province":"重庆","city":"市辖区","county":"万州区","town":"甘宁镇","village":"新农村村民委员会"    },
    {"level":"村","longitude":108.282265,"latitude":30.668997,"chinese_name":"帅家村村民委员会","code1":"500101","code2":"023","code3":"500101139202","code4":"220","continent":"亚洲","country":"中国","province":"重庆","city":"市辖区","county":"万州区","town":"甘宁镇","village":"帅家村村民委员会"    },
    {"level":"村","longitude":108.282265,"latitude":30.668997,"chinese_name":"桐坪村村民委员会","code1":"500101","code2":"023","code3":"500101139203","code4":"220","continent":"亚洲","country":"中国","province":"重庆","city":"市辖区","county":"万州区","town":"甘宁镇","village":"桐坪村村民委员会"    },
    {"level":"村","longitude":108.282265,"latitude":30.668997,"chinese_name":"兴国村村民委员会","code1":"500101","code2":"023","code3":"500101139204","code4":"220","continent":"亚洲","country":"中国","province":"重庆","city":"市辖区","county":"万州区","town":"甘宁镇","village":"兴国村村民委员会"    },
    {"level":"村","longitude":108.282265,"latitude":30.668997,"chinese_name":"高梁村村民委员会","code1":"500101","code2":"023","code3":"500101139205","code4":"220","continent":"亚洲","country":"中国","province":"重庆","city":"市辖区","county":"万州区","town":"甘宁镇","village":"高梁村村民委员会"    },
    {"level":"村","longitude":108.282265,"latitude":30.668997,"chinese_name":"永正村村民委员会","code1":"500101","code2":"023","code3":"500101139206","code4":"220","continent":"亚洲","country":"中国","province":"重庆","city":"市辖区","county":"万州区","town":"甘宁镇","village":"永正村村民委员会"    },
    {"level":"村","longitude":108.282265,"latitude":30.668997,"chinese_name":"牌楼村村民委员会","code1":"500101","code2":"023","code3":"500101139207","code4":"220","continent":"亚洲","country":"中国","province":"重庆","city":"市辖区","county":"万州区","town":"甘宁镇","village":"牌楼村村民委员会"    },
    {"level":"村","longitude":108.282265,"latitude":30.668997,"chinese_name":"庙沟村村民委员会","code1":"500101","code2":"023","code3":"500101139208","code4":"220","continent":"亚洲","country":"中国","province":"重庆","city":"市辖区","county":"万州区","town":"甘宁镇","village":"庙沟村村民委员会"    },
    {"level":"村","longitude":108.282265,"latitude":30.668997,"chinese_name":"河口村村民委员会","code1":"500101","code2":"023","code3":"500101139209","code4":"220","continent":"亚洲","country":"中国","province":"重庆","city":"市辖区","county":"万州区","town":"甘宁镇","village":"河口村村民委员会"    },
    {"level":"村","longitude":108.282265,"latitude":30.668997,"chinese_name":"永胜村村民委员会","code1":"500101","code2":"023","code3":"500101139210","code4":"220","continent":"亚洲","country":"中国","province":"重庆","city":"市辖区","county":"万州区","town":"甘宁镇","village":"永胜村村民委员会"    },
    {"level":"村","longitude":108.282265,"latitude":30.668997,"chinese_name":"楠桥村村民委员会","code1":"500101","code2":"023","code3":"500101139211","code4":"220","continent":"亚洲","country":"中国","province":"重庆","city":"市辖区","county":"万州区","town":"甘宁镇","village":"楠桥村村民委员会"    },
    {"level":"村","longitude":108.282265,"latitude":30.668997,"chinese_name":"公碑村村民委员会","code1":"500101","code2":"023","code3":"500101139212","code4":"220","continent":"亚洲","country":"中国","province":"重庆","city":"市辖区","county":"万州区","town":"甘宁镇","village":"公碑村村民委员会"    },
    {"level":"村","longitude":108.282265,"latitude":30.668997,"chinese_name":"冠丰村村民委员会","code1":"500101","code2":"023","code3":"500101139213","code4":"220","continent":"亚洲","country":"中国","province":"重庆","city":"市辖区","county":"万州区","town":"甘宁镇","village":"冠丰村村民委员会"    },
    {"level":"村","longitude":108.282265,"latitude":30.668997,"chinese_name":"仙云村村民委员会","code1":"500101","code2":"023","code3":"500101139214","code4":"220","continent":"亚洲","country":"中国","province":"重庆","city":"市辖区","county":"万州区","town":"甘宁镇","village":"仙云村村民委员会"    },
    {"level":"村","longitude":108.282265,"latitude":30.668997,"chinese_name":"高桥村村民委员会","code1":"500101","code2":"023","code3":"500101139215","code4":"220","continent":"亚洲","country":"中国","province":"重庆","city":"市辖区","county":"万州区","town":"甘宁镇","village":"高桥村村民委员会"    },
    {"level":"村","longitude":108.282265,"latitude":30.668997,"chinese_name":"甘宁村村民委员会","code1":"500101","code2":"023","code3":"500101139216","code4":"220","continent":"亚洲","country":"中国","province":"重庆","city":"市辖区","county":"万州区","town":"甘宁镇","village":"甘宁村村民委员会"    },
    {"level":"村","longitude":108.282265,"latitude":30.668997,"chinese_name":"烟坡村村民委员会","code1":"500101","code2":"023","code3":"500101139217","code4":"220","continent":"亚洲","country":"中国","province":"重庆","city":"市辖区","county":"万州区","town":"甘宁镇","village":"烟坡村村民委员会"    },
    {"level":"村","longitude":108.282265,"latitude":30.668997,"chinese_name":"围灯村村民委员会","code1":"500101","code2":"023","code3":"500101139218","code4":"220","continent":"亚洲","country":"中国","province":"重庆","city":"市辖区","county":"万州区","town":"甘宁镇","village":"围灯村村民委员会"    },
    {"level":"村","longitude":108.282265,"latitude":30.668997,"chinese_name":"二屯村村民委员会","code1":"500101","code2":"023","code3":"500101139219","code4":"220","continent":"亚洲","country":"中国","province":"重庆","city":"市辖区","county":"万州区","town":"甘宁镇","village":"二屯村村民委员会"    },
    {"level":"村","longitude":108.282265,"latitude":30.668997,"chinese_name":"永平村村民委员会","code1":"500101","code2":"023","code3":"500101139220","code4":"220","continent":"亚洲","country":"中国","province":"重庆","city":"市辖区","county":"万州区","town":"甘宁镇","village":"永平村村民委员会"    },
    {"level":"村","longitude":108.282265,"latitude":30.668997,"chinese_name":"石庙村村民委员会","code1":"500101","code2":"023","code3":"500101139221","code4":"220","continent":"亚洲","country":"中国","province":"重庆","city":"市辖区","county":"万州区","town":"甘宁镇","village":"石庙村村民委员会"    },
    {"level":"村","longitude":108.282265,"latitude":30.668997,"chinese_name":"中屯村村民委员会","code1":"500101","code2":"023","code3":"500101139222","code4":"220","continent":"亚洲","country":"中国","province":"重庆","city":"市辖区","county":"万州区","town":"甘宁镇","village":"中屯村村民委员会"    },
    {"level":"村","longitude":108.282265,"latitude":30.668997,"chinese_name":"姜家村村民委员会","code1":"500101","code2":"023","code3":"500101139223","code4":"220","continent":"亚洲","country":"中国","province":"重庆","city":"市辖区","county":"万州区","town":"甘宁镇","village":"姜家村村民委员会"    },
    {"level":"村","longitude":108.282265,"latitude":30.668997,"chinese_name":"大山村村民委员会","code1":"500101","code2":"023","code3":"500101139224","code4":"220","continent":"亚洲","country":"中国","province":"重庆","city":"市辖区","county":"万州区","town":"甘宁镇","village":"大山村村民委员会"    },
    {"level":"村","longitude":108.37336,"latitude":30.868549,"chinese_name":"塘坊社区居民委员会","code1":"500101","code2":"023","code3":"500101140001","code4":"111","continent":"亚洲","country":"中国","province":"重庆","city":"市辖区","county":"万州区","town":"天城镇","village":"塘坊社区居民委员会"    },
    {"level":"村","longitude":108.37336,"latitude":30.868549,"chinese_name":"太平社区居民委员会","code1":"500101","code2":"023","code3":"500101140002","code4":"111","continent":"亚洲","country":"中国","province":"重庆","city":"市辖区","county":"万州区","town":"天城镇","village":"太平社区居民委员会"    },
    {"level":"村","longitude":108.406362,"latitude":30.883076,"chinese_name":"董家社区居民委员会","code1":"500101","code2":"023","code3":"500101140003","code4":"112","continent":"亚洲","country":"中国","province":"重庆","city":"市辖区","county":"万州区","town":"天城镇","village":"董家社区居民委员会"    },
    {"level":"村","longitude":108.37336,"latitude":30.868549,"chinese_name":"小湾社区居民委员会","code1":"500101","code2":"023","code3":"500101140004","code4":"112","continent":"亚洲","country":"中国","province":"重庆","city":"市辖区","county":"万州区","town":"天城镇","village":"小湾社区居民委员会"    },
    {"level":"村","longitude":108.37336,"latitude":30.868549,"chinese_name":"陈家社区居民委员会","code1":"500101","code2":"023","code3":"500101140005","code4":"112","continent":"亚洲","country":"中国","province":"重庆","city":"市辖区","county":"万州区","town":"天城镇","village":"陈家社区居民委员会"    },
    {"level":"村","longitude":108.34578,"latitude":30.85937,"chinese_name":"王家沟社区居民委员会","code1":"500101","code2":"023","code3":"500101140006","code4":"111","continent":"亚洲","country":"中国","province":"重庆","city":"市辖区","county":"万州区","town":"天城镇","village":"王家沟社区居民委员会"    },
    {"level":"村","longitude":108.37336,"latitude":30.868549,"chinese_name":"茅谷社区居民委员会","code1":"500101","code2":"023","code3":"500101140007","code4":"112","continent":"亚洲","country":"中国","province":"重庆","city":"市辖区","county":"万州区","town":"天城镇","village":"茅谷社区居民委员会"    },
    {"level":"村","longitude":108.37336,"latitude":30.868549,"chinese_name":"诗仙社区居民委员会","code1":"500101","code2":"023","code3":"500101140008","code4":"111","continent":"亚洲","country":"中国","province":"重庆","city":"市辖区","county":"万州区","town":"天城镇","village":"诗仙社区居民委员会"    },
    {"level":"村","longitude":108.37336,"latitude":30.868549,"chinese_name":"中坝村村民委员会","code1":"500101","code2":"023","code3":"500101140201","code4":"220","continent":"亚洲","country":"中国","province":"重庆","city":"市辖区","county":"万州区","town":"天城镇","village":"中坝村村民委员会"    },
    {"level":"村","longitude":108.37336,"latitude":30.868549,"chinese_name":"绿茶村村民委员会","code1":"500101","code2":"023","code3":"500101140202","code4":"220","continent":"亚洲","country":"中国","province":"重庆","city":"市辖区","county":"万州区","town":"天城镇","village":"绿茶村村民委员会"    },
    {"level":"村","longitude":108.37336,"latitude":30.868549,"chinese_name":"付沟村村民委员会","code1":"500101","code2":"023","code3":"500101140203","code4":"220","continent":"亚洲","country":"中国","province":"重庆","city":"市辖区","county":"万州区","town":"天城镇","village":"付沟村村民委员会"    },
    {"level":"村","longitude":108.37336,"latitude":30.868549,"chinese_name":"工农村村民委员会","code1":"500101","code2":"023","code3":"500101140204","code4":"220","continent":"亚洲","country":"中国","province":"重庆","city":"市辖区","county":"万州区","town":"天城镇","village":"工农村村民委员会"    },
    {"level":"村","longitude":108.37336,"latitude":30.868549,"chinese_name":"高寨村村民委员会","code1":"500101","code2":"023","code3":"500101140205","code4":"220","continent":"亚洲","country":"中国","province":"重庆","city":"市辖区","county":"万州区","town":"天城镇","village":"高寨村村民委员会"    },
    {"level":"村","longitude":108.37336,"latitude":30.868549,"chinese_name":"麻柳村村民委员会","code1":"500101","code2":"023","code3":"500101140208","code4":"220","continent":"亚洲","country":"中国","province":"重庆","city":"市辖区","county":"万州区","town":"天城镇","village":"麻柳村村民委员会"    },
    {"level":"村","longitude":108.37336,"latitude":30.868549,"chinese_name":"老岩村村民委员会","code1":"500101","code2":"023","code3":"500101140209","code4":"220","continent":"亚洲","country":"中国","province":"重庆","city":"市辖区","county":"万州区","town":"天城镇","village":"老岩村村民委员会"    },
    {"level":"村","longitude":108.36763,"latitude":30.882828,"chinese_name":"万河村村民委员会","code1":"500101","code2":"023","code3":"500101140210","code4":"112","continent":"亚洲","country":"中国","province":"重庆","city":"市辖区","county":"万州区","town":"天城镇","village":"万河村村民委员会"    },
    {"level":"村","longitude":108.438181,"latitude":30.89962,"chinese_name":"半边井社区居民委员会","code1":"500101","code2":"023","code3":"500101141001","code4":"121","continent":"亚洲","country":"中国","province":"重庆","city":"市辖区","county":"万州区","town":"熊家镇","village":"半边井社区居民委员会"    },
    {"level":"村","longitude":108.438181,"latitude":30.89962,"chinese_name":"响水滩社区居民委员会","code1":"500101","code2":"023","code3":"500101141002","code4":"121","continent":"亚洲","country":"中国","province":"重庆","city":"市辖区","county":"万州区","town":"熊家镇","village":"响水滩社区居民委员会"    },
    {"level":"村","longitude":108.438181,"latitude":30.89962,"chinese_name":"红星村村民委员会","code1":"500101","code2":"023","code3":"500101141200","code4":"220","continent":"亚洲","country":"中国","province":"重庆","city":"市辖区","county":"万州区","town":"熊家镇","village":"红星村村民委员会"    },
    {"level":"村","longitude":108.438181,"latitude":30.89962,"chinese_name":"古城村村民委员会","code1":"500101","code2":"023","code3":"500101141201","code4":"121","continent":"亚洲","country":"中国","province":"重庆","city":"市辖区","county":"万州区","town":"熊家镇","village":"古城村村民委员会"    },
    {"level":"村","longitude":108.438181,"latitude":30.89962,"chinese_name":"白水村村民委员会","code1":"500101","code2":"023","code3":"500101141202","code4":"220","continent":"亚洲","country":"中国","province":"重庆","city":"市辖区","county":"万州区","town":"熊家镇","village":"白水村村民委员会"    },
    {"level":"村","longitude":108.438181,"latitude":30.89962,"chinese_name":"庄子村村民委员会","code1":"500101","code2":"023","code3":"500101141203","code4":"220","continent":"亚洲","country":"中国","province":"重庆","city":"市辖区","county":"万州区","town":"熊家镇","village":"庄子村村民委员会"    },
    {"level":"村","longitude":108.438181,"latitude":30.89962,"chinese_name":"石公村村民委员会","code1":"500101","code2":"023","code3":"500101141204","code4":"220","continent":"亚洲","country":"中国","province":"重庆","city":"市辖区","county":"万州区","town":"熊家镇","village":"石公村村民委员会"    },
    {"level":"村","longitude":108.438181,"latitude":30.89962,"chinese_name":"万家村村民委员会","code1":"500101","code2":"023","code3":"500101141205","code4":"220","continent":"亚洲","country":"中国","province":"重庆","city":"市辖区","county":"万州区","town":"熊家镇","village":"万家村村民委员会"    },
    {"level":"村","longitude":108.438181,"latitude":30.89962,"chinese_name":"举安村村民委员会","code1":"500101","code2":"023","code3":"500101141206","code4":"220","continent":"亚洲","country":"中国","province":"重庆","city":"市辖区","county":"万州区","town":"熊家镇","village":"举安村村民委员会"    },
    {"level":"村","longitude":108.438181,"latitude":30.89962,"chinese_name":"腊烛村村民委员会","code1":"500101","code2":"023","code3":"500101141207","code4":"220","continent":"亚洲","country":"中国","province":"重庆","city":"市辖区","county":"万州区","town":"熊家镇","village":"腊烛村村民委员会"    },
    {"level":"村","longitude":108.438181,"latitude":30.89962,"chinese_name":"燕子村村民委员会","code1":"500101","code2":"023","code3":"500101141208","code4":"220","continent":"亚洲","country":"中国","province":"重庆","city":"市辖区","county":"万州区","town":"熊家镇","village":"燕子村村民委员会"    },
    {"level":"村","longitude":108.438181,"latitude":30.89962,"chinese_name":"松柏村村民委员会","code1":"500101","code2":"023","code3":"500101141209","code4":"220","continent":"亚洲","country":"中国","province":"重庆","city":"市辖区","county":"万州区","town":"熊家镇","village":"松柏村村民委员会"    },
    {"level":"村","longitude":108.305503,"latitude":30.82439,"chinese_name":"高梁场社区居民委员会","code1":"500101","code2":"023","code3":"500101142001","code4":"121","continent":"亚洲","country":"中国","province":"重庆","city":"市辖区","county":"万州区","town":"高梁镇","village":"高梁场社区居民委员会"    },
    {"level":"村","longitude":108.305503,"latitude":30.82439,"chinese_name":"新店子社区居民委员会","code1":"500101","code2":"023","code3":"500101142002","code4":"220","continent":"亚洲","country":"中国","province":"重庆","city":"市辖区","county":"万州区","town":"高梁镇","village":"新店子社区居民委员会"    },
    {"level":"村","longitude":108.305503,"latitude":30.82439,"chinese_name":"五梁桥社区居民委员会","code1":"500101","code2":"023","code3":"500101142003","code4":"220","continent":"亚洲","country":"中国","province":"重庆","city":"市辖区","county":"万州区","town":"高梁镇","village":"五梁桥社区居民委员会"    },
    {"level":"村","longitude":108.305503,"latitude":30.82439,"chinese_name":"大碑寺社区居民委员会","code1":"500101","code2":"023","code3":"500101142004","code4":"220","continent":"亚洲","country":"中国","province":"重庆","city":"市辖区","county":"万州区","town":"高梁镇","village":"大碑寺社区居民委员会"    },
    {"level":"村","longitude":108.305503,"latitude":30.82439,"chinese_name":"福安路社区居民委员会","code1":"500101","code2":"023","code3":"500101142005","code4":"220","continent":"亚洲","country":"中国","province":"重庆","city":"市辖区","county":"万州区","town":"高梁镇","village":"福安路社区居民委员会"    },
    {"level":"村","longitude":108.305503,"latitude":30.82439,"chinese_name":"杨金社区居民委员会","code1":"500101","code2":"023","code3":"500101142006","code4":"122","continent":"亚洲","country":"中国","province":"重庆","city":"市辖区","county":"万州区","town":"高梁镇","village":"杨金社区居民委员会"    },
    {"level":"村","longitude":108.305503,"latitude":30.82439,"chinese_name":"沙坝村村民委员会","code1":"500101","code2":"023","code3":"500101142200","code4":"220","continent":"亚洲","country":"中国","province":"重庆","city":"市辖区","county":"万州区","town":"高梁镇","village":"沙坝村村民委员会"    },
    {"level":"村","longitude":108.305503,"latitude":30.82439,"chinese_name":"新店村村民委员会","code1":"500101","code2":"023","code3":"500101142201","code4":"220","continent":"亚洲","country":"中国","province":"重庆","city":"市辖区","county":"万州区","town":"高梁镇","village":"新店村村民委员会"    },
    {"level":"村","longitude":108.305503,"latitude":30.82439,"chinese_name":"香良村村民委员会","code1":"500101","code2":"023","code3":"500101142202","code4":"220","continent":"亚洲","country":"中国","province":"重庆","city":"市辖区","county":"万州区","town":"高梁镇","village":"香良村村民委员会"    },
    {"level":"村","longitude":108.305503,"latitude":30.82439,"chinese_name":"三清村村民委员会","code1":"500101","code2":"023","code3":"500101142203","code4":"220","continent":"亚洲","country":"中国","province":"重庆","city":"市辖区","county":"万州区","town":"高梁镇","village":"三清村村民委员会"    },
    {"level":"村","longitude":108.305503,"latitude":30.82439,"chinese_name":"长春村村民委员会","code1":"500101","code2":"023","code3":"500101142204","code4":"220","continent":"亚洲","country":"中国","province":"重庆","city":"市辖区","county":"万州区","town":"高梁镇","village":"长春村村民委员会"    },
    {"level":"村","longitude":108.305503,"latitude":30.82439,"chinese_name":"千家村村民委员会","code1":"500101","code2":"023","code3":"500101142205","code4":"220","continent":"亚洲","country":"中国","province":"重庆","city":"市辖区","county":"万州区","town":"高梁镇","village":"千家村村民委员会"    },
    {"level":"村","longitude":108.305503,"latitude":30.82439,"chinese_name":"五福村村民委员会","code1":"500101","code2":"023","code3":"500101142206","code4":"220","continent":"亚洲","country":"中国","province":"重庆","city":"市辖区","county":"万州区","town":"高梁镇","village":"五福村村民委员会"    },
    {"level":"村","longitude":108.305503,"latitude":30.82439,"chinese_name":"康胜村村民委员会","code1":"500101","code2":"023","code3":"500101142207","code4":"220","continent":"亚洲","country":"中国","province":"重庆","city":"市辖区","county":"万州区","town":"高梁镇","village":"康胜村村民委员会"    },
    {"level":"村","longitude":108.305503,"latitude":30.82439,"chinese_name":"大碑村村民委员会","code1":"500101","code2":"023","code3":"500101142208","code4":"220","continent":"亚洲","country":"中国","province":"重庆","city":"市辖区","county":"万州区","town":"高梁镇","village":"大碑村村民委员会"    },
    {"level":"村","longitude":108.305503,"latitude":30.82439,"chinese_name":"天鹅村村民委员会","code1":"500101","code2":"023","code3":"500101142209","code4":"220","continent":"亚洲","country":"中国","province":"重庆","city":"市辖区","county":"万州区","town":"高梁镇","village":"天鹅村村民委员会"    },
    {"level":"村","longitude":108.305503,"latitude":30.82439,"chinese_name":"庙垭村村民委员会","code1":"500101","code2":"023","code3":"500101142210","code4":"220","continent":"亚洲","country":"中国","province":"重庆","city":"市辖区","county":"万州区","town":"高梁镇","village":"庙垭村村民委员会"    },
    {"level":"村","longitude":108.305503,"latitude":30.82439,"chinese_name":"茨坪村村民委员会","code1":"500101","code2":"023","code3":"500101142211","code4":"220","continent":"亚洲","country":"中国","province":"重庆","city":"市辖区","county":"万州区","town":"高梁镇","village":"茨坪村村民委员会"    },
    {"level":"村","longitude":108.305503,"latitude":30.82439,"chinese_name":"顺安村村民委员会","code1":"500101","code2":"023","code3":"500101142212","code4":"220","continent":"亚洲","country":"中国","province":"重庆","city":"市辖区","county":"万州区","town":"高梁镇","village":"顺安村村民委员会"    },
    {"level":"村","longitude":108.305503,"latitude":30.82439,"chinese_name":"三义村村民委员会","code1":"500101","code2":"023","code3":"500101142213","code4":"220","continent":"亚洲","country":"中国","province":"重庆","city":"市辖区","county":"万州区","town":"高梁镇","village":"三义村村民委员会"    },
    {"level":"村","longitude":108.305503,"latitude":30.82439,"chinese_name":"豪家村村民委员会","code1":"500101","code2":"023","code3":"500101142214","code4":"220","continent":"亚洲","country":"中国","province":"重庆","city":"市辖区","county":"万州区","town":"高梁镇","village":"豪家村村民委员会"    },
    {"level":"村","longitude":108.305503,"latitude":30.82439,"chinese_name":"桐槽村村民委员会","code1":"500101","code2":"023","code3":"500101142215","code4":"220","continent":"亚洲","country":"中国","province":"重庆","city":"市辖区","county":"万州区","town":"高梁镇","village":"桐槽村村民委员会"    },
    {"level":"村","longitude":108.266139,"latitude":30.815786,"chinese_name":"国光社区居民委员会","code1":"500101","code2":"023","code3":"500101143001","code4":"121","continent":"亚洲","country":"中国","province":"重庆","city":"市辖区","county":"万州区","town":"李河镇","village":"国光社区居民委员会"    },
    {"level":"村","longitude":108.266139,"latitude":30.815786,"chinese_name":"兴盛路社区居民委员会","code1":"500101","code2":"023","code3":"500101143002","code4":"121","continent":"亚洲","country":"中国","province":"重庆","city":"市辖区","county":"万州区","town":"李河镇","village":"兴盛路社区居民委员会"    },
    {"level":"村","longitude":108.266139,"latitude":30.815786,"chinese_name":"油房坝社区居民委员会","code1":"500101","code2":"023","code3":"500101143003","code4":"121","continent":"亚洲","country":"中国","province":"重庆","city":"市辖区","county":"万州区","town":"李河镇","village":"油房坝社区居民委员会"    },
    {"level":"村","longitude":108.266139,"latitude":30.815786,"chinese_name":"平安村村民委员会","code1":"500101","code2":"023","code3":"500101143200","code4":"220","continent":"亚洲","country":"中国","province":"重庆","city":"市辖区","county":"万州区","town":"李河镇","village":"平安村村民委员会"    },
    {"level":"村","longitude":108.266139,"latitude":30.815786,"chinese_name":"李河村村民委员会","code1":"500101","code2":"023","code3":"500101143201","code4":"220","continent":"亚洲","country":"中国","province":"重庆","city":"市辖区","county":"万州区","town":"李河镇","village":"李河村村民委员会"    },
    {"level":"村","longitude":108.266139,"latitude":30.815786,"chinese_name":"福寺村村民委员会","code1":"500101","code2":"023","code3":"500101143202","code4":"220","continent":"亚洲","country":"中国","province":"重庆","city":"市辖区","county":"万州区","town":"李河镇","village":"福寺村村民委员会"    },
    {"level":"村","longitude":108.266139,"latitude":30.815786,"chinese_name":"天地村村民委员会","code1":"500101","code2":"023","code3":"500101143203","code4":"220","continent":"亚洲","country":"中国","province":"重庆","city":"市辖区","county":"万州区","town":"李河镇","village":"天地村村民委员会"    },
    {"level":"村","longitude":108.266139,"latitude":30.815786,"chinese_name":"十字村村民委员会","code1":"500101","code2":"023","code3":"500101143204","code4":"220","continent":"亚洲","country":"中国","province":"重庆","city":"市辖区","county":"万州区","town":"李河镇","village":"十字村村民委员会"    },
    {"level":"村","longitude":108.266139,"latitude":30.815786,"chinese_name":"高升村村民委员会","code1":"500101","code2":"023","code3":"500101143205","code4":"220","continent":"亚洲","country":"中国","province":"重庆","city":"市辖区","county":"万州区","town":"李河镇","village":"高升村村民委员会"    },
    {"level":"村","longitude":108.266139,"latitude":30.815786,"chinese_name":"彭河村村民委员会","code1":"500101","code2":"023","code3":"500101143206","code4":"220","continent":"亚洲","country":"中国","province":"重庆","city":"市辖区","county":"万州区","town":"李河镇","village":"彭河村村民委员会"    },
    {"level":"村","longitude":108.266139,"latitude":30.815786,"chinese_name":"骑龙村村民委员会","code1":"500101","code2":"023","code3":"500101143207","code4":"220","continent":"亚洲","country":"中国","province":"重庆","city":"市辖区","county":"万州区","town":"李河镇","village":"骑龙村村民委员会"    },
    {"level":"村","longitude":108.266139,"latitude":30.815786,"chinese_name":"荆煤村村民委员会","code1":"500101","code2":"023","code3":"500101143208","code4":"220","continent":"亚洲","country":"中国","province":"重庆","city":"市辖区","county":"万州区","town":"李河镇","village":"荆煤村村民委员会"    },
    {"level":"村","longitude":108.266139,"latitude":30.815786,"chinese_name":"七里村村民委员会","code1":"500101","code2":"023","code3":"500101143209","code4":"220","continent":"亚洲","country":"中国","province":"重庆","city":"市辖区","county":"万州区","town":"李河镇","village":"七里村村民委员会"    },
    {"level":"村","longitude":108.266139,"latitude":30.815786,"chinese_name":"棕花村村民委员会","code1":"500101","code2":"023","code3":"500101143210","code4":"220","continent":"亚洲","country":"中国","province":"重庆","city":"市辖区","county":"万州区","town":"李河镇","village":"棕花村村民委员会"    },
    {"level":"村","longitude":108.266139,"latitude":30.815786,"chinese_name":"蒲团村村民委员会","code1":"500101","code2":"023","code3":"500101143211","code4":"220","continent":"亚洲","country":"中国","province":"重庆","city":"市辖区","county":"万州区","town":"李河镇","village":"蒲团村村民委员会"    },
    {"level":"村","longitude":108.266139,"latitude":30.815786,"chinese_name":"洞沟村村民委员会","code1":"500101","code2":"023","code3":"500101143212","code4":"220","continent":"亚洲","country":"中国","province":"重庆","city":"市辖区","county":"万州区","town":"李河镇","village":"洞沟村村民委员会"    },
    {"level":"村","longitude":108.266139,"latitude":30.815786,"chinese_name":"小城村村民委员会","code1":"500101","code2":"023","code3":"500101143213","code4":"220","continent":"亚洲","country":"中国","province":"重庆","city":"市辖区","county":"万州区","town":"李河镇","village":"小城村村民委员会"    },
    {"level":"村","longitude":108.086862,"latitude":30.717724,"chinese_name":"枣园场社区居民委员会","code1":"500101","code2":"023","code3":"500101144001","code4":"220","continent":"亚洲","country":"中国","province":"重庆","city":"市辖区","county":"万州区","town":"分水镇","village":"枣园场社区居民委员会"    },
    {"level":"村","longitude":108.086862,"latitude":30.717724,"chinese_name":"大兴场社区居民委员会","code1":"500101","code2":"023","code3":"500101144002","code4":"220","continent":"亚洲","country":"中国","province":"重庆","city":"市辖区","county":"万州区","town":"分水镇","village":"大兴场社区居民委员会"    },
    {"level":"村","longitude":108.086862,"latitude":30.717724,"chinese_name":"分水岭社区居民委员会","code1":"500101","code2":"023","code3":"500101144003","code4":"121","continent":"亚洲","country":"中国","province":"重庆","city":"市辖区","county":"万州区","town":"分水镇","village":"分水岭社区居民委员会"    },
    {"level":"村","longitude":108.086862,"latitude":30.717724,"chinese_name":"张家嘴社区居民委员会","code1":"500101","code2":"023","code3":"500101144004","code4":"220","continent":"亚洲","country":"中国","province":"重庆","city":"市辖区","county":"万州区","town":"分水镇","village":"张家嘴社区居民委员会"    },
    {"level":"村","longitude":108.086862,"latitude":30.717724,"chinese_name":"三正埠社区居民委员会","code1":"500101","code2":"023","code3":"500101144005","code4":"220","continent":"亚洲","country":"中国","province":"重庆","city":"市辖区","county":"万州区","town":"分水镇","village":"三正埠社区居民委员会"    },
    {"level":"村","longitude":108.086862,"latitude":30.717724,"chinese_name":"黄泥社区居民委员会","code1":"500101","code2":"023","code3":"500101144006","code4":"220","continent":"亚洲","country":"中国","province":"重庆","city":"市辖区","county":"万州区","town":"分水镇","village":"黄泥社区居民委员会"    },
    {"level":"村","longitude":108.086862,"latitude":30.717724,"chinese_name":"三元社区居民委员会","code1":"500101","code2":"023","code3":"500101144007","code4":"220","continent":"亚洲","country":"中国","province":"重庆","city":"市辖区","county":"万州区","town":"分水镇","village":"三元社区居民委员会"    },
    {"level":"村","longitude":108.086862,"latitude":30.717724,"chinese_name":"王场社区居民委员会","code1":"500101","code2":"023","code3":"500101144008","code4":"220","continent":"亚洲","country":"中国","province":"重庆","city":"市辖区","county":"万州区","town":"分水镇","village":"王场社区居民委员会"    },
    {"level":"村","longitude":108.086862,"latitude":30.717724,"chinese_name":"石碾村村民委员会","code1":"500101","code2":"023","code3":"500101144200","code4":"220","continent":"亚洲","country":"中国","province":"重庆","city":"市辖区","county":"万州区","town":"分水镇","village":"石碾村村民委员会"    },
    {"level":"村","longitude":108.086862,"latitude":30.717724,"chinese_name":"大地村村民委员会","code1":"500101","code2":"023","code3":"500101144201","code4":"220","continent":"亚洲","country":"中国","province":"重庆","city":"市辖区","county":"万州区","town":"分水镇","village":"大地村村民委员会"    },
    {"level":"村","longitude":108.086862,"latitude":30.717724,"chinese_name":"五马村村民委员会","code1":"500101","code2":"023","code3":"500101144202","code4":"220","continent":"亚洲","country":"中国","province":"重庆","city":"市辖区","county":"万州区","town":"分水镇","village":"五马村村民委员会"    },
    {"level":"村","longitude":108.086862,"latitude":30.717724,"chinese_name":"新石村村民委员会","code1":"500101","code2":"023","code3":"500101144203","code4":"122","continent":"亚洲","country":"中国","province":"重庆","city":"市辖区","county":"万州区","town":"分水镇","village":"新石村村民委员会"    },
    {"level":"村","longitude":108.086862,"latitude":30.717724,"chinese_name":"竹山村村民委员会","code1":"500101","code2":"023","code3":"500101144204","code4":"220","continent":"亚洲","country":"中国","province":"重庆","city":"市辖区","county":"万州区","town":"分水镇","village":"竹山村村民委员会"    },
    {"level":"村","longitude":108.086862,"latitude":30.717724,"chinese_name":"川兴村村民委员会","code1":"500101","code2":"023","code3":"500101144205","code4":"220","continent":"亚洲","country":"中国","province":"重庆","city":"市辖区","county":"万州区","town":"分水镇","village":"川兴村村民委员会"    },
    {"level":"村","longitude":108.086862,"latitude":30.717724,"chinese_name":"三正村村民委员会","code1":"500101","code2":"023","code3":"500101144206","code4":"220","continent":"亚洲","country":"中国","province":"重庆","city":"市辖区","county":"万州区","town":"分水镇","village":"三正村村民委员会"    },
    {"level":"村","longitude":108.086862,"latitude":30.717724,"chinese_name":"双红村村民委员会","code1":"500101","code2":"023","code3":"500101144207","code4":"220","continent":"亚洲","country":"中国","province":"重庆","city":"市辖区","county":"万州区","town":"分水镇","village":"双红村村民委员会"    },
    {"level":"村","longitude":108.086862,"latitude":30.717724,"chinese_name":"辣子村村民委员会","code1":"500101","code2":"023","code3":"500101144208","code4":"220","continent":"亚洲","country":"中国","province":"重庆","city":"市辖区","county":"万州区","town":"分水镇","village":"辣子村村民委员会"    },
    {"level":"村","longitude":108.086862,"latitude":30.717724,"chinese_name":"茶坪村村民委员会","code1":"500101","code2":"023","code3":"500101144209","code4":"220","continent":"亚洲","country":"中国","province":"重庆","city":"市辖区","county":"万州区","town":"分水镇","village":"茶坪村村民委员会"    },
    {"level":"村","longitude":108.086862,"latitude":30.717724,"chinese_name":"王兴村村民委员会","code1":"500101","code2":"023","code3":"500101144210","code4":"220","continent":"亚洲","country":"中国","province":"重庆","city":"市辖区","county":"万州区","town":"分水镇","village":"王兴村村民委员会"    },
    {"level":"村","longitude":108.086862,"latitude":30.717724,"chinese_name":"双城村村民委员会","code1":"500101","code2":"023","code3":"500101144211","code4":"220","continent":"亚洲","country":"中国","province":"重庆","city":"市辖区","county":"万州区","town":"分水镇","village":"双城村村民委员会"    },
    {"level":"村","longitude":108.086862,"latitude":30.717724,"chinese_name":"枣园村村民委员会","code1":"500101","code2":"023","code3":"500101144212","code4":"220","continent":"亚洲","country":"中国","province":"重庆","city":"市辖区","county":"万州区","town":"分水镇","village":"枣园村村民委员会"    },
    {"level":"村","longitude":108.086862,"latitude":30.717724,"chinese_name":"三角凼村村民委员会","code1":"500101","code2":"023","code3":"500101144213","code4":"220","continent":"亚洲","country":"中国","province":"重庆","city":"市辖区","county":"万州区","town":"分水镇","village":"三角凼村村民委员会"    },
    {"level":"村","longitude":108.086862,"latitude":30.717724,"chinese_name":"红豆村村民委员会","code1":"500101","code2":"023","code3":"500101144214","code4":"220","continent":"亚洲","country":"中国","province":"重庆","city":"市辖区","county":"万州区","town":"分水镇","village":"红豆村村民委员会"    },
    {"level":"村","longitude":108.086862,"latitude":30.717724,"chinese_name":"黄泥凼村村民委员会","code1":"500101","code2":"023","code3":"500101144215","code4":"220","continent":"亚洲","country":"中国","province":"重庆","city":"市辖区","county":"万州区","town":"分水镇","village":"黄泥凼村村民委员会"    },
    {"level":"村","longitude":108.086862,"latitude":30.717724,"chinese_name":"大冲村村民委员会","code1":"500101","code2":"023","code3":"500101144216","code4":"220","continent":"亚洲","country":"中国","province":"重庆","city":"市辖区","county":"万州区","town":"分水镇","village":"大冲村村民委员会"    },
    {"level":"村","longitude":108.086862,"latitude":30.717724,"chinese_name":"花屋村村民委员会","code1":"500101","code2":"023","code3":"500101144217","code4":"220","continent":"亚洲","country":"中国","province":"重庆","city":"市辖区","county":"万州区","town":"分水镇","village":"花屋村村民委员会"    },
    {"level":"村","longitude":108.086862,"latitude":30.717724,"chinese_name":"三元村村民委员会","code1":"500101","code2":"023","code3":"500101144218","code4":"220","continent":"亚洲","country":"中国","province":"重庆","city":"市辖区","county":"万州区","town":"分水镇","village":"三元村村民委员会"    },
    {"level":"村","longitude":108.086862,"latitude":30.717724,"chinese_name":"培文村村民委员会","code1":"500101","code2":"023","code3":"500101144219","code4":"220","continent":"亚洲","country":"中国","province":"重庆","city":"市辖区","county":"万州区","town":"分水镇","village":"培文村村民委员会"    },
    {"level":"村","longitude":108.086862,"latitude":30.717724,"chinese_name":"郎家村村民委员会","code1":"500101","code2":"023","code3":"500101144220","code4":"220","continent":"亚洲","country":"中国","province":"重庆","city":"市辖区","county":"万州区","town":"分水镇","village":"郎家村村民委员会"    },
    {"level":"村","longitude":108.086862,"latitude":30.717724,"chinese_name":"八角村村民委员会","code1":"500101","code2":"023","code3":"500101144221","code4":"220","continent":"亚洲","country":"中国","province":"重庆","city":"市辖区","county":"万州区","town":"分水镇","village":"八角村村民委员会"    },
    {"level":"村","longitude":108.086862,"latitude":30.717724,"chinese_name":"红古村村民委员会","code1":"500101","code2":"023","code3":"500101144222","code4":"220","continent":"亚洲","country":"中国","province":"重庆","city":"市辖区","county":"万州区","town":"分水镇","village":"红古村村民委员会"    },
    {"level":"村","longitude":108.086862,"latitude":30.717724,"chinese_name":"龚家弯村村民委员会","code1":"500101","code2":"023","code3":"500101144223","code4":"220","continent":"亚洲","country":"中国","province":"重庆","city":"市辖区","county":"万州区","town":"分水镇","village":"龚家弯村村民委员会"    },
    {"level":"村","longitude":108.086862,"latitude":30.717724,"chinese_name":"大兴村村民委员会","code1":"500101","code2":"023","code3":"500101144224","code4":"220","continent":"亚洲","country":"中国","province":"重庆","city":"市辖区","county":"万州区","town":"分水镇","village":"大兴村村民委员会"    },
    {"level":"村","longitude":107.962104,"latitude":30.801498,"chinese_name":"老街社区居民委员会","code1":"500101","code2":"023","code3":"500101145001","code4":"121","continent":"亚洲","country":"中国","province":"重庆","city":"市辖区","county":"万州区","town":"余家镇","village":"老街社区居民委员会"    },
    {"level":"村","longitude":107.962104,"latitude":30.801498,"chinese_name":"岔路口社区居民委员会","code1":"500101","code2":"023","code3":"500101145002","code4":"121","continent":"亚洲","country":"中国","province":"重庆","city":"市辖区","county":"万州区","town":"余家镇","village":"岔路口社区居民委员会"    },
    {"level":"村","longitude":107.962104,"latitude":30.801498,"chinese_name":"关龙场社区居民委员会","code1":"500101","code2":"023","code3":"500101145003","code4":"220","continent":"亚洲","country":"中国","province":"重庆","city":"市辖区","county":"万州区","town":"余家镇","village":"关龙场社区居民委员会"    },
    {"level":"村","longitude":107.962104,"latitude":30.801498,"chinese_name":"邵家场社区居民委员会","code1":"500101","code2":"023","code3":"500101145004","code4":"220","continent":"亚洲","country":"中国","province":"重庆","city":"市辖区","county":"万州区","town":"余家镇","village":"邵家场社区居民委员会"    },
    {"level":"村","longitude":107.962104,"latitude":30.801498,"chinese_name":"回龙场社区居民委员会","code1":"500101","code2":"023","code3":"500101145005","code4":"220","continent":"亚洲","country":"中国","province":"重庆","city":"市辖区","county":"万州区","town":"余家镇","village":"回龙场社区居民委员会"    },
    {"level":"村","longitude":107.962104,"latitude":30.801498,"chinese_name":"关龙村村民委员会","code1":"500101","code2":"023","code3":"500101145200","code4":"220","continent":"亚洲","country":"中国","province":"重庆","city":"市辖区","county":"万州区","town":"余家镇","village":"关龙村村民委员会"    },
    {"level":"村","longitude":107.962104,"latitude":30.801498,"chinese_name":"桥亭村村民委员会","code1":"500101","code2":"023","code3":"500101145201","code4":"220","continent":"亚洲","country":"中国","province":"重庆","city":"市辖区","county":"万州区","town":"余家镇","village":"桥亭村村民委员会"    },
    {"level":"村","longitude":107.962104,"latitude":30.801498,"chinese_name":"铁炉村村民委员会","code1":"500101","code2":"023","code3":"500101145202","code4":"220","continent":"亚洲","country":"中国","province":"重庆","city":"市辖区","county":"万州区","town":"余家镇","village":"铁炉村村民委员会"    },
    {"level":"村","longitude":107.962104,"latitude":30.801498,"chinese_name":"硝水村村民委员会","code1":"500101","code2":"023","code3":"500101145203","code4":"220","continent":"亚洲","country":"中国","province":"重庆","city":"市辖区","county":"万州区","town":"余家镇","village":"硝水村村民委员会"    },
    {"level":"村","longitude":107.962104,"latitude":30.801498,"chinese_name":"万安村村民委员会","code1":"500101","code2":"023","code3":"500101145204","code4":"122","continent":"亚洲","country":"中国","province":"重庆","city":"市辖区","county":"万州区","town":"余家镇","village":"万安村村民委员会"    },
    {"level":"村","longitude":107.962104,"latitude":30.801498,"chinese_name":"柏桐村村民委员会","code1":"500101","code2":"023","code3":"500101145205","code4":"220","continent":"亚洲","country":"中国","province":"重庆","city":"市辖区","county":"万州区","town":"余家镇","village":"柏桐村村民委员会"    },
    {"level":"村","longitude":107.962104,"latitude":30.801498,"chinese_name":"安平村村民委员会","code1":"500101","code2":"023","code3":"500101145206","code4":"220","continent":"亚洲","country":"中国","province":"重庆","city":"市辖区","county":"万州区","town":"余家镇","village":"安平村村民委员会"    },
    {"level":"村","longitude":107.962104,"latitude":30.801498,"chinese_name":"九龙村村民委员会","code1":"500101","code2":"023","code3":"500101145207","code4":"220","continent":"亚洲","country":"中国","province":"重庆","city":"市辖区","county":"万州区","town":"余家镇","village":"九龙村村民委员会"    },
    {"level":"村","longitude":107.962104,"latitude":30.801498,"chinese_name":"饶家村村民委员会","code1":"500101","code2":"023","code3":"500101145208","code4":"220","continent":"亚洲","country":"中国","province":"重庆","city":"市辖区","county":"万州区","town":"余家镇","village":"饶家村村民委员会"    },
    {"level":"村","longitude":107.962104,"latitude":30.801498,"chinese_name":"余家村村民委员会","code1":"500101","code2":"023","code3":"500101145209","code4":"220","continent":"亚洲","country":"中国","province":"重庆","city":"市辖区","county":"万州区","town":"余家镇","village":"余家村村民委员会"    },
    {"level":"村","longitude":107.962104,"latitude":30.801498,"chinese_name":"凤池村村民委员会","code1":"500101","code2":"023","code3":"500101145210","code4":"220","continent":"亚洲","country":"中国","province":"重庆","city":"市辖区","county":"万州区","town":"余家镇","village":"凤池村村民委员会"    },
    {"level":"村","longitude":107.962104,"latitude":30.801498,"chinese_name":"五一村村民委员会","code1":"500101","code2":"023","code3":"500101145211","code4":"220","continent":"亚洲","country":"中国","province":"重庆","city":"市辖区","county":"万州区","town":"余家镇","village":"五一村村民委员会"    },
    {"level":"村","longitude":107.962104,"latitude":30.801498,"chinese_name":"三河村村民委员会","code1":"500101","code2":"023","code3":"500101145212","code4":"220","continent":"亚洲","country":"中国","province":"重庆","city":"市辖区","county":"万州区","town":"余家镇","village":"三河村村民委员会"    },
    {"level":"村","longitude":107.962104,"latitude":30.801498,"chinese_name":"李垭村村民委员会","code1":"500101","code2":"023","code3":"500101145213","code4":"220","continent":"亚洲","country":"中国","province":"重庆","city":"市辖区","county":"万州区","town":"余家镇","village":"李垭村村民委员会"    },
    {"level":"村","longitude":107.962104,"latitude":30.801498,"chinese_name":"回龙村村民委员会","code1":"500101","code2":"023","code3":"500101145214","code4":"220","continent":"亚洲","country":"中国","province":"重庆","city":"市辖区","county":"万州区","town":"余家镇","village":"回龙村村民委员会"    },
    {"level":"村","longitude":107.962104,"latitude":30.801498,"chinese_name":"钟楼村村民委员会","code1":"500101","code2":"023","code3":"500101145215","code4":"220","continent":"亚洲","country":"中国","province":"重庆","city":"市辖区","county":"万州区","town":"余家镇","village":"钟楼村村民委员会"    },
    {"level":"村","longitude":107.962104,"latitude":30.801498,"chinese_name":"同心村村民委员会","code1":"500101","code2":"023","code3":"500101145216","code4":"220","continent":"亚洲","country":"中国","province":"重庆","city":"市辖区","county":"万州区","town":"余家镇","village":"同心村村民委员会"    },
    {"level":"村","longitude":107.962104,"latitude":30.801498,"chinese_name":"张河村村民委员会","code1":"500101","code2":"023","code3":"500101145217","code4":"220","continent":"亚洲","country":"中国","province":"重庆","city":"市辖区","county":"万州区","town":"余家镇","village":"张河村村民委员会"    },
    {"level":"村","longitude":107.962104,"latitude":30.801498,"chinese_name":"千银村村民委员会","code1":"500101","code2":"023","code3":"500101145218","code4":"220","continent":"亚洲","country":"中国","province":"重庆","city":"市辖区","county":"万州区","town":"余家镇","village":"千银村村民委员会"    },
    {"level":"村","longitude":107.962104,"latitude":30.801498,"chinese_name":"邵家村村民委员会","code1":"500101","code2":"023","code3":"500101145219","code4":"220","continent":"亚洲","country":"中国","province":"重庆","city":"市辖区","county":"万州区","town":"余家镇","village":"邵家村村民委员会"    },