{"GeographyCode": [
    {"level":"村","longitude":101.800292,"latitude":36.617153,"chinese_name":"北关社区居民委员会","code1":"630102","code2":"0971","code3":"630102001001","code4":"111","continent":"亚洲","country":"中国","province":"青海","city":"西宁","county":"城东区","town":"东关大街街道","village":"北关社区居民委员会"    },
    {"level":"村","longitude":101.801476,"latitude":36.615698,"chinese_name":"慈幼社区居民委员会","code1":"630102","code2":"0971","code3":"630102001004","code4":"111","continent":"亚洲","country":"中国","province":"青海","city":"西宁","county":"城东区","town":"东关大街街道","village":"慈幼社区居民委员会"    },
    {"level":"村","longitude":101.801476,"latitude":36.615698,"chinese_name":"五一社区居民委员会","code1":"630102","code2":"0971","code3":"630102001005","code4":"111","continent":"亚洲","country":"中国","province":"青海","city":"西宁","county":"城东区","town":"东关大街街道","village":"五一社区居民委员会"    },
    {"level":"村","longitude":101.8012,"latitude":36.6191,"chinese_name":"团结社区居民委员会","code1":"630102","code2":"0971","code3":"630102002008","code4":"111","continent":"亚洲","country":"中国","province":"青海","city":"西宁","county":"城东区","town":"清真巷街道","village":"团结社区居民委员会"    },
    {"level":"村","longitude":101.8012,"latitude":36.6191,"chinese_name":"夏都花园社区居民委员会","code1":"630102","code2":"0971","code3":"630102002009","code4":"111","continent":"亚洲","country":"中国","province":"青海","city":"西宁","county":"城东区","town":"清真巷街道","village":"夏都花园社区居民委员会"    },
    {"level":"村","longitude":101.8012,"latitude":36.6191,"chinese_name":"南小街社区居民委员会","code1":"630102","code2":"0971","code3":"630102002010","code4":"111","continent":"亚洲","country":"中国","province":"青海","city":"西宁","county":"城东区","town":"清真巷街道","village":"南小街社区居民委员会"    },
    {"level":"村","longitude":101.8012,"latitude":36.6191,"chinese_name":"凤凰园社区居民委员会","code1":"630102","code2":"0971","code3":"630102002011","code4":"111","continent":"亚洲","country":"中国","province":"青海","city":"西宁","county":"城东区","town":"清真巷街道","village":"凤凰园社区居民委员会"    },
    {"level":"村","longitude":101.8012,"latitude":36.6191,"chinese_name":"磨尔园社区居民委员会","code1":"630102","code2":"0971","code3":"630102002012","code4":"111","continent":"亚洲","country":"中国","province":"青海","city":"西宁","county":"城东区","town":"清真巷街道","village":"磨尔园社区居民委员会"    },
    {"level":"村","longitude":101.796876,"latitude":36.616019,"chinese_name":"凯旋社区居民委员会","code1":"630102","code2":"0971","code3":"630102003007","code4":"111","continent":"亚洲","country":"中国","province":"青海","city":"西宁","county":"城东区","town":"大众街街道","village":"凯旋社区居民委员会"    },
    {"level":"村","longitude":101.796876,"latitude":36.616019,"chinese_name":"园山路社区居民委员会","code1":"630102","code2":"0971","code3":"630102003008","code4":"111","continent":"亚洲","country":"中国","province":"青海","city":"西宁","county":"城东区","town":"大众街街道","village":"园山路社区居民委员会"    },
    {"level":"村","longitude":101.796876,"latitude":36.616019,"chinese_name":"树林巷社区居民委员会","code1":"630102","code2":"0971","code3":"630102003009","code4":"111","continent":"亚洲","country":"中国","province":"青海","city":"西宁","county":"城东区","town":"大众街街道","village":"树林巷社区居民委员会"    },
    {"level":"村","longitude":101.796876,"latitude":36.616019,"chinese_name":"共和路社区居民委员会","code1":"630102","code2":"0971","code3":"630102003010","code4":"111","continent":"亚洲","country":"中国","province":"青海","city":"西宁","county":"城东区","town":"大众街街道","village":"共和路社区居民委员会"    },
    {"level":"村","longitude":101.796876,"latitude":36.616019,"chinese_name":"德令哈社区居民委员会","code1":"630102","code2":"0971","code3":"630102003011","code4":"111","continent":"亚洲","country":"中国","province":"青海","city":"西宁","county":"城东区","town":"大众街街道","village":"德令哈社区居民委员会"    },
    {"level":"村","longitude":101.796876,"latitude":36.616019,"chinese_name":"安泰社区居民委员会","code1":"630102","code2":"0971","code3":"630102003012","code4":"111","continent":"亚洲","country":"中国","province":"青海","city":"西宁","county":"城东区","town":"大众街街道","village":"安泰社区居民委员会"    },
    {"level":"村","longitude":101.796876,"latitude":36.616019,"chinese_name":"康西社区居民委员会","code1":"630102","code2":"0971","code3":"630102003013","code4":"111","continent":"亚洲","country":"中国","province":"青海","city":"西宁","county":"城东区","town":"大众街街道","village":"康西社区居民委员会"    },
    {"level":"村","longitude":101.796876,"latitude":36.616019,"chinese_name":"梨园社区居民委员会","code1":"630102","code2":"0971","code3":"630102003014","code4":"111","continent":"亚洲","country":"中国","province":"青海","city":"西宁","county":"城东区","town":"大众街街道","village":"梨园社区居民委员会"    },
    {"level":"村","longitude":101.796876,"latitude":36.616019,"chinese_name":"友谊村村民委员会","code1":"630102","code2":"0971","code3":"630102003203","code4":"111","continent":"亚洲","country":"中国","province":"青海","city":"西宁","county":"城东区","town":"大众街街道","village":"友谊村村民委员会"    },
    {"level":"村","longitude":101.796876,"latitude":36.616019,"chinese_name":"先进村村民委员会","code1":"630102","code2":"0971","code3":"630102003204","code4":"111","continent":"亚洲","country":"中国","province":"青海","city":"西宁","county":"城东区","town":"大众街街道","village":"先进村村民委员会"    },
    {"level":"村","longitude":101.806707,"latitude":36.621155,"chinese_name":"杨家巷社区居民委员会","code1":"630102","code2":"0971","code3":"630102004001","code4":"111","continent":"亚洲","country":"中国","province":"青海","city":"西宁","county":"城东区","town":"周家泉街道","village":"杨家巷社区居民委员会"    },
    {"level":"村","longitude":101.806707,"latitude":36.621155,"chinese_name":"建国路社区居民委员会","code1":"630102","code2":"0971","code3":"630102004002","code4":"111","continent":"亚洲","country":"中国","province":"青海","city":"西宁","county":"城东区","town":"周家泉街道","village":"建国路社区居民委员会"    },
    {"level":"村","longitude":101.806707,"latitude":36.621155,"chinese_name":"为民巷社区居民委员会","code1":"630102","code2":"0971","code3":"630102004004","code4":"111","continent":"亚洲","country":"中国","province":"青海","city":"西宁","county":"城东区","town":"周家泉街道","village":"为民巷社区居民委员会"    },
    {"level":"村","longitude":101.806707,"latitude":36.621155,"chinese_name":"白家河湾社区居民委员会","code1":"630102","code2":"0971","code3":"630102004005","code4":"111","continent":"亚洲","country":"中国","province":"青海","city":"西宁","county":"城东区","town":"周家泉街道","village":"白家河湾社区居民委员会"    },
    {"level":"村","longitude":101.806707,"latitude":36.621155,"chinese_name":"联合村村民委员会","code1":"630102","code2":"0971","code3":"630102004201","code4":"111","continent":"亚洲","country":"中国","province":"青海","city":"西宁","county":"城东区","town":"周家泉街道","village":"联合村村民委员会"    },
    {"level":"村","longitude":101.813601,"latitude":36.619818,"chinese_name":"火车站社区居民委员会","code1":"630102","code2":"0971","code3":"630102005001","code4":"111","continent":"亚洲","country":"中国","province":"青海","city":"西宁","county":"城东区","town":"火车站街道","village":"火车站社区居民委员会"    },
    {"level":"村","longitude":101.813601,"latitude":36.619818,"chinese_name":"中庄社区居民委员会","code1":"630102","code2":"0971","code3":"630102005004","code4":"111","continent":"亚洲","country":"中国","province":"青海","city":"西宁","county":"城东区","town":"火车站街道","village":"中庄社区居民委员会"    },
    {"level":"村","longitude":101.672058,"latitude":36.660642,"chinese_name":"幸福社区居民委员会","code1":"630105","code2":"0971","code3":"630102005005","code4":"111","continent":"亚洲","country":"中国","province":"青海","city":"西宁","county":"城东区","town":"火车站街道","village":"幸福社区居民委员会"    },
    {"level":"村","longitude":101.813601,"latitude":36.619818,"chinese_name":"富民路社区居民委员会","code1":"630102","code2":"0971","code3":"630102005006","code4":"111","continent":"亚洲","country":"中国","province":"青海","city":"西宁","county":"城东区","town":"火车站街道","village":"富民路社区居民委员会"    },
    {"level":"村","longitude":101.82404,"latitude":36.59769,"chinese_name":"学院社区居民委员会","code1":"630102","code2":"0971","code3":"630102006007","code4":"111","continent":"亚洲","country":"中国","province":"青海","city":"西宁","county":"城东区","town":"八一路街道","village":"学院社区居民委员会"    },
    {"level":"村","longitude":101.82404,"latitude":36.59769,"chinese_name":"康东社区居民委员会","code1":"630102","code2":"0971","code3":"630102006008","code4":"111","continent":"亚洲","country":"中国","province":"青海","city":"西宁","county":"城东区","town":"八一路街道","village":"康东社区居民委员会"    },
    {"level":"村","longitude":101.82404,"latitude":36.59769,"chinese_name":"康南社区居民委员会","code1":"630102","code2":"0971","code3":"630102006009","code4":"111","continent":"亚洲","country":"中国","province":"青海","city":"西宁","county":"城东区","town":"八一路街道","village":"康南社区居民委员会"    },
    {"level":"村","longitude":101.82404,"latitude":36.59769,"chinese_name":"康宁社区居民委员会","code1":"630102","code2":"0971","code3":"630102006010","code4":"111","continent":"亚洲","country":"中国","province":"青海","city":"西宁","county":"城东区","town":"八一路街道","village":"康宁社区居民委员会"    },
    {"level":"村","longitude":101.822685,"latitude":36.589526,"chinese_name":"博雅路南社区居民委员会","code1":"630102","code2":"0971","code3":"630102006011","code4":"111","continent":"亚洲","country":"中国","province":"青海","city":"西宁","county":"城东区","town":"八一路街道","village":"博雅路南社区居民委员会"    },
    {"level":"村","longitude":101.82404,"latitude":36.59769,"chinese_name":"团结村村民委员会","code1":"630102","code2":"0971","code3":"630102006201","code4":"111","continent":"亚洲","country":"中国","province":"青海","city":"西宁","county":"城东区","town":"八一路街道","village":"团结村村民委员会"    },
    {"level":"村","longitude":101.812254,"latitude":36.627633,"chinese_name":"蓝天社区居民委员会","code1":"630102","code2":"0971","code3":"630102007001","code4":"111","continent":"亚洲","country":"中国","province":"青海","city":"西宁","county":"城东区","town":"林家崖街道","village":"蓝天社区居民委员会"    },
    {"level":"村","longitude":101.812254,"latitude":36.627633,"chinese_name":"站西社区居民委员会","code1":"630102","code2":"0971","code3":"630102007004","code4":"111","continent":"亚洲","country":"中国","province":"青海","city":"西宁","county":"城东区","town":"林家崖街道","village":"站西社区居民委员会"    },
    {"level":"村","longitude":101.812254,"latitude":36.627633,"chinese_name":"林家崖村村民委员会","code1":"630102","code2":"0971","code3":"630102007202","code4":"111","continent":"亚洲","country":"中国","province":"青海","city":"西宁","county":"城东区","town":"林家崖街道","village":"林家崖村村民委员会"    },
    {"level":"村","longitude":101.812254,"latitude":36.627633,"chinese_name":"路家庄村村民委员会","code1":"630102","code2":"0971","code3":"630102007203","code4":"111","continent":"亚洲","country":"中国","province":"青海","city":"西宁","county":"城东区","town":"林家崖街道","village":"路家庄村村民委员会"    },
    {"level":"村","longitude":101.843828,"latitude":36.582301,"chinese_name":"乐家湾社区居民委员会","code1":"630102","code2":"0971","code3":"630102100001","code4":"111","continent":"亚洲","country":"中国","province":"青海","city":"西宁","county":"城东区","town":"乐家湾镇","village":"乐家湾社区居民委员会"    },
    {"level":"村","longitude":101.843828,"latitude":36.582301,"chinese_name":"金桥路社区居民委员会","code1":"630102","code2":"0971","code3":"630102100002","code4":"111","continent":"亚洲","country":"中国","province":"青海","city":"西宁","county":"城东区","town":"乐家湾镇","village":"金桥路社区居民委员会"    },
    {"level":"村","longitude":101.843828,"latitude":36.582301,"chinese_name":"明杏社区居民委员会","code1":"630102","code2":"0971","code3":"630102100003","code4":"111","continent":"亚洲","country":"中国","province":"青海","city":"西宁","county":"城东区","town":"乐家湾镇","village":"明杏社区居民委员会"    },
    {"level":"村","longitude":101.843828,"latitude":36.582301,"chinese_name":"泉景社区居民委员会","code1":"630102","code2":"0971","code3":"630102100004","code4":"111","continent":"亚洲","country":"中国","province":"青海","city":"西宁","county":"城东区","town":"乐家湾镇","village":"泉景社区居民委员会"    },
    {"level":"村","longitude":101.843828,"latitude":36.582301,"chinese_name":"上十里铺村村民委员会","code1":"630102","code2":"0971","code3":"630102100200","code4":"111","continent":"亚洲","country":"中国","province":"青海","city":"西宁","county":"城东区","town":"乐家湾镇","village":"上十里铺村村民委员会"    },
    {"level":"村","longitude":101.843828,"latitude":36.582301,"chinese_name":"塔尔山村村民委员会","code1":"630102","code2":"0971","code3":"630102100201","code4":"112","continent":"亚洲","country":"中国","province":"青海","city":"西宁","county":"城东区","town":"乐家湾镇","village":"塔尔山村村民委员会"    },
    {"level":"村","longitude":101.843828,"latitude":36.582301,"chinese_name":"下十里铺村村民委员会","code1":"630102","code2":"0971","code3":"630102100202","code4":"111","continent":"亚洲","country":"中国","province":"青海","city":"西宁","county":"城东区","town":"乐家湾镇","village":"下十里铺村村民委员会"    },
    {"level":"村","longitude":101.843828,"latitude":36.582301,"chinese_name":"乐家湾村村民委员会","code1":"630102","code2":"0971","code3":"630102100203","code4":"111","continent":"亚洲","country":"中国","province":"青海","city":"西宁","county":"城东区","town":"乐家湾镇","village":"乐家湾村村民委员会"    },
    {"level":"村","longitude":101.843828,"latitude":36.582301,"chinese_name":"杨沟湾村村民委员会","code1":"630102","code2":"0971","code3":"630102100204","code4":"111","continent":"亚洲","country":"中国","province":"青海","city":"西宁","county":"城东区","town":"乐家湾镇","village":"杨沟湾村村民委员会"    },
    {"level":"村","longitude":101.845955,"latitude":36.584834,"chinese_name":"东兴社区居民委员会","code1":"630102","code2":"0971","code3":"630102101003","code4":"111","continent":"亚洲","country":"中国","province":"青海","city":"西宁","county":"城东区","town":"韵家口镇","village":"东兴社区居民委员会"    },
    {"level":"村","longitude":101.845955,"latitude":36.584834,"chinese_name":"东盛社区居民委员会","code1":"630102","code2":"0971","code3":"630102101004","code4":"111","continent":"亚洲","country":"中国","province":"青海","city":"西宁","county":"城东区","town":"韵家口镇","village":"东盛社区居民委员会"    },
    {"level":"村","longitude":101.859568,"latitude":36.579138,"chinese_name":"纺织社区居民委员会","code1":"630102","code2":"0971","code3":"630102101006","code4":"111","continent":"亚洲","country":"中国","province":"青海","city":"西宁","county":"城东区","town":"韵家口镇","village":"纺织社区居民委员会"    },
    {"level":"村","longitude":101.845955,"latitude":36.584834,"chinese_name":"育才路社区居民委员会","code1":"630102","code2":"0971","code3":"630102101007","code4":"111","continent":"亚洲","country":"中国","province":"青海","city":"西宁","county":"城东区","town":"韵家口镇","village":"育才路社区居民委员会"    },
    {"level":"村","longitude":101.845955,"latitude":36.584834,"chinese_name":"中庄村村民委员会","code1":"630102","code2":"0971","code3":"630102101200","code4":"111","continent":"亚洲","country":"中国","province":"青海","city":"西宁","county":"城东区","town":"韵家口镇","village":"中庄村村民委员会"    },
    {"level":"村","longitude":101.845955,"latitude":36.584834,"chinese_name":"褚家营村村民委员会","code1":"630102","code2":"0971","code3":"630102101201","code4":"111","continent":"亚洲","country":"中国","province":"青海","city":"西宁","county":"城东区","town":"韵家口镇","village":"褚家营村村民委员会"    },
    {"level":"村","longitude":101.845955,"latitude":36.584834,"chinese_name":"小寨村村民委员会","code1":"630102","code2":"0971","code3":"630102101202","code4":"111","continent":"亚洲","country":"中国","province":"青海","city":"西宁","county":"城东区","town":"韵家口镇","village":"小寨村村民委员会"    },
    {"level":"村","longitude":101.845955,"latitude":36.584834,"chinese_name":"韵家口村民委员会","code1":"630102","code2":"0971","code3":"630102101203","code4":"112","continent":"亚洲","country":"中国","province":"青海","city":"西宁","county":"城东区","town":"韵家口镇","village":"韵家口村民委员会"    },
    {"level":"村","longitude":101.845955,"latitude":36.584834,"chinese_name":"泮子山村村民委员会","code1":"630102","code2":"0971","code3":"630102101204","code4":"220","continent":"亚洲","country":"中国","province":"青海","city":"西宁","county":"城东区","town":"韵家口镇","village":"泮子山村村民委员会"    },
    {"level":"村","longitude":101.845955,"latitude":36.584834,"chinese_name":"付家寨村村民委员会","code1":"630102","code2":"0971","code3":"630102101205","code4":"112","continent":"亚洲","country":"中国","province":"青海","city":"西宁","county":"城东区","town":"韵家口镇","village":"付家寨村村民委员会"    },
    {"level":"村","longitude":101.845955,"latitude":36.584834,"chinese_name":"朱家庄村村民委员会","code1":"630102","code2":"0971","code3":"630102101206","code4":"220","continent":"亚洲","country":"中国","province":"青海","city":"西宁","county":"城东区","town":"韵家口镇","village":"朱家庄村村民委员会"    },
    {"level":"村","longitude":101.845955,"latitude":36.584834,"chinese_name":"王家庄村村民委员会","code1":"630102","code2":"0971","code3":"630102101211","code4":"111","continent":"亚洲","country":"中国","province":"青海","city":"西宁","county":"城东区","town":"韵家口镇","village":"王家庄村村民委员会"    },
    {"level":"村","longitude":101.845955,"latitude":36.584834,"chinese_name":"曹家寨村村民委员会","code1":"630102","code2":"0971","code3":"630102101212","code4":"112","continent":"亚洲","country":"中国","province":"青海","city":"西宁","county":"城东区","town":"韵家口镇","village":"曹家寨村村民委员会"    },
    {"level":"村","longitude":101.886223,"latitude":36.554323,"chinese_name":"东川工业园虚拟社区","code1":"630102","code2":"0971","code3":"630102400498","code4":"111","continent":"亚洲","country":"中国","province":"青海","city":"西宁","county":"城东区","town":"东川工业园","village":"东川工业园虚拟社区"    },
    {"level":"村","longitude":101.781947,"latitude":36.619941,"chinese_name":"南关街社区居委会","code1":"630103","code2":"0971","code3":"630103001003","code4":"111","continent":"亚洲","country":"中国","province":"青海","city":"西宁","county":"城中区","town":"人民街街道","village":"南关街社区居委会"    },
    {"level":"村","longitude":101.781947,"latitude":36.619941,"chinese_name":"水井巷社区居委会","code1":"630103","code2":"0971","code3":"630103001004","code4":"111","continent":"亚洲","country":"中国","province":"青海","city":"西宁","county":"城中区","town":"人民街街道","village":"水井巷社区居委会"    },
    {"level":"村","longitude":101.777711,"latitude":36.614616,"chinese_name":"农建社区居委会","code1":"630103","code2":"0971","code3":"630103002001","code4":"111","continent":"亚洲","country":"中国","province":"青海","city":"西宁","county":"城中区","town":"南滩街道","village":"农建社区居委会"    },
    {"level":"村","longitude":101.777711,"latitude":36.614616,"chinese_name":"南山东社区居委会","code1":"630103","code2":"0971","code3":"630103002003","code4":"111","continent":"亚洲","country":"中国","province":"青海","city":"西宁","county":"城中区","town":"南滩街道","village":"南山东社区居委会"    },
    {"level":"村","longitude":101.777711,"latitude":36.614616,"chinese_name":"南山西社区居委会","code1":"630103","code2":"0971","code3":"630103002004","code4":"111","continent":"亚洲","country":"中国","province":"青海","city":"西宁","county":"城中区","town":"南滩街道","village":"南山西社区居委会"    },
    {"level":"村","longitude":101.777711,"latitude":36.614616,"chinese_name":"南山社区居委会","code1":"630103","code2":"0971","code3":"630103002005","code4":"111","continent":"亚洲","country":"中国","province":"青海","city":"西宁","county":"城中区","town":"南滩街道","village":"南山社区居委会"    },
    {"level":"村","longitude":101.777711,"latitude":36.614616,"chinese_name":"新青社区居委会","code1":"630103","code2":"0971","code3":"630103002006","code4":"111","continent":"亚洲","country":"中国","province":"青海","city":"西宁","county":"城中区","town":"南滩街道","village":"新青社区居委会"    },
    {"level":"村","longitude":101.777711,"latitude":36.614616,"chinese_name":"建新社区居委会","code1":"630103","code2":"0971","code3":"630103002007","code4":"111","continent":"亚洲","country":"中国","province":"青海","city":"西宁","county":"城中区","town":"南滩街道","village":"建新社区居委会"    },
    {"level":"村","longitude":101.786991,"latitude":36.618861,"chinese_name":"石坡街社区居委会","code1":"630103","code2":"0971","code3":"630103003001","code4":"111","continent":"亚洲","country":"中国","province":"青海","city":"西宁","county":"城中区","town":"仓门街街道","village":"石坡街社区居委会"    },
    {"level":"村","longitude":101.785598,"latitude":36.613935,"chinese_name":"前营街社区居委会","code1":"630103","code2":"0971","code3":"630103003002","code4":"111","continent":"亚洲","country":"中国","province":"青海","city":"西宁","county":"城中区","town":"仓门街街道","village":"前营街社区居委会"    },
    {"level":"村","longitude":101.779013,"latitude":36.621785,"chinese_name":"长江路社区居委会","code1":"630103","code2":"0971","code3":"630103004002","code4":"111","continent":"亚洲","country":"中国","province":"青海","city":"西宁","county":"城中区","town":"礼让街街道","village":"长江路社区居委会"    },
    {"level":"村","longitude":101.779013,"latitude":36.621785,"chinese_name":"七一路西社区居委会","code1":"630103","code2":"0971","code3":"630103004003","code4":"111","continent":"亚洲","country":"中国","province":"青海","city":"西宁","county":"城中区","town":"礼让街街道","village":"七一路西社区居委会"    },
    {"level":"村","longitude":101.781259,"latitude":36.626114,"chinese_name":"解放路社区居委会","code1":"630103","code2":"0971","code3":"630103004005","code4":"111","continent":"亚洲","country":"中国","province":"青海","city":"西宁","county":"城中区","town":"礼让街街道","village":"解放路社区居委会"    },
    {"level":"村","longitude":101.787781,"latitude":36.621024,"chinese_name":"东大街社区居委会","code1":"630103","code2":"0971","code3":"630103005001","code4":"111","continent":"亚洲","country":"中国","province":"青海","city":"西宁","county":"城中区","town":"饮马街街道","village":"东大街社区居委会"    },
    {"level":"村","longitude":101.79451,"latitude":36.624173,"chinese_name":"上滨河路社区居委会","code1":"630103","code2":"0971","code3":"630103005002","code4":"111","continent":"亚洲","country":"中国","province":"青海","city":"西宁","county":"城中区","town":"饮马街街道","village":"上滨河路社区居委会"    },
    {"level":"村","longitude":101.787781,"latitude":36.621024,"chinese_name":"文化街社区居委会","code1":"630103","code2":"0971","code3":"630103005004","code4":"111","continent":"亚洲","country":"中国","province":"青海","city":"西宁","county":"城中区","town":"饮马街街道","village":"文化街社区居委会"    },
    {"level":"村","longitude":101.767488,"latitude":36.613425,"chinese_name":"龙泰社区居委会","code1":"630103","code2":"0971","code3":"630103006001","code4":"111","continent":"亚洲","country":"中国","province":"青海","city":"西宁","county":"城中区","town":"南川东路街道","village":"龙泰社区居委会"    },
    {"level":"村","longitude":101.767488,"latitude":36.613425,"chinese_name":"二机社区居委会","code1":"630103","code2":"0971","code3":"630103006002","code4":"111","continent":"亚洲","country":"中国","province":"青海","city":"西宁","county":"城中区","town":"南川东路街道","village":"二机社区居委会"    },
    {"level":"村","longitude":101.767488,"latitude":36.613425,"chinese_name":"兴旺社区居委会","code1":"630103","code2":"0971","code3":"630103006003","code4":"111","continent":"亚洲","country":"中国","province":"青海","city":"西宁","county":"城中区","town":"南川东路街道","village":"兴旺社区居委会"    },
    {"level":"村","longitude":101.767488,"latitude":36.613425,"chinese_name":"瑞驰社区居委会","code1":"630103","code2":"0971","code3":"630103006006","code4":"111","continent":"亚洲","country":"中国","province":"青海","city":"西宁","county":"城中区","town":"南川东路街道","village":"瑞驰社区居委会"    },
    {"level":"村","longitude":101.767488,"latitude":36.613425,"chinese_name":"水磨村村委会","code1":"630103","code2":"0971","code3":"630103006200","code4":"112","continent":"亚洲","country":"中国","province":"青海","city":"西宁","county":"城中区","town":"南川东路街道","village":"水磨村村委会"    },
    {"level":"村","longitude":101.755232,"latitude":36.583429,"chinese_name":"红光村村委会","code1":"630103","code2":"0971","code3":"630103006201","code4":"112","continent":"亚洲","country":"中国","province":"青海","city":"西宁","county":"城中区","town":"南川东路街道","village":"红光村村委会"    },
    {"level":"村","longitude":101.767488,"latitude":36.613425,"chinese_name":"南酉山村村委会","code1":"630103","code2":"0971","code3":"630103006202","code4":"220","continent":"亚洲","country":"中国","province":"青海","city":"西宁","county":"城中区","town":"南川东路街道","village":"南酉山村村委会"    },
    {"level":"村","longitude":101.767488,"latitude":36.613425,"chinese_name":"南园村村委会","code1":"630103","code2":"0971","code3":"630103006203","code4":"112","continent":"亚洲","country":"中国","province":"青海","city":"西宁","county":"城中区","town":"南川东路街道","village":"南园村村委会"    },
    {"level":"村","longitude":101.759108,"latitude":36.595901,"chinese_name":"福禄巷北社区居民委员会","code1":"630103","code2":"0971","code3":"630103007001","code4":"111","continent":"亚洲","country":"中国","province":"青海","city":"西宁","county":"城中区","town":"南川西路街道","village":"福禄巷北社区居民委员会"    },
    {"level":"村","longitude":101.759108,"latitude":36.595901,"chinese_name":"西台社区居民委员会","code1":"630103","code2":"0971","code3":"630103007003","code4":"111","continent":"亚洲","country":"中国","province":"青海","city":"西宁","county":"城中区","town":"南川西路街道","village":"西台社区居民委员会"    },
    {"level":"村","longitude":101.759108,"latitude":36.595901,"chinese_name":"东台社区居民委员会","code1":"630103","code2":"0971","code3":"630103007004","code4":"111","continent":"亚洲","country":"中国","province":"青海","city":"西宁","county":"城中区","town":"南川西路街道","village":"东台社区居民委员会"    },
    {"level":"村","longitude":101.759108,"latitude":36.595901,"chinese_name":"福禄巷南社区居民委员会","code1":"630103","code2":"0971","code3":"630103007005","code4":"111","continent":"亚洲","country":"中国","province":"青海","city":"西宁","county":"城中区","town":"南川西路街道","village":"福禄巷南社区居民委员会"    },
    {"level":"村","longitude":101.751862,"latitude":36.610211,"chinese_name":"香格里拉社区居委会","code1":"630103","code2":"0971","code3":"630103007007","code4":"111","continent":"亚洲","country":"中国","province":"青海","city":"西宁","county":"城中区","town":"南川西路街道","village":"香格里拉社区居委会"    },
    {"level":"村","longitude":101.759108,"latitude":36.595901,"chinese_name":"安宁路居委会","code1":"630103","code2":"0971","code3":"630103007008","code4":"111","continent":"亚洲","country":"中国","province":"青海","city":"西宁","county":"城中区","town":"南川西路街道","village":"安宁路居委会"    },
    {"level":"村","longitude":101.759108,"latitude":36.595901,"chinese_name":"沈家寨村委会","code1":"630103","code2":"0971","code3":"630103007200","code4":"112","continent":"亚洲","country":"中国","province":"青海","city":"西宁","county":"城中区","town":"南川西路街道","village":"沈家寨村委会"    },
    {"level":"村","longitude":101.759108,"latitude":36.595901,"chinese_name":"红星村委会","code1":"630103","code2":"0971","code3":"630103007201","code4":"112","continent":"亚洲","country":"中国","province":"青海","city":"西宁","county":"城中区","town":"南川西路街道","village":"红星村委会"    },
    {"level":"村","longitude":101.759108,"latitude":36.595901,"chinese_name":"新青村委会","code1":"630103","code2":"0971","code3":"630103007202","code4":"112","continent":"亚洲","country":"中国","province":"青海","city":"西宁","county":"城中区","town":"南川西路街道","village":"新青村委会"    },
    {"level":"村","longitude":101.759108,"latitude":36.595901,"chinese_name":"园树村委会","code1":"630103","code2":"0971","code3":"630103007203","code4":"112","continent":"亚洲","country":"中国","province":"青海","city":"西宁","county":"城中区","town":"南川西路街道","village":"园树村委会"    },
    {"level":"村","longitude":101.759108,"latitude":36.595901,"chinese_name":"贾小村委会","code1":"630103","code2":"0971","code3":"630103007204","code4":"112","continent":"亚洲","country":"中国","province":"青海","city":"西宁","county":"城中区","town":"南川西路街道","village":"贾小村委会"    },
    {"level":"村","longitude":101.68607,"latitude":36.54178,"chinese_name":"清华路社区居委会","code1":"630103","code2":"0971","code3":"630103100002","code4":"111","continent":"亚洲","country":"中国","province":"青海","city":"西宁","county":"城中区","town":"总寨镇","village":"清华路社区居委会"    },
    {"level":"村","longitude":101.68607,"latitude":36.54178,"chinese_name":"金十字社区居委会","code1":"630103","code2":"0971","code3":"630103100003","code4":"111","continent":"亚洲","country":"中国","province":"青海","city":"西宁","county":"城中区","town":"总寨镇","village":"金十字社区居委会"    },
    {"level":"村","longitude":101.68607,"latitude":36.54178,"chinese_name":"新城社区居委会","code1":"630103","code2":"0971","code3":"630103100004","code4":"111","continent":"亚洲","country":"中国","province":"青海","city":"西宁","county":"城中区","town":"总寨镇","village":"新城社区居委会"    },
    {"level":"村","longitude":101.68607,"latitude":36.54178,"chinese_name":"王斌堡村委会","code1":"630103","code2":"0971","code3":"630103100200","code4":"112","continent":"亚洲","country":"中国","province":"青海","city":"西宁","county":"城中区","town":"总寨镇","village":"王斌堡村委会"    },
    {"level":"村","longitude":101.68607,"latitude":36.54178,"chinese_name":"张家庄村委会","code1":"630103","code2":"0971","code3":"630103100201","code4":"112","continent":"亚洲","country":"中国","province":"青海","city":"西宁","county":"城中区","town":"总寨镇","village":"张家庄村委会"    },
    {"level":"村","longitude":101.68607,"latitude":36.54178,"chinese_name":"清河村委会","code1":"630103","code2":"0971","code3":"630103100202","code4":"112","continent":"亚洲","country":"中国","province":"青海","city":"西宁","county":"城中区","town":"总寨镇","village":"清河村委会"    },
    {"level":"村","longitude":101.68607,"latitude":36.54178,"chinese_name":"清水河村委会","code1":"630103","code2":"0971","code3":"630103100203","code4":"112","continent":"亚洲","country":"中国","province":"青海","city":"西宁","county":"城中区","town":"总寨镇","village":"清水河村委会"    },
    {"level":"村","longitude":101.68607,"latitude":36.54178,"chinese_name":"总南村委会","code1":"630103","code2":"0971","code3":"630103100204","code4":"112","continent":"亚洲","country":"中国","province":"青海","city":"西宁","county":"城中区","town":"总寨镇","village":"总南村委会"    },
    {"level":"村","longitude":101.68607,"latitude":36.54178,"chinese_name":"总北村委会","code1":"630103","code2":"0971","code3":"630103100205","code4":"112","continent":"亚洲","country":"中国","province":"青海","city":"西宁","county":"城中区","town":"总寨镇","village":"总北村委会"    },
    {"level":"村","longitude":101.68607,"latitude":36.54178,"chinese_name":"谢家寨村委会","code1":"630103","code2":"0971","code3":"630103100206","code4":"112","continent":"亚洲","country":"中国","province":"青海","city":"西宁","county":"城中区","town":"总寨镇","village":"谢家寨村委会"    },
    {"level":"村","longitude":101.68607,"latitude":36.54178,"chinese_name":"塘马坊村委会","code1":"630103","code2":"0971","code3":"630103100207","code4":"112","continent":"亚洲","country":"中国","province":"青海","city":"西宁","county":"城中区","town":"总寨镇","village":"塘马坊村委会"    },
    {"level":"村","longitude":101.68607,"latitude":36.54178,"chinese_name":"杜家庄村委会","code1":"630103","code2":"0971","code3":"630103100208","code4":"112","continent":"亚洲","country":"中国","province":"青海","city":"西宁","county":"城中区","town":"总寨镇","village":"杜家庄村委会"    },
    {"level":"村","longitude":101.68607,"latitude":36.54178,"chinese_name":"泉尔湾村委会","code1":"630103","code2":"0971","code3":"630103100209","code4":"112","continent":"亚洲","country":"中国","province":"青海","city":"西宁","county":"城中区","town":"总寨镇","village":"泉尔湾村委会"    },
    {"level":"村","longitude":101.68607,"latitude":36.54178,"chinese_name":"新庄村委会","code1":"630103","code2":"0971","code3":"630103100210","code4":"112","continent":"亚洲","country":"中国","province":"青海","city":"西宁","county":"城中区","town":"总寨镇","village":"新庄村委会"    },
    {"level":"村","longitude":101.68607,"latitude":36.54178,"chinese_name":"逯家寨村委会","code1":"630103","code2":"0971","code3":"630103100211","code4":"112","continent":"亚洲","country":"中国","province":"青海","city":"西宁","county":"城中区","town":"总寨镇","village":"逯家寨村委会"    },
    {"level":"村","longitude":101.68607,"latitude":36.54178,"chinese_name":"王家山村委会","code1":"630103","code2":"0971","code3":"630103100212","code4":"220","continent":"亚洲","country":"中国","province":"青海","city":"西宁","county":"城中区","town":"总寨镇","village":"王家山村委会"    },
    {"level":"村","longitude":101.68607,"latitude":36.54178,"chinese_name":"元堡子村委会","code1":"630103","code2":"0971","code3":"630103100213","code4":"123","continent":"亚洲","country":"中国","province":"青海","city":"西宁","county":"城中区","town":"总寨镇","village":"元堡子村委会"    },
    {"level":"村","longitude":101.68607,"latitude":36.54178,"chinese_name":"星家村委会","code1":"630103","code2":"0971","code3":"630103100214","code4":"123","continent":"亚洲","country":"中国","province":"青海","city":"西宁","county":"城中区","town":"总寨镇","village":"星家村委会"    },
    {"level":"村","longitude":101.68607,"latitude":36.54178,"chinese_name":"新安村委会","code1":"630103","code2":"0971","code3":"630103100215","code4":"123","continent":"亚洲","country":"中国","province":"青海","city":"西宁","county":"城中区","town":"总寨镇","village":"新安村委会"    },
    {"level":"村","longitude":101.68607,"latitude":36.54178,"chinese_name":"享堂村委会","code1":"630103","code2":"0971","code3":"630103100216","code4":"123","continent":"亚洲","country":"中国","province":"青海","city":"西宁","county":"城中区","town":"总寨镇","village":"享堂村委会"    },
    {"level":"村","longitude":101.68607,"latitude":36.54178,"chinese_name":"陈家窑村委会","code1":"630103","code2":"0971","code3":"630103100217","code4":"220","continent":"亚洲","country":"中国","province":"青海","city":"西宁","county":"城中区","town":"总寨镇","village":"陈家窑村委会"    },
    {"level":"村","longitude":101.68607,"latitude":36.54178,"chinese_name":"莫家沟村委会","code1":"630103","code2":"0971","code3":"630103100218","code4":"220","continent":"亚洲","country":"中国","province":"青海","city":"西宁","county":"城中区","town":"总寨镇","village":"莫家沟村委会"    },
    {"level":"村","longitude":101.68607,"latitude":36.54178,"chinese_name":"下细沟村委会","code1":"630103","code2":"0971","code3":"630103100219","code4":"220","continent":"亚洲","country":"中国","province":"青海","city":"西宁","county":"城中区","town":"总寨镇","village":"下细沟村委会"    },
    {"level":"村","longitude":101.68607,"latitude":36.54178,"chinese_name":"上细沟村委会","code1":"630103","code2":"0971","code3":"630103100220","code4":"220","continent":"亚洲","country":"中国","province":"青海","city":"西宁","county":"城中区","town":"总寨镇","village":"上细沟村委会"    },
    {"level":"村","longitude":101.68607,"latitude":36.54178,"chinese_name":"下野牛沟村委会","code1":"630103","code2":"0971","code3":"630103100221","code4":"220","continent":"亚洲","country":"中国","province":"青海","city":"西宁","county":"城中区","town":"总寨镇","village":"下野牛沟村委会"    },
    {"level":"村","longitude":101.68607,"latitude":36.54178,"chinese_name":"上野牛沟村委会","code1":"630103","code2":"0971","code3":"630103100222","code4":"220","continent":"亚洲","country":"中国","province":"青海","city":"西宁","county":"城中区","town":"总寨镇","village":"上野牛沟村委会"    },
    {"level":"村","longitude":101.671743,"latitude":36.526201,"chinese_name":"南川工业园虚拟社区","code1":"630103","code2":"0971","code3":"630103400498","code4":"111","continent":"亚洲","country":"中国","province":"青海","city":"西宁","county":"城中区","town":"南川工业园","village":"南川工业园虚拟社区"    },
    {"level":"村","longitude":101.769685,"latitude":36.625384,"chinese_name":"北气象巷社区居民委员会","code1":"630104","code2":"0971","code3":"630104001001","code4":"111","continent":"亚洲","country":"中国","province":"青海","city":"西宁","county":"城西区","town":"西关大街街道","village":"北气象巷社区居民委员会"    },
    {"level":"村","longitude":101.768429,"latitude":36.624374,"chinese_name":"南气象巷社区居民委员会","code1":"630104","code2":"0971","code3":"630104001002","code4":"111","continent":"亚洲","country":"中国","province":"青海","city":"西宁","county":"城西区","town":"西关大街街道","village":"南气象巷社区居民委员会"    },
    {"level":"村","longitude":101.768429,"latitude":36.624374,"chinese_name":"贾小社区居民委员会","code1":"630104","code2":"0971","code3":"630104001003","code4":"111","continent":"亚洲","country":"中国","province":"青海","city":"西宁","county":"城西区","town":"西关大街街道","village":"贾小社区居民委员会"    },
    {"level":"村","longitude":101.761315,"latitude":36.626802,"chinese_name":"学院巷社区居民委员会","code1":"630104","code2":"0971","code3":"630104002001","code4":"111","continent":"亚洲","country":"中国","province":"青海","city":"西宁","county":"城西区","town":"古城台街道","village":"学院巷社区居民委员会"    },
    {"level":"村","longitude":101.761315,"latitude":36.626802,"chinese_name":"青年巷社区居民委员会","code1":"630104","code2":"0971","code3":"630104002002","code4":"111","continent":"亚洲","country":"中国","province":"青海","city":"西宁","county":"城西区","town":"古城台街道","village":"青年巷社区居民委员会"    },
    {"level":"村","longitude":101.775534,"latitude":36.614556,"chinese_name":"昆仑路东居委会","code1":"630103","code2":"0971","code3":"630104002004","code4":"111","continent":"亚洲","country":"中国","province":"青海","city":"西宁","county":"城西区","town":"古城台街道","village":"昆仑路东居委会"    },
    {"level":"村","longitude":101.775534,"latitude":36.614556,"chinese_name":"昆仑路西居委会","code1":"630103","code2":"0971","code3":"630104002005","code4":"111","continent":"亚洲","country":"中国","province":"青海","city":"西宁","county":"城西区","town":"古城台街道","village":"昆仑路西居委会"    },
    {"level":"村","longitude":101.728519,"latitude":36.633397,"chinese_name":"海晏路社区居民委员会","code1":"630104","code2":"0971","code3":"630104003002","code4":"111","continent":"亚洲","country":"中国","province":"青海","city":"西宁","county":"城西区","town":"虎台街道","village":"海晏路社区居民委员会"    },
    {"level":"村","longitude":101.748537,"latitude":36.636658,"chinese_name":"医财巷东居委会","code1":"630104","code2":"0971","code3":"630104003003","code4":"111","continent":"亚洲","country":"中国","province":"青海","city":"西宁","county":"城西区","town":"虎台街道","village":"医财巷东居委会"    },
    {"level":"村","longitude":101.748537,"latitude":36.636658,"chinese_name":"医财巷西居委会","code1":"630104","code2":"0971","code3":"630104003004","code4":"111","continent":"亚洲","country":"中国","province":"青海","city":"西宁","county":"城西区","town":"虎台街道","village":"医财巷西居委会"    },
    {"level":"村","longitude":101.728519,"latitude":36.633397,"chinese_name":"冷湖路社区居民委员会","code1":"630104","code2":"0971","code3":"630104003005","code4":"111","continent":"亚洲","country":"中国","province":"青海","city":"西宁","county":"城西区","town":"虎台街道","village":"冷湖路社区居民委员会"    },
    {"level":"村","longitude":101.728519,"latitude":36.633397,"chinese_name":"新西社区居民委员会","code1":"630104","code2":"0971","code3":"630104003006","code4":"111","continent":"亚洲","country":"中国","province":"青海","city":"西宁","county":"城西区","town":"虎台街道","village":"新西社区居民委员会"    },
    {"level":"村","longitude":101.728519,"latitude":36.633397,"chinese_name":"殷家庄社区居民委员会","code1":"630104","code2":"0971","code3":"630104003007","code4":"111","continent":"亚洲","country":"中国","province":"青海","city":"西宁","county":"城西区","town":"虎台街道","village":"殷家庄社区居民委员会"    },
    {"level":"村","longitude":101.728519,"latitude":36.633397,"chinese_name":"虎台社区居委会","code1":"630104","code2":"0971","code3":"630104003008","code4":"111","continent":"亚洲","country":"中国","province":"青海","city":"西宁","county":"城西区","town":"虎台街道","village":"虎台社区居委会"    },
    {"level":"村","longitude":101.728519,"latitude":36.633397,"chinese_name":"杨家寨村委会","code1":"630104","code2":"0971","code3":"630104003201","code4":"111","continent":"亚洲","country":"中国","province":"青海","city":"西宁","county":"城西区","town":"虎台街道","village":"杨家寨村委会"    },
    {"level":"村","longitude":101.728519,"latitude":36.633397,"chinese_name":"苏家河湾村委会","code1":"630104","code2":"0971","code3":"630104003202","code4":"111","continent":"亚洲","country":"中国","province":"青海","city":"西宁","county":"城西区","town":"虎台街道","village":"苏家河湾村委会"    },
    {"level":"村","longitude":101.756487,"latitude":36.637258,"chinese_name":"西交通巷社区居民委员会","code1":"630104","code2":"0971","code3":"630104004001","code4":"111","continent":"亚洲","country":"中国","province":"青海","city":"西宁","county":"城西区","town":"胜利路街道","village":"西交通巷社区居民委员会"    },
    {"level":"村","longitude":101.756487,"latitude":36.637258,"chinese_name":"公园巷社区居民委员会","code1":"630104","code2":"0971","code3":"630104004002","code4":"111","continent":"亚洲","country":"中国","province":"青海","city":"西宁","county":"城西区","town":"胜利路街道","village":"公园巷社区居民委员会"    },
    {"level":"村","longitude":101.756487,"latitude":36.637258,"chinese_name":"东交通巷社区居民委员会","code1":"630104","code2":"0971","code3":"630104004003","code4":"111","continent":"亚洲","country":"中国","province":"青海","city":"西宁","county":"城西区","town":"胜利路街道","village":"东交通巷社区居民委员会"    },
    {"level":"村","longitude":101.756487,"latitude":36.637258,"chinese_name":"北商业巷社区居民委员会","code1":"630104","code2":"0971","code3":"630104004004","code4":"111","continent":"亚洲","country":"中国","province":"青海","city":"西宁","county":"城西区","town":"胜利路街道","village":"北商业巷社区居民委员会"    },
    {"level":"村","longitude":101.772279,"latitude":36.631294,"chinese_name":"兴胜巷社区居民委员会","code1":"630104","code2":"0971","code3":"630104005001","code4":"111","continent":"亚洲","country":"中国","province":"青海","city":"西宁","county":"城西区","town":"兴海路街道","village":"兴胜巷社区居民委员会"    },
    {"level":"村","longitude":101.772279,"latitude":36.631294,"chinese_name":"中华巷社区居民委员会","code1":"630104","code2":"0971","code3":"630104005003","code4":"111","continent":"亚洲","country":"中国","province":"青海","city":"西宁","county":"城西区","town":"兴海路街道","village":"中华巷社区居民委员会"    },
    {"level":"村","longitude":101.772279,"latitude":36.631294,"chinese_name":"尕寺巷社区居民委员会","code1":"630104","code2":"0971","code3":"630104005005","code4":"111","continent":"亚洲","country":"中国","province":"青海","city":"西宁","county":"城西区","town":"兴海路街道","village":"尕寺巷社区居民委员会"    },
    {"level":"村","longitude":101.736182,"latitude":36.643402,"chinese_name":"文亭巷社区居民委员会","code1":"630104","code2":"0971","code3":"630104006001","code4":"111","continent":"亚洲","country":"中国","province":"青海","city":"西宁","county":"城西区","town":"文汇路街道","village":"文亭巷社区居民委员会"    },
    {"level":"村","longitude":101.726911,"latitude":36.641256,"chinese_name":"文博路社区居民委员会","code1":"630104","code2":"0971","code3":"630104006002","code4":"111","continent":"亚洲","country":"中国","province":"青海","city":"西宁","county":"城西区","town":"文汇路街道","village":"文博路社区居民委员会"    },
    {"level":"村","longitude":101.765843,"latitude":36.628305,"chinese_name":"海湖广场社区居民委员会","code1":"630104","code2":"0971","code3":"630104006003","code4":"111","continent":"亚洲","country":"中国","province":"青海","city":"西宁","county":"城西区","town":"文汇路街道","village":"海湖广场社区居民委员会"    },
    {"level":"村","longitude":101.800292,"latitude":36.617153,"chinese_name":"科普路社区居委会","code1":"630102","code2":"0971","code3":"630104006004","code4":"111","continent":"亚洲","country":"中国","province":"青海","city":"西宁","county":"城西区","town":"文汇路街道","village":"科普路社区居委会"    },
    {"level":"村","longitude":101.701243,"latitude":36.645714,"chinese_name":"文成路社区居民委员会","code1":"630104","code2":"0971","code3":"630104007001","code4":"111","continent":"亚洲","country":"中国","province":"青海","city":"西宁","county":"城西区","town":"通海路街道","village":"文成路社区居民委员会"    },
    {"level":"村","longitude":101.694617,"latitude":36.646878,"chinese_name":"桃李路社区居民委员会","code1":"630104","code2":"0971","code3":"630104007002","code4":"111","continent":"亚洲","country":"中国","province":"青海","city":"西宁","county":"城西区","town":"通海路街道","village":"桃李路社区居民委员会"    },
    {"level":"村","longitude":101.701243,"latitude":36.645714,"chinese_name":"光华路社区居民委员会","code1":"630104","code2":"0971","code3":"630104007003","code4":"111","continent":"亚洲","country":"中国","province":"青海","city":"西宁","county":"城西区","town":"通海路街道","village":"光华路社区居民委员会"    },
    {"level":"村","longitude":101.719242,"latitude":36.647282,"chinese_name":"文景街西社区居委会","code1":"630104","code2":"0971","code3":"630104007004","code4":"111","continent":"亚洲","country":"中国","province":"青海","city":"西宁","county":"城西区","town":"通海路街道","village":"文景街西社区居委会"    },
    {"level":"村","longitude":101.70339,"latitude":36.639606,"chinese_name":"西川南路社区居民委员会","code1":"630104","code2":"0971","code3":"630104100001","code4":"111","continent":"亚洲","country":"中国","province":"青海","city":"西宁","county":"城西区","town":"彭家寨镇","village":"西川南路社区居民委员会"    },
    {"level":"村","longitude":101.70339,"latitude":36.639606,"chinese_name":"富兴路社区居委会","code1":"630104","code2":"0971","code3":"630104100002","code4":"111","continent":"亚洲","country":"中国","province":"青海","city":"西宁","county":"城西区","town":"彭家寨镇","village":"富兴路社区居委会"    },
    {"level":"村","longitude":101.70339,"latitude":36.639606,"chinese_name":"彭家寨村委会","code1":"630104","code2":"0971","code3":"630104100200","code4":"111","continent":"亚洲","country":"中国","province":"青海","city":"西宁","county":"城西区","town":"彭家寨镇","village":"彭家寨村委会"    },
    {"level":"村","longitude":101.721934,"latitude":36.636968,"chinese_name":"西北园村委会","code1":"630104","code2":"0971","code3":"630104100201","code4":"111","continent":"亚洲","country":"中国","province":"青海","city":"西宁","county":"城西区","town":"彭家寨镇","village":"西北园村委会"    },
    {"level":"村","longitude":101.70339,"latitude":36.639606,"chinese_name":"刘家寨村委会","code1":"630104","code2":"0971","code3":"630104100202","code4":"111","continent":"亚洲","country":"中国","province":"青海","city":"西宁","county":"城西区","town":"彭家寨镇","village":"刘家寨村委会"    },
    {"level":"村","longitude":101.70339,"latitude":36.639606,"chinese_name":"汉庄村委会","code1":"630104","code2":"0971","code3":"630104100203","code4":"111","continent":"亚洲","country":"中国","province":"青海","city":"西宁","county":"城西区","town":"彭家寨镇","village":"汉庄村委会"    },
    {"level":"村","longitude":101.666002,"latitude":36.64842,"chinese_name":"张家湾村委会","code1":"630104","code2":"0971","code3":"630104100204","code4":"112","continent":"亚洲","country":"中国","province":"青海","city":"西宁","county":"城西区","town":"彭家寨镇","village":"张家湾村委会"    },
    {"level":"村","longitude":101.70339,"latitude":36.639606,"chinese_name":"杨家湾村委会","code1":"630104","code2":"0971","code3":"630104100205","code4":"112","continent":"亚洲","country":"中国","province":"青海","city":"西宁","county":"城西区","town":"彭家寨镇","village":"杨家湾村委会"    },
    {"level":"村","longitude":101.70339,"latitude":36.639606,"chinese_name":"阴山堂村委会","code1":"630104","code2":"0971","code3":"630104100206","code4":"220","continent":"亚洲","country":"中国","province":"青海","city":"西宁","county":"城西区","town":"彭家寨镇","village":"阴山堂村委会"    },
    {"level":"村","longitude":101.70339,"latitude":36.639606,"chinese_name":"火西村委会","code1":"630104","code2":"0971","code3":"630104100207","code4":"112","continent":"亚洲","country":"中国","province":"青海","city":"西宁","county":"城西区","town":"彭家寨镇","village":"火西村委会"    },
    {"level":"村","longitude":101.70339,"latitude":36.639606,"chinese_name":"火东村委会","code1":"630104","code2":"0971","code3":"630104100208","code4":"112","continent":"亚洲","country":"中国","province":"青海","city":"西宁","county":"城西区","town":"彭家寨镇","village":"火东村委会"    },
    {"level":"村","longitude":101.70339,"latitude":36.639606,"chinese_name":"晨光村委会","code1":"630104","code2":"0971","code3":"630104100209","code4":"111","continent":"亚洲","country":"中国","province":"青海","city":"西宁","county":"城西区","town":"彭家寨镇","village":"晨光村委会"    },
    {"level":"村","longitude":101.768188,"latitude":36.656425,"chinese_name":"朝阳社区居民委员会","code1":"630105","code2":"0971","code3":"630105001001","code4":"111","continent":"亚洲","country":"中国","province":"青海","city":"西宁","county":"城北区","town":"朝阳街道","village":"朝阳社区居民委员会"    },
    {"level":"村","longitude":101.768188,"latitude":36.656425,"chinese_name":"山川社区居民委员会","code1":"630105","code2":"0971","code3":"630105001002","code4":"111","continent":"亚洲","country":"中国","province":"青海","city":"西宁","county":"城北区","town":"朝阳街道","village":"山川社区居民委员会"    },
    {"level":"村","longitude":101.768188,"latitude":36.656425,"chinese_name":"北川河东路社区居民委员会","code1":"630105","code2":"0971","code3":"630105001003","code4":"111","continent":"亚洲","country":"中国","province":"青海","city":"西宁","county":"城北区","town":"朝阳街道","village":"北川河东路社区居民委员会"    },
    {"level":"村","longitude":101.768188,"latitude":36.656425,"chinese_name":"祁连路西社区居民委员会","code1":"630105","code2":"0971","code3":"630105001004","code4":"111","continent":"亚洲","country":"中国","province":"青海","city":"西宁","county":"城北区","town":"朝阳街道","village":"祁连路西社区居民委员会"    },
    {"level":"村","longitude":101.768188,"latitude":36.656425,"chinese_name":"北山社区居民委员会","code1":"630105","code2":"0971","code3":"630105001005","code4":"111","continent":"亚洲","country":"中国","province":"青海","city":"西宁","county":"城北区","town":"朝阳街道","village":"北山社区居民委员会"    },
    {"level":"村","longitude":101.768188,"latitude":36.656425,"chinese_name":"朝阳西路社区居委会","code1":"630105","code2":"0971","code3":"630105001006","code4":"111","continent":"亚洲","country":"中国","province":"青海","city":"西宁","county":"城北区","town":"朝阳街道","village":"朝阳西路社区居委会"    },
    {"level":"村","longitude":101.768188,"latitude":36.656425,"chinese_name":"北园村委会","code1":"630105","code2":"0971","code3":"630105001200","code4":"111","continent":"亚洲","country":"中国","province":"青海","city":"西宁","county":"城北区","town":"朝阳街道","village":"北园村委会"    },
    {"level":"村","longitude":101.768188,"latitude":36.656425,"chinese_name":"朝阳村委会","code1":"630105","code2":"0971","code3":"630105001201","code4":"111","continent":"亚洲","country":"中国","province":"青海","city":"西宁","county":"城北区","town":"朝阳街道","village":"朝阳村委会"    },
    {"level":"村","longitude":101.768188,"latitude":36.656425,"chinese_name":"祁家城村委会","code1":"630105","code2":"0971","code3":"630105001202","code4":"111","continent":"亚洲","country":"中国","province":"青海","city":"西宁","county":"城北区","town":"朝阳街道","village":"祁家城村委会"    },
    {"level":"村","longitude":101.768188,"latitude":36.656425,"chinese_name":"寺台子村委会","code1":"630105","code2":"0971","code3":"630105001203","code4":"111","continent":"亚洲","country":"中国","province":"青海","city":"西宁","county":"城北区","town":"朝阳街道","village":"寺台子村委会"    },
    {"level":"村","longitude":101.768188,"latitude":36.656425,"chinese_name":"新民村委会","code1":"630105","code2":"0971","code3":"630105001204","code4":"111","continent":"亚洲","country":"中国","province":"青海","city":"西宁","county":"城北区","town":"朝阳街道","village":"新民村委会"    },
    {"level":"村","longitude":101.754172,"latitude":36.647322,"chinese_name":"建设巷社区居民委员会","code1":"630105","code2":"0971","code3":"630105002001","code4":"111","continent":"亚洲","country":"中国","province":"青海","city":"西宁","county":"城北区","town":"小桥大街街道","village":"建设巷社区居民委员会"    },
    {"level":"村","longitude":101.755056,"latitude":36.643452,"chinese_name":"新海桥社区居民委员会","code1":"630105","code2":"0971","code3":"630105002002","code4":"111","continent":"亚洲","country":"中国","province":"青海","city":"西宁","county":"城北区","town":"小桥大街街道","village":"新海桥社区居民委员会"    },
    {"level":"村","longitude":101.755056,"latitude":36.643452,"chinese_name":"毛胜寺社区居民委员会","code1":"630105","code2":"0971","code3":"630105002003","code4":"111","continent":"亚洲","country":"中国","province":"青海","city":"西宁","county":"城北区","town":"小桥大街街道","village":"毛胜寺社区居民委员会"    },
    {"level":"村","longitude":101.755056,"latitude":36.643452,"chinese_name":"小桥社区居民委员会","code1":"630105","code2":"0971","code3":"630105002004","code4":"111","continent":"亚洲","country":"中国","province":"青海","city":"西宁","county":"城北区","town":"小桥大街街道","village":"小桥社区居民委员会"    },
    {"level":"村","longitude":101.755056,"latitude":36.643452,"chinese_name":"新世纪社区居民委员会","code1":"630105","code2":"0971","code3":"630105002005","code4":"111","continent":"亚洲","country":"中国","province":"青海","city":"西宁","county":"城北区","town":"小桥大街街道","village":"新世纪社区居民委员会"    },
    {"level":"村","longitude":101.755056,"latitude":36.643452,"chinese_name":"西海路社区居委会","code1":"630105","code2":"0971","code3":"630105002006","code4":"111","continent":"亚洲","country":"中国","province":"青海","city":"西宁","county":"城北区","town":"小桥大街街道","village":"西海路社区居委会"    },
    {"level":"村","longitude":101.755056,"latitude":36.643452,"chinese_name":"毛胜寺村委会","code1":"630105","code2":"0971","code3":"630105002200","code4":"111","continent":"亚洲","country":"中国","province":"青海","city":"西宁","county":"城北区","town":"小桥大街街道","village":"毛胜寺村委会"    },
    {"level":"村","longitude":101.755056,"latitude":36.643452,"chinese_name":"北杏园村委会","code1":"630105","code2":"0971","code3":"630105002201","code4":"111","continent":"亚洲","country":"中国","province":"青海","city":"西宁","county":"城北区","town":"小桥大街街道","village":"北杏园村委会"    },
    {"level":"村","longitude":101.755056,"latitude":36.643452,"chinese_name":"陶家寨村委会","code1":"630105","code2":"0971","code3":"630105002202","code4":"111","continent":"亚洲","country":"中国","province":"青海","city":"西宁","county":"城北区","town":"小桥大街街道","village":"陶家寨村委会"    },
    {"level":"村","longitude":101.755056,"latitude":36.643452,"chinese_name":"陶新村委会","code1":"630105","code2":"0971","code3":"630105002203","code4":"111","continent":"亚洲","country":"中国","province":"青海","city":"西宁","county":"城北区","town":"小桥大街街道","village":"陶新村委会"    },
    {"level":"村","longitude":101.755183,"latitude":36.650591,"chinese_name":"小桥村委会","code1":"630105","code2":"0971","code3":"630105002204","code4":"111","continent":"亚洲","country":"中国","province":"青海","city":"西宁","county":"城北区","town":"小桥大街街道","village":"小桥村委会"    },
    {"level":"村","longitude":101.685599,"latitude":36.665369,"chinese_name":"西杏园社区居民委员会","code1":"630105","code2":"0971","code3":"630105003001","code4":"111","continent":"亚洲","country":"中国","province":"青海","city":"西宁","county":"城北区","town":"马坊街道","village":"西杏园社区居民委员会"    },
    {"level":"村","longitude":101.685599,"latitude":36.665369,"chinese_name":"马坊东社区居民委员会","code1":"630105","code2":"0971","code3":"630105003002","code4":"111","continent":"亚洲","country":"中国","province":"青海","city":"西宁","county":"城北区","town":"马坊街道","village":"马坊东社区居民委员会"    },
    {"level":"村","longitude":101.685599,"latitude":36.665369,"chinese_name":"青工社区居民委员会","code1":"630105","code2":"0971","code3":"630105003003","code4":"111","continent":"亚洲","country":"中国","province":"青海","city":"西宁","county":"城北区","town":"马坊街道","village":"青工社区居民委员会"    },
    {"level":"村","longitude":101.685599,"latitude":36.665369,"chinese_name":"汽运社区居民委员会","code1":"630105","code2":"0971","code3":"630105003004","code4":"111","continent":"亚洲","country":"中国","province":"青海","city":"西宁","county":"城北区","town":"马坊街道","village":"汽运社区居民委员会"    },
    {"level":"村","longitude":101.678631,"latitude":36.664815,"chinese_name":"光明社区居民委员会","code1":"630105","code2":"0971","code3":"630105003005","code4":"111","continent":"亚洲","country":"中国","province":"青海","city":"西宁","county":"城北区","town":"马坊街道","village":"光明社区居民委员会"    },
    {"level":"村","longitude":101.685599,"latitude":36.665369,"chinese_name":"新村社区居民委员会","code1":"630105","code2":"0971","code3":"630105003006","code4":"111","continent":"亚洲","country":"中国","province":"青海","city":"西宁","county":"城北区","town":"马坊街道","village":"新村社区居民委员会"    },
    {"level":"村","longitude":101.685599,"latitude":36.665369,"chinese_name":"欣乐社区居民委员会","code1":"630105","code2":"0971","code3":"630105003007","code4":"111","continent":"亚洲","country":"中国","province":"青海","city":"西宁","county":"城北区","town":"马坊街道","village":"欣乐社区居民委员会"    },
    {"level":"村","longitude":101.685599,"latitude":36.665369,"chinese_name":"幸福社区居民委员会","code1":"630105","code2":"0971","code3":"630105003008","code4":"111","continent":"亚洲","country":"中国","province":"青海","city":"西宁","county":"城北区","town":"马坊街道","village":"幸福社区居民委员会"    },
    {"level":"村","longitude":101.74114,"latitude":36.645866,"chinese_name":"海湖桥西社区居委会","code1":"630105","code2":"0971","code3":"630105003010","code4":"111","continent":"亚洲","country":"中国","province":"青海","city":"西宁","county":"城北区","town":"马坊街道","village":"海湖桥西社区居委会"    },
    {"level":"村","longitude":101.685599,"latitude":36.665369,"chinese_name":"西杏园村委会","code1":"630105","code2":"0971","code3":"630105003200","code4":"111","continent":"亚洲","country":"中国","province":"青海","city":"西宁","county":"城北区","town":"马坊街道","village":"西杏园村委会"    },
    {"level":"村","longitude":101.708076,"latitude":36.664012,"chinese_name":"马坊村委会","code1":"630105","code2":"0971","code3":"630105003201","code4":"112","continent":"亚洲","country":"中国","province":"青海","city":"西宁","county":"城北区","town":"马坊街道","village":"马坊村委会"    },
    {"level":"村","longitude":101.685599,"latitude":36.665369,"chinese_name":"盐庄村委会","code1":"630105","code2":"0971","code3":"630105003202","code4":"111","continent":"亚洲","country":"中国","province":"青海","city":"西宁","county":"城北区","town":"马坊街道","village":"盐庄村委会"    },
    {"level":"村","longitude":101.666258,"latitude":36.659519,"chinese_name":"三其村委会","code1":"630105","code2":"0971","code3":"630105003203","code4":"112","continent":"亚洲","country":"中国","province":"青海","city":"西宁","county":"城北区","town":"马坊街道","village":"三其村委会"    },
    {"level":"村","longitude":101.727754,"latitude":36.653066,"chinese_name":"萨尔斯堡社区","code1":"630105","code2":"0971","code3":"630105004001","code4":"111","continent":"亚洲","country":"中国","province":"青海","city":"西宁","county":"城北区","town":"火车西站街道","village":"萨尔斯堡社区"    },
    {"level":"村","longitude":101.702026,"latitude":36.655679,"chinese_name":"美丽水街社区","code1":"630105","code2":"0971","code3":"630105004002","code4":"111","continent":"亚洲","country":"中国","province":"青海","city":"西宁","county":"城北区","town":"火车西站街道","village":"美丽水街社区"    },
    {"level":"村","longitude":101.766228,"latitude":36.650038,"chinese_name":"湟水河畔社区","code1":"630105","code2":"0971","code3":"630105004003","code4":"111","continent":"亚洲","country":"中国","province":"青海","city":"西宁","county":"城北区","town":"火车西站街道","village":"湟水河畔社区"    },
    {"level":"村","longitude":101.690265,"latitude":36.65748,"chinese_name":"火车西站社区","code1":"630105","code2":"0971","code3":"630105004004","code4":"111","continent":"亚洲","country":"中国","province":"青海","city":"西宁","county":"城北区","town":"火车西站街道","village":"火车西站社区"    },
    {"level":"村","longitude":101.733427,"latitude":36.651485,"chinese_name":"盐庄社区","code1":"630105","code2":"0971","code3":"630105004005","code4":"111","continent":"亚洲","country":"中国","province":"青海","city":"西宁","county":"城北区","town":"火车西站街道","village":"盐庄社区"    },
    {"level":"村","longitude":101.63232,"latitude":36.666438,"chinese_name":"一机床社区居民委员会","code1":"630105","code2":"0971","code3":"630105100001","code4":"111","continent":"亚洲","country":"中国","province":"青海","city":"西宁","county":"城北区","town":"大堡子镇","village":"一机床社区居民委员会"    },
    {"level":"村","longitude":101.63232,"latitude":36.666438,"chinese_name":"工具厂社区居民委员会","code1":"630105","code2":"0971","code3":"630105100002","code4":"111","continent":"亚洲","country":"中国","province":"青海","city":"西宁","county":"城北区","town":"大堡子镇","village":"工具厂社区居民委员会"    },
    {"level":"村","longitude":101.63232,"latitude":36.666438,"chinese_name":"大堡子村委会","code1":"630105","code2":"0971","code3":"630105100200","code4":"111","continent":"亚洲","country":"中国","province":"青海","city":"西宁","county":"城北区","town":"大堡子镇","village":"大堡子村委会"    },
    {"level":"村","longitude":101.63232,"latitude":36.666438,"chinese_name":"严小村委会","code1":"630105","code2":"0971","code3":"630105100201","code4":"112","continent":"亚洲","country":"中国","province":"青海","city":"西宁","county":"城北区","town":"大堡子镇","village":"严小村委会"    },
    {"level":"村","longitude":101.63232,"latitude":36.666438,"chinese_name":"宋家寨村委会","code1":"630105","code2":"0971","code3":"630105100202","code4":"112","continent":"亚洲","country":"中国","province":"青海","city":"西宁","county":"城北区","town":"大堡子镇","village":"宋家寨村委会"    },
    {"level":"村","longitude":101.63232,"latitude":36.666438,"chinese_name":"晋家湾村委会","code1":"630105","code2":"0971","code3":"630105100203","code4":"112","continent":"亚洲","country":"中国","province":"青海","city":"西宁","county":"城北区","town":"大堡子镇","village":"晋家湾村委会"    },
    {"level":"村","longitude":101.63232,"latitude":36.666438,"chinese_name":"鲍家寨村委会","code1":"630105","code2":"0971","code3":"630105100204","code4":"112","continent":"亚洲","country":"中国","province":"青海","city":"西宁","county":"城北区","town":"大堡子镇","village":"鲍家寨村委会"    },
    {"level":"村","longitude":101.63232,"latitude":36.666438,"chinese_name":"朱南村委会","code1":"630105","code2":"0971","code3":"630105100205","code4":"112","continent":"亚洲","country":"中国","province":"青海","city":"西宁","county":"城北区","town":"大堡子镇","village":"朱南村委会"    },
    {"level":"村","longitude":101.610771,"latitude":36.671723,"chinese_name":"朱北村委会","code1":"630105","code2":"0971","code3":"630105100206","code4":"112","continent":"亚洲","country":"中国","province":"青海","city":"西宁","county":"城北区","town":"大堡子镇","village":"朱北村委会"    },
    {"level":"村","longitude":101.58328,"latitude":36.651007,"chinese_name":"吧浪村委会","code1":"630105","code2":"0971","code3":"630105100207","code4":"220","continent":"亚洲","country":"中国","province":"青海","city":"西宁","county":"城北区","town":"大堡子镇","village":"吧浪村委会"    },
    {"level":"村","longitude":101.63232,"latitude":36.666438,"chinese_name":"吴仲村委会","code1":"630105","code2":"0971","code3":"630105100208","code4":"220","continent":"亚洲","country":"中国","province":"青海","city":"西宁","county":"城北区","town":"大堡子镇","village":"吴仲村委会"    },
    {"level":"村","longitude":101.63232,"latitude":36.666438,"chinese_name":"汪家寨村委会","code1":"630105","code2":"0971","code3":"630105100209","code4":"220","continent":"亚洲","country":"中国","province":"青海","city":"西宁","county":"城北区","town":"大堡子镇","village":"汪家寨村委会"    },
    {"level":"村","longitude":101.63232,"latitude":36.666438,"chinese_name":"乙其寨村委会","code1":"630105","code2":"0971","code3":"630105100210","code4":"220","continent":"亚洲","country":"中国","province":"青海","city":"西宁","county":"城北区","town":"大堡子镇","village":"乙其寨村委会"    },
    {"level":"村","longitude":101.629057,"latitude":36.648184,"chinese_name":"陶南村委会","code1":"630105","code2":"0971","code3":"630105100211","code4":"112","continent":"亚洲","country":"中国","province":"青海","city":"西宁","county":"城北区","town":"大堡子镇","village":"陶南村委会"    },
    {"level":"村","longitude":101.63232,"latitude":36.666438,"chinese_name":"陶北村委会","code1":"630105","code2":"0971","code3":"630105100212","code4":"112","continent":"亚洲","country":"中国","province":"青海","city":"西宁","county":"城北区","town":"大堡子镇","village":"陶北村委会"    },
    {"level":"村","longitude":101.757077,"latitude":36.718677,"chinese_name":"生物园社区居民委员会","code1":"630105","code2":"0971","code3":"630105101001","code4":"111","continent":"亚洲","country":"中国","province":"青海","city":"西宁","county":"城北区","town":"廿里铺镇","village":"生物园社区居民委员会"    },
    {"level":"村","longitude":101.757077,"latitude":36.718677,"chinese_name":"泉湾社区居民委员会","code1":"630105","code2":"0971","code3":"630105101002","code4":"111","continent":"亚洲","country":"中国","province":"青海","city":"西宁","county":"城北区","town":"廿里铺镇","village":"泉湾社区居民委员会"    },
    {"level":"村","longitude":101.757077,"latitude":36.718677,"chinese_name":"高教路社区居委会","code1":"630105","code2":"0971","code3":"630105101003","code4":"111","continent":"亚洲","country":"中国","province":"青海","city":"西宁","county":"城北区","town":"廿里铺镇","village":"高教路社区居委会"    },
    {"level":"村","longitude":101.757077,"latitude":36.718677,"chinese_name":"廿里铺村委会","code1":"630105","code2":"0971","code3":"630105101200","code4":"111","continent":"亚洲","country":"中国","province":"青海","city":"西宁","county":"城北区","town":"廿里铺镇","village":"廿里铺村委会"    },
    {"level":"村","longitude":101.757077,"latitude":36.718677,"chinese_name":"花园台村委会","code1":"630105","code2":"0971","code3":"630105101201","code4":"220","continent":"亚洲","country":"中国","province":"青海","city":"西宁","county":"城北区","town":"廿里铺镇","village":"花园台村委会"    },
    {"level":"村","longitude":101.75806,"latitude":36.74655,"chinese_name":"孙家寨村委会","code1":"630105","code2":"0971","code3":"630105101202","code4":"112","continent":"亚洲","country":"中国","province":"青海","city":"西宁","county":"城北区","town":"廿里铺镇","village":"孙家寨村委会"    },
    {"level":"村","longitude":101.757077,"latitude":36.718677,"chinese_name":"小寨村委会","code1":"630105","code2":"0971","code3":"630105101203","code4":"220","continent":"亚洲","country":"中国","province":"青海","city":"西宁","county":"城北区","town":"廿里铺镇","village":"小寨村委会"    },
    {"level":"村","longitude":101.757077,"latitude":36.718677,"chinese_name":"莫家庄村委会","code1":"630105","code2":"0971","code3":"630105101204","code4":"112","continent":"亚洲","country":"中国","province":"青海","city":"西宁","county":"城北区","town":"廿里铺镇","village":"莫家庄村委会"    },
    {"level":"村","longitude":101.756037,"latitude":36.701456,"chinese_name":"新村委会","code1":"630105","code2":"0971","code3":"630105101205","code4":"112","continent":"亚洲","country":"中国","province":"青海","city":"西宁","county":"城北区","town":"廿里铺镇","village":"新村委会"    },
    {"level":"村","longitude":101.757077,"latitude":36.718677,"chinese_name":"石头磊村委会","code1":"630105","code2":"0971","code3":"630105101206","code4":"112","continent":"亚洲","country":"中国","province":"青海","city":"西宁","county":"城北区","town":"廿里铺镇","village":"石头磊村委会"    },
    {"level":"村","longitude":101.757077,"latitude":36.718677,"chinese_name":"魏家庄村委会","code1":"630105","code2":"0971","code3":"630105101207","code4":"112","continent":"亚洲","country":"中国","province":"青海","city":"西宁","county":"城北区","town":"廿里铺镇","village":"魏家庄村委会"    },
    {"level":"村","longitude":101.757077,"latitude":36.718677,"chinese_name":"九家湾村委会","code1":"630105","code2":"0971","code3":"630105101208","code4":"220","continent":"亚洲","country":"中国","province":"青海","city":"西宁","county":"城北区","town":"廿里铺镇","village":"九家湾村委会"    },
    {"level":"村","longitude":101.757077,"latitude":36.718677,"chinese_name":"郭家塔村委会","code1":"630105","code2":"0971","code3":"630105101209","code4":"220","continent":"亚洲","country":"中国","province":"青海","city":"西宁","county":"城北区","town":"廿里铺镇","village":"郭家塔村委会"    },
    {"level":"村","longitude":101.757077,"latitude":36.718677,"chinese_name":"双苏堡村委会","code1":"630105","code2":"0971","code3":"630105101210","code4":"220","continent":"亚洲","country":"中国","province":"青海","city":"西宁","county":"城北区","town":"廿里铺镇","village":"双苏堡村委会"    },
    {"level":"村","longitude":101.748372,"latitude":36.685122,"chinese_name":"生物科技产业园虚拟社区","code1":"630105","code2":"0971","code3":"630105400498","code4":"111","continent":"亚洲","country":"中国","province":"青海","city":"西宁","county":"城北区","town":"生物科技产业园","village":"生物科技产业园虚拟社区"    },
    {"level":"村","longitude":101.684025,"latitude":36.929598,"chinese_name":"人民路南居委会","code1":"630121","code2":"0971","code3":"630121100001","code4":"121","continent":"亚洲","country":"中国","province":"青海","city":"西宁","county":"大通回族土族自治县","town":"桥头镇","village":"人民路南居委会"    },
    {"level":"村","longitude":101.684025,"latitude":36.929598,"chinese_name":"人民路北居委会","code1":"630121","code2":"0971","code3":"630121100002","code4":"121","continent":"亚洲","country":"中国","province":"青海","city":"西宁","county":"大通回族土族自治县","town":"桥头镇","village":"人民路北居委会"    },
    {"level":"村","longitude":101.682484,"latitude":36.943351,"chinese_name":"园林路北居委会","code1":"630121","code2":"0971","code3":"630121100003","code4":"121","continent":"亚洲","country":"中国","province":"青海","city":"西宁","county":"大通回族土族自治县","town":"桥头镇","village":"园林路北居委会"    },
    {"level":"村","longitude":101.682484,"latitude":36.943351,"chinese_name":"园林路南居委会","code1":"630121","code2":"0971","code3":"630121100005","code4":"121","continent":"亚洲","country":"中国","province":"青海","city":"西宁","county":"大通回族土族自治县","town":"桥头镇","village":"园林路南居委会"    },
    {"level":"村","longitude":101.712074,"latitude":36.915221,"chinese_name":"解放路北居委会","code1":"630121","code2":"0971","code3":"630121100006","code4":"121","continent":"亚洲","country":"中国","province":"青海","city":"西宁","county":"大通回族土族自治县","town":"桥头镇","village":"解放路北居委会"    },
    {"level":"村","longitude":101.712074,"latitude":36.915221,"chinese_name":"解放路南居委会","code1":"630121","code2":"0971","code3":"630121100007","code4":"121","continent":"亚洲","country":"中国","province":"青海","city":"西宁","county":"大通回族土族自治县","town":"桥头镇","village":"解放路南居委会"    },
    {"level":"村","longitude":101.741299,"latitude":36.889896,"chinese_name":"元朔居委会","code1":"630121","code2":"0971","code3":"630121100008","code4":"121","continent":"亚洲","country":"中国","province":"青海","city":"西宁","county":"大通回族土族自治县","town":"桥头镇","village":"元朔居委会"    },
    {"level":"村","longitude":101.683475,"latitude":36.927788,"chinese_name":"铝电居委会","code1":"630121","code2":"0971","code3":"630121100009","code4":"121","continent":"亚洲","country":"中国","province":"青海","city":"西宁","county":"大通回族土族自治县","town":"桥头镇","village":"铝电居委会"    },
    {"level":"村","longitude":101.683475,"latitude":36.927788,"chinese_name":"小石山居委会","code1":"630121","code2":"0971","code3":"630121100010","code4":"121","continent":"亚洲","country":"中国","province":"青海","city":"西宁","county":"大通回族土族自治县","town":"桥头镇","village":"小石山居委会"    },
    {"level":"村","longitude":101.683475,"latitude":36.927788,"chinese_name":"矿山居委会","code1":"630121","code2":"0971","code3":"630121100011","code4":"121","continent":"亚洲","country":"中国","province":"青海","city":"西宁","county":"大通回族土族自治县","town":"桥头镇","village":"矿山居委会"    },
    {"level":"村","longitude":101.683475,"latitude":36.927788,"chinese_name":"八一居委会","code1":"630121","code2":"0971","code3":"630121100012","code4":"121","continent":"亚洲","country":"中国","province":"青海","city":"西宁","county":"大通回族土族自治县","town":"桥头镇","village":"八一居委会"    },
    {"level":"村","longitude":101.663378,"latitude":36.958276,"chinese_name":"大煤洞村委会","code1":"630121","code2":"0971","code3":"630121100200","code4":"122","continent":"亚洲","country":"中国","province":"青海","city":"西宁","county":"大通回族土族自治县","town":"桥头镇","village":"大煤洞村委会"    },
    {"level":"村","longitude":101.683475,"latitude":36.927788,"chinese_name":"元树尔村委会","code1":"630121","code2":"0971","code3":"630121100201","code4":"122","continent":"亚洲","country":"中国","province":"青海","city":"西宁","county":"大通回族土族自治县","town":"桥头镇","village":"元树尔村委会"    },
    {"level":"村","longitude":101.683475,"latitude":36.927788,"chinese_name":"闇门滩村委会","code1":"630121","code2":"0971","code3":"630121100202","code4":"122","continent":"亚洲","country":"中国","province":"青海","city":"西宁","county":"大通回族土族自治县","town":"桥头镇","village":"闇门滩村委会"    },
    {"level":"村","longitude":101.683475,"latitude":36.927788,"chinese_name":"胡基沟村委会","code1":"630121","code2":"0971","code3":"630121100203","code4":"220","continent":"亚洲","country":"中国","province":"青海","city":"西宁","county":"大通回族土族自治县","town":"桥头镇","village":"胡基沟村委会"    },
    {"level":"村","longitude":101.683475,"latitude":36.927788,"chinese_name":"小煤洞村委会","code1":"630121","code2":"0971","code3":"630121100204","code4":"122","continent":"亚洲","country":"中国","province":"青海","city":"西宁","county":"大通回族土族自治县","town":"桥头镇","village":"小煤洞村委会"    },
    {"level":"村","longitude":101.677894,"latitude":36.972091,"chinese_name":"向阳堡村委会","code1":"630121","code2":"0971","code3":"630121100205","code4":"122","continent":"亚洲","country":"中国","province":"青海","city":"西宁","county":"大通回族土族自治县","town":"桥头镇","village":"向阳堡村委会"    },
    {"level":"村","longitude":101.68974,"latitude":36.947803,"chinese_name":"红河限村委会","code1":"630121","code2":"0971","code3":"630121100206","code4":"122","continent":"亚洲","country":"中国","province":"青海","city":"西宁","county":"大通回族土族自治县","town":"桥头镇","village":"红河限村委会"    },
    {"level":"村","longitude":101.683475,"latitude":36.927788,"chinese_name":"毛家寨村委会","code1":"630121","code2":"0971","code3":"630121100207","code4":"122","continent":"亚洲","country":"中国","province":"青海","city":"西宁","county":"大通回族土族自治县","town":"桥头镇","village":"毛家寨村委会"    },
    {"level":"村","longitude":101.683475,"latitude":36.927788,"chinese_name":"老营庄村委会","code1":"630121","code2":"0971","code3":"630121100208","code4":"122","continent":"亚洲","country":"中国","province":"青海","city":"西宁","county":"大通回族土族自治县","town":"桥头镇","village":"老营庄村委会"    },
    {"level":"村","longitude":101.683475,"latitude":36.927788,"chinese_name":"大湾村委会","code1":"630121","code2":"0971","code3":"630121100209","code4":"122","continent":"亚洲","country":"中国","province":"青海","city":"西宁","county":"大通回族土族自治县","town":"桥头镇","village":"大湾村委会"    },
    {"level":"村","longitude":101.683475,"latitude":36.927788,"chinese_name":"水泉湾村委会","code1":"630121","code2":"0971","code3":"630121100210","code4":"122","continent":"亚洲","country":"中国","province":"青海","city":"西宁","county":"大通回族土族自治县","town":"桥头镇","village":"水泉湾村委会"    },
    {"level":"村","longitude":101.683475,"latitude":36.927788,"chinese_name":"毛家沟村委会","code1":"630121","code2":"0971","code3":"630121100211","code4":"220","continent":"亚洲","country":"中国","province":"青海","city":"西宁","county":"大通回族土族自治县","town":"桥头镇","village":"毛家沟村委会"    },
    {"level":"村","longitude":101.683475,"latitude":36.927788,"chinese_name":"贺家寨村委会","code1":"630121","code2":"0971","code3":"630121100212","code4":"122","continent":"亚洲","country":"中国","province":"青海","city":"西宁","county":"大通回族土族自治县","town":"桥头镇","village":"贺家寨村委会"    },
    {"level":"村","longitude":101.683475,"latitude":36.927788,"chinese_name":"古城村委会","code1":"630121","code2":"0971","code3":"630121100213","code4":"122","continent":"亚洲","country":"中国","province":"青海","city":"西宁","county":"大通回族土族自治县","town":"桥头镇","village":"古城村委会"    },
    {"level":"村","longitude":101.683475,"latitude":36.927788,"chinese_name":"后庄村委会","code1":"630121","code2":"0971","code3":"630121100214","code4":"122","continent":"亚洲","country":"中国","province":"青海","city":"西宁","county":"大通回族土族自治县","town":"桥头镇","village":"后庄村委会"    },
    {"level":"村","longitude":101.683475,"latitude":36.927788,"chinese_name":"后子沟村委会","code1":"630121","code2":"0971","code3":"630121100215","code4":"220","continent":"亚洲","country":"中国","province":"青海","city":"西宁","county":"大通回族土族自治县","town":"桥头镇","village":"后子沟村委会"    },
    {"level":"村","longitude":101.683475,"latitude":36.927788,"chinese_name":"南关村委会","code1":"630121","code2":"0971","code3":"630121100216","code4":"122","continent":"亚洲","country":"中国","province":"青海","city":"西宁","county":"大通回族土族自治县","town":"桥头镇","village":"南关村委会"    },
    {"level":"村","longitude":101.683475,"latitude":36.927788,"chinese_name":"上关村委会","code1":"630121","code2":"0971","code3":"630121100217","code4":"122","continent":"亚洲","country":"中国","province":"青海","city":"西宁","county":"大通回族土族自治县","town":"桥头镇","village":"上关村委会"    },
    {"level":"村","longitude":101.683475,"latitude":36.927788,"chinese_name":"上庙沟村委会","code1":"630121","code2":"0971","code3":"630121100218","code4":"220","continent":"亚洲","country":"中国","province":"青海","city":"西宁","county":"大通回族土族自治县","town":"桥头镇","village":"上庙沟村委会"    },
    {"level":"村","longitude":101.683475,"latitude":36.927788,"chinese_name":"下庙沟村委会","code1":"630121","code2":"0971","code3":"630121100219","code4":"122","continent":"亚洲","country":"中国","province":"青海","city":"西宁","county":"大通回族土族自治县","town":"桥头镇","village":"下庙沟村委会"    },
    {"level":"村","longitude":101.683475,"latitude":36.927788,"chinese_name":"新城村委会","code1":"630121","code2":"0971","code3":"630121100220","code4":"122","continent":"亚洲","country":"中国","province":"青海","city":"西宁","county":"大通回族土族自治县","town":"桥头镇","village":"新城村委会"    },
    {"level":"村","longitude":101.683475,"latitude":36.927788,"chinese_name":"窑庄村委会","code1":"630121","code2":"0971","code3":"630121100221","code4":"220","continent":"亚洲","country":"中国","province":"青海","city":"西宁","county":"大通回族土族自治县","town":"桥头镇","village":"窑庄村委会"    },
    {"level":"村","longitude":101.543943,"latitude":37.032624,"chinese_name":"佰胜居委会","code1":"630121","code2":"0971","code3":"630121101001","code4":"121","continent":"亚洲","country":"中国","province":"青海","city":"西宁","county":"大通回族土族自治县","town":"城关镇","village":"佰胜居委会"    },
    {"level":"村","longitude":101.544,"latitude":37.034301,"chinese_name":"西关村委会","code1":"630121","code2":"0971","code3":"630121101200","code4":"122","continent":"亚洲","country":"中国","province":"青海","city":"西宁","county":"大通回族土族自治县","town":"城关镇","village":"西关村委会"    },
    {"level":"村","longitude":101.543943,"latitude":37.032624,"chinese_name":"上毛佰胜村委会","code1":"630121","code2":"0971","code3":"630121101201","code4":"122","continent":"亚洲","country":"中国","province":"青海","city":"西宁","county":"大通回族土族自治县","town":"城关镇","village":"上毛佰胜村委会"    },
    {"level":"村","longitude":101.543943,"latitude":37.032624,"chinese_name":"下毛佰胜村委会","code1":"630121","code2":"0971","code3":"630121101202","code4":"122","continent":"亚洲","country":"中国","province":"青海","city":"西宁","county":"大通回族土族自治县","town":"城关镇","village":"下毛佰胜村委会"    },
    {"level":"村","longitude":101.548609,"latitude":37.032569,"chinese_name":"西门村委会","code1":"630121","code2":"0971","code3":"630121101203","code4":"122","continent":"亚洲","country":"中国","province":"青海","city":"西宁","county":"大通回族土族自治县","town":"城关镇","village":"西门村委会"    },
    {"level":"村","longitude":101.543943,"latitude":37.032624,"chinese_name":"城关村委会","code1":"630121","code2":"0971","code3":"630121101204","code4":"122","continent":"亚洲","country":"中国","province":"青海","city":"西宁","county":"大通回族土族自治县","town":"城关镇","village":"城关村委会"    },
    {"level":"村","longitude":101.543943,"latitude":37.032624,"chinese_name":"东门村委会","code1":"630121","code2":"0971","code3":"630121101205","code4":"122","continent":"亚洲","country":"中国","province":"青海","city":"西宁","county":"大通回族土族自治县","town":"城关镇","village":"东门村委会"    },
    {"level":"村","longitude":101.543943,"latitude":37.032624,"chinese_name":"好来村委会","code1":"630121","code2":"0971","code3":"630121101206","code4":"220","continent":"亚洲","country":"中国","province":"青海","city":"西宁","county":"大通回族土族自治县","town":"城关镇","village":"好来村委会"    },
    {"level":"村","longitude":101.543943,"latitude":37.032624,"chinese_name":"龙曲村委会","code1":"630121","code2":"0971","code3":"630121101207","code4":"220","continent":"亚洲","country":"中国","province":"青海","city":"西宁","county":"大通回族土族自治县","town":"城关镇","village":"龙曲村委会"    },
    {"level":"村","longitude":101.543943,"latitude":37.032624,"chinese_name":"塔哇村委会","code1":"630121","code2":"0971","code3":"630121101208","code4":"220","continent":"亚洲","country":"中国","province":"青海","city":"西宁","county":"大通回族土族自治县","town":"城关镇","village":"塔哇村委会"    },
    {"level":"村","longitude":101.510444,"latitude":37.047508,"chinese_name":"贝寺村委会","code1":"630121","code2":"0971","code3":"630121101209","code4":"220","continent":"亚洲","country":"中国","province":"青海","city":"西宁","county":"大通回族土族自治县","town":"城关镇","village":"贝寺村委会"    },
    {"level":"村","longitude":101.543943,"latitude":37.032624,"chinese_name":"张家庄村委会","code1":"630121","code2":"0971","code3":"630121101210","code4":"220","continent":"亚洲","country":"中国","province":"青海","city":"西宁","county":"大通回族土族自治县","town":"城关镇","village":"张家庄村委会"    },
    {"level":"村","longitude":101.543943,"latitude":37.032624,"chinese_name":"大庄村委会","code1":"630121","code2":"0971","code3":"630121101211","code4":"220","continent":"亚洲","country":"中国","province":"青海","city":"西宁","county":"大通回族土族自治县","town":"城关镇","village":"大庄村委会"    },
    {"level":"村","longitude":101.543943,"latitude":37.032624,"chinese_name":"阳坡庄村委会","code1":"630121","code2":"0971","code3":"630121101212","code4":"220","continent":"亚洲","country":"中国","province":"青海","city":"西宁","county":"大通回族土族自治县","town":"城关镇","village":"阳坡庄村委会"    },
    {"level":"村","longitude":101.543943,"latitude":37.032624,"chinese_name":"柳树庄村委会","code1":"630121","code2":"0971","code3":"630121101213","code4":"122","continent":"亚洲","country":"中国","province":"青海","city":"西宁","county":"大通回族土族自治县","town":"城关镇","village":"柳树庄村委会"    },
    {"level":"村","longitude":101.543943,"latitude":37.032624,"chinese_name":"李家磨村委会","code1":"630121","code2":"0971","code3":"630121101214","code4":"220","continent":"亚洲","country":"中国","province":"青海","city":"西宁","county":"大通回族土族自治县","town":"城关镇","village":"李家磨村委会"    },
    {"level":"村","longitude":101.543943,"latitude":37.032624,"chinese_name":"下寺咀村委会","code1":"630121","code2":"0971","code3":"630121101215","code4":"122","continent":"亚洲","country":"中国","province":"青海","city":"西宁","county":"大通回族土族自治县","town":"城关镇","village":"下寺咀村委会"    },
    {"level":"村","longitude":101.569353,"latitude":37.041539,"chinese_name":"上寺咀村委会","code1":"630121","code2":"0971","code3":"630121101216","code4":"122","continent":"亚洲","country":"中国","province":"青海","city":"西宁","county":"大通回族土族自治县","town":"城关镇","village":"上寺咀村委会"    },
    {"level":"村","longitude":101.543943,"latitude":37.032624,"chinese_name":"沙巴图村委会","code1":"630121","code2":"0971","code3":"630121101217","code4":"220","continent":"亚洲","country":"中国","province":"青海","city":"西宁","county":"大通回族土族自治县","town":"城关镇","village":"沙巴图村委会"    },
    {"level":"村","longitude":101.543943,"latitude":37.032624,"chinese_name":"林家台村委会","code1":"630121","code2":"0971","code3":"630121101218","code4":"220","continent":"亚洲","country":"中国","province":"青海","city":"西宁","county":"大通回族土族自治县","town":"城关镇","village":"林家台村委会"    },
    {"level":"村","longitude":101.575354,"latitude":37.041717,"chinese_name":"铁家庄村委会","code1":"630121","code2":"0971","code3":"630121101219","code4":"220","continent":"亚洲","country":"中国","province":"青海","city":"西宁","county":"大通回族土族自治县","town":"城关镇","village":"铁家庄村委会"    },
    {"level":"村","longitude":101.640817,"latitude":36.996951,"chinese_name":"塔尔湾居委会","code1":"630121","code2":"0971","code3":"630121102001","code4":"121","continent":"亚洲","country":"中国","province":"青海","city":"西宁","county":"大通回族土族自治县","town":"塔尔镇","village":"塔尔湾居委会"    },
    {"level":"村","longitude":101.645093,"latitude":36.998873,"chinese_name":"塔尔湾村委会","code1":"630121","code2":"0971","code3":"630121102200","code4":"121","continent":"亚洲","country":"中国","province":"青海","city":"西宁","county":"大通回族土族自治县","town":"塔尔镇","village":"塔尔湾村委会"    },
    {"level":"村","longitude":101.640817,"latitude":36.996951,"chinese_name":"贲坑滩村委会","code1":"630121","code2":"0971","code3":"630121102201","code4":"220","continent":"亚洲","country":"中国","province":"青海","city":"西宁","county":"大通回族土族自治县","town":"塔尔镇","village":"贲坑滩村委会"    },
    {"level":"村","longitude":101.640817,"latitude":36.996951,"chinese_name":"上旧庄村委会","code1":"630121","code2":"0971","code3":"630121102202","code4":"220","continent":"亚洲","country":"中国","province":"青海","city":"西宁","county":"大通回族土族自治县","town":"塔尔镇","village":"上旧庄村委会"    },
    {"level":"村","longitude":101.595961,"latitude":37.023068,"chinese_name":"石家庄村委会","code1":"630121","code2":"0971","code3":"630121102203","code4":"220","continent":"亚洲","country":"中国","province":"青海","city":"西宁","county":"大通回族土族自治县","town":"塔尔镇","village":"石家庄村委会"    },
    {"level":"村","longitude":101.640817,"latitude":36.996951,"chinese_name":"下旧庄村委会","code1":"630121","code2":"0971","code3":"630121102204","code4":"220","continent":"亚洲","country":"中国","province":"青海","city":"西宁","county":"大通回族土族自治县","town":"塔尔镇","village":"下旧庄村委会"    },
    {"level":"村","longitude":101.640817,"latitude":36.996951,"chinese_name":"中庄村委会","code1":"630121","code2":"0971","code3":"630121102205","code4":"122","continent":"亚洲","country":"中国","province":"青海","city":"西宁","county":"大通回族土族自治县","town":"塔尔镇","village":"中庄村委会"    },
    {"level":"村","longitude":101.640817,"latitude":36.996951,"chinese_name":"泉沟村委会","code1":"630121","code2":"0971","code3":"630121102206","code4":"220","continent":"亚洲","country":"中国","province":"青海","city":"西宁","county":"大通回族土族自治县","town":"塔尔镇","village":"泉沟村委会"    },
    {"level":"村","longitude":101.640817,"latitude":36.996951,"chinese_name":"凉州庄村委会","code1":"630121","code2":"0971","code3":"630121102207","code4":"122","continent":"亚洲","country":"中国","province":"青海","city":"西宁","county":"大通回族土族自治县","town":"塔尔镇","village":"凉州庄村委会"    },
    {"level":"村","longitude":101.660433,"latitude":36.974451,"chinese_name":"河州庄村委会","code1":"630121","code2":"0971","code3":"630121102208","code4":"220","continent":"亚洲","country":"中国","province":"青海","city":"西宁","county":"大通回族土族自治县","town":"塔尔镇","village":"河州庄村委会"    },
    {"level":"村","longitude":101.640817,"latitude":36.996951,"chinese_name":"韭菜沟村委会","code1":"630121","code2":"0971","code3":"630121102209","code4":"220","continent":"亚洲","country":"中国","province":"青海","city":"西宁","county":"大通回族土族自治县","town":"塔尔镇","village":"韭菜沟村委会"    },
    {"level":"村","longitude":101.648127,"latitude":37.033172,"chinese_name":"半沟村委会","code1":"630121","code2":"0971","code3":"630121102210","code4":"220","continent":"亚洲","country":"中国","province":"青海","city":"西宁","county":"大通回族土族自治县","town":"塔尔镇","village":"半沟村委会"    },
    {"level":"村","longitude":101.640817,"latitude":36.996951,"chinese_name":"药草滩东庄村委会","code1":"630121","code2":"0971","code3":"630121102211","code4":"220","continent":"亚洲","country":"中国","province":"青海","city":"西宁","county":"大通回族土族自治县","town":"塔尔镇","village":"药草滩东庄村委会"    },
    {"level":"村","longitude":101.640817,"latitude":36.996951,"chinese_name":"格达庄村委会","code1":"630121","code2":"0971","code3":"630121102212","code4":"220","continent":"亚洲","country":"中国","province":"青海","city":"西宁","county":"大通回族土族自治县","town":"塔尔镇","village":"格达庄村委会"    },
    {"level":"村","longitude":101.640817,"latitude":36.996951,"chinese_name":"塔尔沟村委会","code1":"630121","code2":"0971","code3":"630121102213","code4":"220","continent":"亚洲","country":"中国","province":"青海","city":"西宁","county":"大通回族土族自治县","town":"塔尔镇","village":"塔尔沟村委会"    },
    {"level":"村","longitude":101.65755,"latitude":37.045031,"chinese_name":"王庄村委会","code1":"630121","code2":"0971","code3":"630121102214","code4":"220","continent":"亚洲","country":"中国","province":"青海","city":"西宁","county":"大通回族土族自治县","town":"塔尔镇","village":"王庄村委会"    },
    {"level":"村","longitude":101.640817,"latitude":36.996951,"chinese_name":"药草滩西庄村委会","code1":"630121","code2":"0971","code3":"630121102215","code4":"220","continent":"亚洲","country":"中国","province":"青海","city":"西宁","county":"大通回族土族自治县","town":"塔尔镇","village":"药草滩西庄村委会"    },
    {"level":"村","longitude":101.809478,"latitude":37.038057,"chinese_name":"衙门庄居委会","code1":"630121","code2":"0971","code3":"630121103001","code4":"121","continent":"亚洲","country":"中国","province":"青海","city":"西宁","county":"大通回族土族自治县","town":"东峡镇","village":"衙门庄居委会"    },
    {"level":"村","longitude":101.809478,"latitude":37.038057,"chinese_name":"衙门庄村委会","code1":"630121","code2":"0971","code3":"630121103200","code4":"121","continent":"亚洲","country":"中国","province":"青海","city":"西宁","county":"大通回族土族自治县","town":"东峡镇","village":"衙门庄村委会"    },
    {"level":"村","longitude":101.809478,"latitude":37.038057,"chinese_name":"南滩村委会","code1":"630121","code2":"0971","code3":"630121103201","code4":"220","continent":"亚洲","country":"中国","province":"青海","city":"西宁","county":"大通回族土族自治县","town":"东峡镇","village":"南滩村委会"    },
    {"level":"村","longitude":101.809478,"latitude":37.038057,"chinese_name":"麻其村委会","code1":"630121","code2":"0971","code3":"630121103202","code4":"220","continent":"亚洲","country":"中国","province":"青海","city":"西宁","county":"大通回族土族自治县","town":"东峡镇","village":"麻其村委会"    },
    {"level":"村","longitude":101.809478,"latitude":37.038057,"chinese_name":"克麻尔村委会","code1":"630121","code2":"0971","code3":"630121103203","code4":"220","continent":"亚洲","country":"中国","province":"青海","city":"西宁","county":"大通回族土族自治县","town":"东峡镇","village":"克麻尔村委会"    },
    {"level":"村","longitude":101.809478,"latitude":37.038057,"chinese_name":"杏花庄村委会","code1":"630121","code2":"0971","code3":"630121103204","code4":"220","continent":"亚洲","country":"中国","province":"青海","city":"西宁","county":"大通回族土族自治县","town":"东峡镇","village":"杏花庄村委会"    },
    {"level":"村","longitude":101.809478,"latitude":37.038057,"chinese_name":"仙米村委会","code1":"630121","code2":"0971","code3":"630121103205","code4":"220","continent":"亚洲","country":"中国","province":"青海","city":"西宁","county":"大通回族土族自治县","town":"东峡镇","village":"仙米村委会"    },
    {"level":"村","longitude":101.809478,"latitude":37.038057,"chinese_name":"田家沟村委会","code1":"630121","code2":"0971","code3":"630121103206","code4":"220","continent":"亚洲","country":"中国","province":"青海","city":"西宁","county":"大通回族土族自治县","town":"东峡镇","village":"田家沟村委会"    },
    {"level":"村","longitude":101.809478,"latitude":37.038057,"chinese_name":"尔麻村委会","code1":"630121","code2":"0971","code3":"630121103207","code4":"220","continent":"亚洲","country":"中国","province":"青海","city":"西宁","county":"大通回族土族自治县","town":"东峡镇","village":"尔麻村委会"    },
    {"level":"村","longitude":101.809478,"latitude":37.038057,"chinese_name":"康乐村委会","code1":"630121","code2":"0971","code3":"630121103208","code4":"220","continent":"亚洲","country":"中国","province":"青海","city":"西宁","county":"大通回族土族自治县","town":"东峡镇","village":"康乐村委会"    },
    {"level":"村","longitude":101.809478,"latitude":37.038057,"chinese_name":"老虎沟村委会","code1":"630121","code2":"0971","code3":"630121103209","code4":"220","continent":"亚洲","country":"中国","province":"青海","city":"西宁","county":"大通回族土族自治县","town":"东峡镇","village":"老虎沟村委会"    },
    {"level":"村","longitude":101.809478,"latitude":37.038057,"chinese_name":"刘家庄村委会","code1":"630121","code2":"0971","code3":"630121103210","code4":"220","continent":"亚洲","country":"中国","province":"青海","city":"西宁","county":"大通回族土族自治县","town":"东峡镇","village":"刘家庄村委会"    },
    {"level":"村","longitude":101.809478,"latitude":37.038057,"chinese_name":"多隆村委会","code1":"630121","code2":"0971","code3":"630121103211","code4":"220","continent":"亚洲","country":"中国","province":"青海","city":"西宁","county":"大通回族土族自治县","town":"东峡镇","village":"多隆村委会"    },
    {"level":"村","longitude":101.809478,"latitude":37.038057,"chinese_name":"元墩子村委会","code1":"630121","code2":"0971","code3":"630121103212","code4":"220","continent":"亚洲","country":"中国","province":"青海","city":"西宁","county":"大通回族土族自治县","town":"东峡镇","village":"元墩子村委会"    },
    {"level":"村","longitude":101.736475,"latitude":36.859454,"chinese_name":"黄东居委会","code1":"630121","code2":"0971","code3":"630121104001","code4":"121","continent":"亚洲","country":"中国","province":"青海","city":"西宁","county":"大通回族土族自治县","town":"黄家寨镇","village":"黄东居委会"    },
    {"level":"村","longitude":101.736475,"latitude":36.859454,"chinese_name":"青铝居委会","code1":"630121","code2":"0971","code3":"630121104002","code4":"121","continent":"亚洲","country":"中国","province":"青海","city":"西宁","county":"大通回族土族自治县","town":"黄家寨镇","village":"青铝居委会"    },
    {"level":"村","longitude":101.736475,"latitude":36.859454,"chinese_name":"东柳村委会","code1":"630121","code2":"0971","code3":"630121104200","code4":"122","continent":"亚洲","country":"中国","province":"青海","city":"西宁","county":"大通回族土族自治县","town":"黄家寨镇","village":"东柳村委会"    },
    {"level":"村","longitude":101.736475,"latitude":36.859454,"chinese_name":"黄东村委会","code1":"630121","code2":"0971","code3":"630121104201","code4":"121","continent":"亚洲","country":"中国","province":"青海","city":"西宁","county":"大通回族土族自治县","town":"黄家寨镇","village":"黄东村委会"    },
    {"level":"村","longitude":101.736475,"latitude":36.859454,"chinese_name":"黄西村委会","code1":"630121","code2":"0971","code3":"630121104202","code4":"122","continent":"亚洲","country":"中国","province":"青海","city":"西宁","county":"大通回族土族自治县","town":"黄家寨镇","village":"黄西村委会"    },
    {"level":"村","longitude":101.736475,"latitude":36.859454,"chinese_name":"上陶家寨村委会","code1":"630121","code2":"0971","code3":"630121104203","code4":"220","continent":"亚洲","country":"中国","province":"青海","city":"西宁","county":"大通回族土族自治县","town":"黄家寨镇","village":"上陶家寨村委会"    },
    {"level":"村","longitude":101.736475,"latitude":36.859454,"chinese_name":"下陶家寨村委会","code1":"630121","code2":"0971","code3":"630121104204","code4":"220","continent":"亚洲","country":"中国","province":"青海","city":"西宁","county":"大通回族土族自治县","town":"黄家寨镇","village":"下陶家寨村委会"    },
    {"level":"村","longitude":101.736475,"latitude":36.859454,"chinese_name":"上赵家磨村委会","code1":"630121","code2":"0971","code3":"630121104205","code4":"122","continent":"亚洲","country":"中国","province":"青海","city":"西宁","county":"大通回族土族自治县","town":"黄家寨镇","village":"上赵家磨村委会"    },
    {"level":"村","longitude":101.736475,"latitude":36.859454,"chinese_name":"下赵家磨村委会","code1":"630121","code2":"0971","code3":"630121104206","code4":"122","continent":"亚洲","country":"中国","province":"青海","city":"西宁","county":"大通回族土族自治县","town":"黄家寨镇","village":"下赵家磨村委会"    },
    {"level":"村","longitude":101.736475,"latitude":36.859454,"chinese_name":"许家寨村委会","code1":"630121","code2":"0971","code3":"630121104207","code4":"122","continent":"亚洲","country":"中国","province":"青海","city":"西宁","county":"大通回族土族自治县","town":"黄家寨镇","village":"许家寨村委会"    },
    {"level":"村","longitude":101.736475,"latitude":36.859454,"chinese_name":"杨家寨村委会","code1":"630121","code2":"0971","code3":"630121104208","code4":"122","continent":"亚洲","country":"中国","province":"青海","city":"西宁","county":"大通回族土族自治县","town":"黄家寨镇","village":"杨家寨村委会"    },
    {"level":"村","longitude":101.736475,"latitude":36.859454,"chinese_name":"阿家村委会","code1":"630121","code2":"0971","code3":"630121104209","code4":"220","continent":"亚洲","country":"中国","province":"青海","city":"西宁","county":"大通回族土族自治县","town":"黄家寨镇","village":"阿家村委会"    },
    {"level":"村","longitude":101.736475,"latitude":36.859454,"chinese_name":"陈家村委会","code1":"630121","code2":"0971","code3":"630121104210","code4":"220","continent":"亚洲","country":"中国","province":"青海","city":"西宁","county":"大通回族土族自治县","town":"黄家寨镇","village":"陈家村委会"    },
    {"level":"村","longitude":101.736475,"latitude":36.859454,"chinese_name":"大哈门村委会","code1":"630121","code2":"0971","code3":"630121104211","code4":"220","continent":"亚洲","country":"中国","province":"青海","city":"西宁","county":"大通回族土族自治县","town":"黄家寨镇","village":"大哈门村委会"    },
    {"level":"村","longitude":101.736475,"latitude":36.859454,"chinese_name":"平地庄村委会","code1":"630121","code2":"0971","code3":"630121104212","code4":"220","continent":"亚洲","country":"中国","province":"青海","city":"西宁","county":"大通回族土族自治县","town":"黄家寨镇","village":"平地庄村委会"    },
    {"level":"村","longitude":101.736475,"latitude":36.859454,"chinese_name":"平乐村委会","code1":"630121","code2":"0971","code3":"630121104213","code4":"220","continent":"亚洲","country":"中国","province":"青海","city":"西宁","county":"大通回族土族自治县","town":"黄家寨镇","village":"平乐村委会"    },
    {"level":"村","longitude":101.736475,"latitude":36.859454,"chinese_name":"上柴堡村委会","code1":"630121","code2":"0971","code3":"630121104214","code4":"220","continent":"亚洲","country":"中国","province":"青海","city":"西宁","county":"大通回族土族自治县","town":"黄家寨镇","village":"上柴堡村委会"    },
    {"level":"村","longitude":101.736475,"latitude":36.859454,"chinese_name":"下柴堡村委会","code1":"630121","code2":"0971","code3":"630121104215","code4":"220","continent":"亚洲","country":"中国","province":"青海","city":"西宁","county":"大通回族土族自治县","town":"黄家寨镇","village":"下柴堡村委会"    },
    {"level":"村","longitude":101.736475,"latitude":36.859454,"chinese_name":"索家村委会","code1":"630121","code2":"0971","code3":"630121104216","code4":"220","continent":"亚洲","country":"中国","province":"青海","city":"西宁","county":"大通回族土族自治县","town":"黄家寨镇","village":"索家村委会"    },
    {"level":"村","longitude":101.736475,"latitude":36.859454,"chinese_name":"寺尔庄村委会","code1":"630121","code2":"0971","code3":"630121104217","code4":"220","continent":"亚洲","country":"中国","province":"青海","city":"西宁","county":"大通回族土族自治县","town":"黄家寨镇","village":"寺尔庄村委会"    },
    {"level":"村","longitude":101.736475,"latitude":36.859454,"chinese_name":"台台村委会","code1":"630121","code2":"0971","code3":"630121104218","code4":"220","continent":"亚洲","country":"中国","province":"青海","city":"西宁","county":"大通回族土族自治县","town":"黄家寨镇","village":"台台村委会"    },
    {"level":"村","longitude":101.736475,"latitude":36.859454,"chinese_name":"兴太村委会","code1":"630121","code2":"0971","code3":"630121104219","code4":"220","continent":"亚洲","country":"中国","province":"青海","city":"西宁","county":"大通回族土族自治县","town":"黄家寨镇","village":"兴太村委会"    },
    {"level":"村","longitude":101.764936,"latitude":36.817726,"chinese_name":"长宁居委会","code1":"630121","code2":"0971","code3":"630121105001","code4":"121","continent":"亚洲","country":"中国","province":"青海","city":"西宁","county":"大通回族土族自治县","town":"长宁镇","village":"长宁居委会"    },
    {"level":"村","longitude":101.755154,"latitude":36.814897,"chinese_name":"长宁村委会","code1":"630121","code2":"0971","code3":"630121105200","code4":"121","continent":"亚洲","country":"中国","province":"青海","city":"西宁","county":"大通回族土族自治县","town":"长宁镇","village":"长宁村委会"    },
    {"level":"村","longitude":101.77442,"latitude":36.826776,"chinese_name":"甘沟门村委会","code1":"630121","code2":"0971","code3":"630121105201","code4":"122","continent":"亚洲","country":"中国","province":"青海","city":"西宁","county":"大通回族土族自治县","town":"长宁镇","village":"甘沟门村委会"    },
    {"level":"村","longitude":101.764936,"latitude":36.817726,"chinese_name":"韩家山村委会","code1":"630121","code2":"0971","code3":"630121105202","code4":"220","continent":"亚洲","country":"中国","province":"青海","city":"西宁","county":"大通回族土族自治县","town":"长宁镇","village":"韩家山村委会"    },
    {"level":"村","longitude":101.764936,"latitude":36.817726,"chinese_name":"宋家庄村委会","code1":"630121","code2":"0971","code3":"630121105203","code4":"122","continent":"亚洲","country":"中国","province":"青海","city":"西宁","county":"大通回族土族自治县","town":"长宁镇","village":"宋家庄村委会"    },
    {"level":"村","longitude":101.764936,"latitude":36.817726,"chinese_name":"王家庄村委会","code1":"630121","code2":"0971","code3":"630121105204","code4":"122","continent":"亚洲","country":"中国","province":"青海","city":"西宁","county":"大通回族土族自治县","town":"长宁镇","village":"王家庄村委会"    },
    {"level":"村","longitude":101.764936,"latitude":36.817726,"chinese_name":"下严家庄村委会","code1":"630121","code2":"0971","code3":"630121105205","code4":"122","continent":"亚洲","country":"中国","province":"青海","city":"西宁","county":"大通回族土族自治县","town":"长宁镇","village":"下严家庄村委会"    },
    {"level":"村","longitude":101.764936,"latitude":36.817726,"chinese_name":"新寨村委会","code1":"630121","code2":"0971","code3":"630121105206","code4":"122","continent":"亚洲","country":"中国","province":"青海","city":"西宁","county":"大通回族土族自治县","town":"长宁镇","village":"新寨村委会"    },
    {"level":"村","longitude":101.764936,"latitude":36.817726,"chinese_name":"新添堡村委会","code1":"630121","code2":"0971","code3":"630121105207","code4":"220","continent":"亚洲","country":"中国","province":"青海","city":"西宁","county":"大通回族土族自治县","town":"长宁镇","village":"新添堡村委会"    },
    {"level":"村","longitude":101.764936,"latitude":36.817726,"chinese_name":"上鲍堡村委会","code1":"630121","code2":"0971","code3":"630121105208","code4":"220","continent":"亚洲","country":"中国","province":"青海","city":"西宁","county":"大通回族土族自治县","town":"长宁镇","village":"上鲍堡村委会"    },
    {"level":"村","longitude":101.764936,"latitude":36.817726,"chinese_name":"鲍家寨西村委会","code1":"630121","code2":"0971","code3":"630121105209","code4":"122","continent":"亚洲","country":"中国","province":"青海","city":"西宁","county":"大通回族土族自治县","town":"长宁镇","village":"鲍家寨西村委会"    },
    {"level":"村","longitude":101.764936,"latitude":36.817726,"chinese_name":"鲍家寨东村委会","code1":"630121","code2":"0971","code3":"630121105210","code4":"122","continent":"亚洲","country":"中国","province":"青海","city":"西宁","county":"大通回族土族自治县","town":"长宁镇","village":"鲍家寨东村委会"    },
    {"level":"村","longitude":101.764936,"latitude":36.817726,"chinese_name":"陈家庄村委会","code1":"630121","code2":"0971","code3":"630121105211","code4":"220","continent":"亚洲","country":"中国","province":"青海","city":"西宁","county":"大通回族土族自治县","town":"长宁镇","village":"陈家庄村委会"    },
    {"level":"村","longitude":101.764936,"latitude":36.817726,"chinese_name":"戴家庄村委会","code1":"630121","code2":"0971","code3":"630121105212","code4":"220","continent":"亚洲","country":"中国","province":"青海","city":"西宁","county":"大通回族土族自治县","town":"长宁镇","village":"戴家庄村委会"    },
    {"level":"村","longitude":101.764936,"latitude":36.817726,"chinese_name":"后子河东村委会","code1":"630121","code2":"0971","code3":"630121105213","code4":"220","continent":"亚洲","country":"中国","province":"青海","city":"西宁","county":"大通回族土族自治县","town":"长宁镇","village":"后子河东村委会"    },
    {"level":"村","longitude":101.77017,"latitude":36.76659,"chinese_name":"河滩村委会","code1":"630121","code2":"0971","code3":"630121105214","code4":"220","continent":"亚洲","country":"中国","province":"青海","city":"西宁","county":"大通回族土族自治县","town":"长宁镇","village":"河滩村委会"    },
    {"level":"村","longitude":101.764936,"latitude":36.817726,"chinese_name":"红崖村委会","code1":"630121","code2":"0971","code3":"630121105215","code4":"220","continent":"亚洲","country":"中国","province":"青海","city":"西宁","county":"大通回族土族自治县","town":"长宁镇","village":"红崖村委会"    },
    {"level":"村","longitude":101.764936,"latitude":36.817726,"chinese_name":"康家村委会","code1":"630121","code2":"0971","code3":"630121105216","code4":"220","continent":"亚洲","country":"中国","province":"青海","city":"西宁","county":"大通回族土族自治县","town":"长宁镇","village":"康家村委会"    },
    {"level":"村","longitude":101.764936,"latitude":36.817726,"chinese_name":"上孙家寨村委会","code1":"630121","code2":"0971","code3":"630121105217","code4":"220","continent":"亚洲","country":"中国","province":"青海","city":"西宁","county":"大通回族土族自治县","town":"长宁镇","village":"上孙家寨村委会"    },
    {"level":"村","longitude":101.764936,"latitude":36.817726,"chinese_name":"双庙村委会","code1":"630121","code2":"0971","code3":"630121105218","code4":"220","continent":"亚洲","country":"中国","province":"青海","city":"西宁","county":"大通回族土族自治县","town":"长宁镇","village":"双庙村委会"    },
    {"level":"村","longitude":101.764936,"latitude":36.817726,"chinese_name":"田家村委会","code1":"630121","code2":"0971","code3":"630121105219","code4":"220","continent":"亚洲","country":"中国","province":"青海","city":"西宁","county":"大通回族土族自治县","town":"长宁镇","village":"田家村委会"    },
    {"level":"村","longitude":101.764936,"latitude":36.817726,"chinese_name":"汪家村委会","code1":"630121","code2":"0971","code3":"630121105220","code4":"220","continent":"亚洲","country":"中国","province":"青海","city":"西宁","county":"大通回族土族自治县","town":"长宁镇","village":"汪家村委会"    },
    {"level":"村","longitude":101.775164,"latitude":36.72827,"chinese_name":"殷家村委会","code1":"630121","code2":"0971","code3":"630121105221","code4":"220","continent":"亚洲","country":"中国","province":"青海","city":"西宁","county":"大通回族土族自治县","town":"长宁镇","village":"殷家村委会"    },
    {"level":"村","longitude":101.764936,"latitude":36.817726,"chinese_name":"后子河西村委会","code1":"630121","code2":"0971","code3":"630121105222","code4":"220","continent":"亚洲","country":"中国","province":"青海","city":"西宁","county":"大通回族土族自治县","town":"长宁镇","village":"后子河西村委会"    },
    {"level":"村","longitude":101.764936,"latitude":36.817726,"chinese_name":"中咀山村委会","code1":"630121","code2":"0971","code3":"630121105223","code4":"220","continent":"亚洲","country":"中国","province":"青海","city":"西宁","county":"大通回族土族自治县","town":"长宁镇","village":"中咀山村委会"    },