dataid,levelid,longitude,latitude,chinese_name,english_name,code1,code2,code3,code4,code5,alias1,alias2,alias3,alias4,alias5,area,population,continentid,countryid,provinceid,cityid,countyid,townid,villageid,buildingid,comments
20278,7,121.471941,31.226107,南京东路街道,,310101,021,310101002000,,,,,,,,,,2,100,1008,1273,2751,20278,,,
20279,7,121.481432,31.239541,外滩街道,,310101,021,310101013000,,,,,,,,,,2,100,1008,1273,2751,20279,,,
20280,7,121.487103,31.206786,半淞园路街道,,310101,021,310101015000,,,,,,,,,,2,100,1008,1273,2751,20280,,,
20281,7,121.501063,31.220083,小东门街道,,310101,021,310101017000,,,,,,,,,,2,100,1008,1273,2751,20281,,,
20282,7,121.486984,31.225396,豫园街道,,310101,021,310101018000,,,,,,,,,,2,100,1008,1273,2751,20282,,,
20283,7,121.486244,31.215171,老西门街道,,310101,021,310101019000,,,,,,,,,,2,100,1008,1273,2751,20283,,,
20284,7,121.481785,31.200743,五里桥街道,,310101,021,310101020000,,,,,,,,,,2,100,1008,1273,2751,20284,,,
20285,7,121.473506,31.203656,打浦桥街道,,310101,021,310101021000,,,,,,,,,,2,100,1008,1273,2751,20285,,,
20286,7,121.475832,31.214941,淮海中路街道,,310101,021,310101022000,,,,,,,,,,2,100,1008,1273,2751,20286,,,
20287,7,121.466792,31.217426,瑞金二路街道,,310101,021,310101023000,,,,,,,,,,2,100,1008,1273,2751,20287,,,
20288,7,121.438794,31.202978,天平路街道,,310104,021,310104003000,,,,,,,,,,2,100,1008,1273,2752,20288,,,
20289,7,121.435733,31.208326,湖南路街道,,310105,021,310104004000,,,,,,,,,,2,100,1008,1273,2752,20289,,,
20290,7,121.463834,31.200783,斜土路街道,,310104,021,310104007000,,,,,,,,,,2,100,1008,1273,2752,20290,,,
20291,7,121.451725,31.185289,枫林路街道,,310104,021,310104008000,,,,,,,,,,2,100,1008,1273,2752,20291,,,
20292,7,121.436917,31.131972,长桥街道,,310104,021,310104010000,,,,,,,,,,2,100,1008,1273,2752,20292,,,
20293,7,121.437866,31.19919,田林街道,,310104,021,310104011000,,,,,,,,,,2,100,1008,1273,2752,20293,,,
20294,7,121.411222,31.164411,虹梅路街道,,310104,021,310104012000,,,,,,,,,,2,100,1008,1273,2752,20294,,,
20295,7,121.422967,31.155922,康健新村街道,,310104,021,310104013000,,,,,,,,,,2,100,1008,1273,2752,20295,,,
20296,7,121.445796,31.191316,徐家汇街道,,310104,021,310104014000,,,,,,,,,,2,100,1008,1273,2752,20296,,,
20297,7,121.41434,31.138651,凌云路街道,,310104,021,310104015000,,,,,,,,,,2,100,1008,1273,2752,20297,,,
20298,7,121.450579,31.16859,龙华街道,,310104,021,310104016000,,,,,,,,,,2,100,1008,1273,2752,20298,,,
20299,7,121.429846,31.165667,漕河泾街道,,310104,021,310104017000,,,,,,,,,,2,100,1008,1273,2752,20299,,,
20300,7,121.456202,31.117411,华泾镇,,310104,021,310104103000,,,,,,,,,,2,100,1008,1273,2752,20300,,,
20301,7,121.403546,31.172395,漕河泾新兴技术开发区,,310104,021,310104501000,,,,,,,,,,2,100,1008,1273,2752,20301,,,
20302,7,121.423952,31.216258,华阳路街道,,310105,021,310105001000,,,,,,,,,,2,100,1008,1273,2753,20302,,,
20303,7,121.4287,31.21542,江苏路街道,,310105,021,310105002000,,,,,,,,,,2,100,1008,1273,2753,20303,,,
20304,7,121.426252,31.205077,新华路街道,,310105,021,310105004000,,,,,,,,,,2,100,1008,1273,2753,20304,,,
20305,7,121.407167,31.217515,周家桥街道,,310105,021,310105005000,,,,,,,,,,2,100,1008,1273,2753,20305,,,
20306,7,121.407102,31.209169,天山路街道,,310105,021,310105006000,,,,,,,,,,2,100,1008,1273,2753,20306,,,
20307,7,121.394701,31.203999,仙霞新村街道,,310105,021,310105008000,,,,,,,,,,2,100,1008,1273,2753,20307,,,
20308,7,121.409094,31.197235,虹桥街道,,310105,021,310105009000,,,,,,,,,,2,100,1008,1273,2753,20308,,,
20309,7,121.368599,31.194634,程家桥街道,,310105,021,310105010000,,,,,,,,,,2,100,1008,1273,2753,20309,,,
20310,7,121.374725,31.218815,北新泾街道,,310105,021,310105011000,,,,,,,,,,2,100,1008,1273,2753,20310,,,
20311,7,121.372833,31.212343,新泾镇,,310105,021,310105102000,,,,,,,,,,2,100,1008,1273,2753,20311,,,
20312,7,121.447983,31.239969,江宁路街道,,310106,021,310106006000,,,,,,,,,,2,100,1008,1273,2754,20312,,,
20313,7,121.457488,31.235861,石门二路街道,,310106,021,310106011000,,,,,,,,,,2,100,1008,1273,2754,20313,,,
20314,7,121.452359,31.222682,南京西路街道,,310106,021,310106012000,,,,,,,,,,2,100,1008,1273,2754,20314,,,
20315,7,121.440874,31.214889,静安寺街道,,310106,021,310106013000,,,,,,,,,,2,100,1008,1273,2754,20315,,,
20316,7,121.43979,31.229489,曹家渡街道,,310106,021,310106014000,,,,,,,,,,2,100,1008,1273,2754,20316,,,
20317,7,121.461918,31.24746,天目西路街道,,310106,021,310106015000,,,,,,,,,,2,100,1008,1273,2754,20317,,,
20318,7,121.470088,31.240669,北站街道,,310106,021,310106016000,,,,,,,,,,2,100,1008,1273,2754,20318,,,
20319,7,121.468935,31.261748,宝山路街道,,310106,021,310106017000,,,,,,,,,,2,100,1008,1273,2754,20319,,,
20320,7,121.46205,31.273409,共和新路街道,,310106,021,310106018000,,,,,,,,,,2,100,1008,1273,2754,20320,,,
20321,7,121.457054,31.284897,大宁路街道,,310106,021,310106019000,,,,,,,,,,2,100,1008,1273,2754,20321,,,
20322,7,121.445108,31.312904,彭浦新村街道,,310106,021,310106020000,,,,,,,,,,2,100,1008,1273,2754,20322,,,
20323,7,121.460258,31.310597,临汾路街道,,310106,021,310106021000,,,,,,,,,,2,100,1008,1273,2754,20323,,,
20324,7,121.464646,31.257969,芷江西路街道,,310106,021,310106022000,,,,,,,,,,2,100,1008,1273,2754,20324,,,
20325,7,121.440434,31.283079,彭浦镇,,310106,021,310106101000,,,,,,,,,,2,100,1008,1273,2754,20325,,,
20326,7,121.410472,31.242131,曹杨新村街道,,310107,021,310107005000,,,,,,,,,,2,100,1008,1273,2755,20326,,,
20327,7,121.410727,31.230135,长风新村街道,,310107,021,310107014000,,,,,,,,,,2,100,1008,1273,2755,20327,,,
20328,7,121.434372,31.239582,长寿路街道,,310107,021,310107015000,,,,,,,,,,2,100,1008,1273,2755,20328,,,
20329,7,121.426557,31.263581,甘泉路街道,,310107,021,310107016000,,,,,,,,,,2,100,1008,1273,2755,20329,,,
20330,7,121.424201,31.255405,石泉路街道,,310107,021,310107017000,,,,,,,,,,2,100,1008,1273,2755,20330,,,
20331,7,121.433955,31.255842,宜川路街道,,310107,021,310107020000,,,,,,,,,,2,100,1008,1273,2755,20331,,,
20332,7,121.395555,31.24984,万里街道,,310107,021,310107021000,,,,,,,,,,2,100,1008,1273,2755,20332,,,
20333,7,121.401022,31.257058,真如镇街道,,310107,021,310107022000,,,,,,,,,,2,100,1008,1273,2755,20333,,,
20334,7,121.37309,31.237805,长征镇,,310107,021,310107102000,,,,,,,,,,2,100,1008,1273,2755,20334,,,
20335,7,121.363403,31.279544,桃浦镇,,310107,021,310107103000,,,,,,,,,,2,100,1008,1273,2755,20335,,,
20336,7,121.494303,31.269504,欧阳路街道,,310109,021,310109009000,,,,,,,,,,2,100,1008,1273,2756,20336,,,
20337,7,121.495978,31.288222,曲阳路街道,,310109,021,310109010000,,,,,,,,,,2,100,1008,1273,2756,20337,,,
20338,7,121.47757,31.266911,广中路街道,,310109,021,310109011000,,,,,,,,,,2,100,1008,1273,2756,20338,,,
20339,7,121.50033,31.271455,嘉兴路街道,,310109,021,310109014000,,,,,,,,,,2,100,1008,1273,2756,20339,,,
20340,7,121.470879,31.294624,凉城新村街道,,310109,021,310109016000,,,,,,,,,,2,100,1008,1273,2756,20340,,,
20341,7,121.485958,31.263268,四川北路街道,,310109,021,310109017000,,,,,,,,,,2,100,1008,1273,2756,20341,,,
20342,7,121.503075,31.252426,北外滩街道,,310109,021,310109018000,,,,,,,,,,2,100,1008,1273,2756,20342,,,
20343,7,121.473216,31.304583,江湾镇街道,,310109,021,310109019000,,,,,,,,,,2,100,1008,1273,2756,20343,,,
20344,7,121.55096,31.268424,定海路街道,,310110,021,310110001000,,,,,,,,,,2,100,1008,1273,2757,20344,,,
20345,7,121.519246,31.261237,平凉路街道,,310110,021,310110006000,,,,,,,,,,2,100,1008,1273,2757,20345,,,
20346,7,121.51719,31.266649,江浦路街道,,310110,021,310110008000,,,,,,,,,,2,100,1008,1273,2757,20346,,,
20347,7,121.511882,31.276621,四平路街道,,310110,021,310110009000,,,,,,,,,,2,100,1008,1273,2757,20347,,,
20348,7,121.527793,31.284222,控江路街道,,310110,021,310110012000,,,,,,,,,,2,100,1008,1273,2757,20348,,,
20349,7,121.543291,31.292837,长白新村街道,,310110,021,310110013000,,,,,,,,,,2,100,1008,1273,2757,20349,,,
20350,7,121.536901,31.288689,延吉新村街道,,310110,021,310110015000,,,,,,,,,,2,100,1008,1273,2757,20350,,,
20351,7,121.53826,31.323874,殷行街道,,310110,021,310110016000,,,,,,,,,,2,100,1008,1273,2757,20351,,,
20352,7,121.52989,31.268056,大桥街道,,310110,021,310110018000,,,,,,,,,,2,100,1008,1273,2757,20352,,,
20353,7,121.519764,31.305045,五角场街道,,310110,021,310110019000,,,,,,,,,,2,100,1008,1273,2757,20353,,,
20354,7,121.522236,31.329075,新江湾城街道,,310110,021,310110020000,,,,,,,,,,2,100,1008,1273,2757,20354,,,
20355,7,121.5273,31.310432,长海路街道,,310110,021,310110021000,,,,,,,,,,2,100,1008,1273,2757,20355,,,
20356,7,121.418021,31.009156,江川路街道,,310112,021,310112001000,,,,,,,,,,2,100,1008,1273,2758,20356,,,
20357,7,121.404457,31.145004,古美街道,,310112,021,310112006000,,,,,,,,,,2,100,1008,1273,2758,20357,,,
20358,7,121.307899,31.205049,新虹街道,,310112,021,310112008000,,,,,,,,,,2,100,1008,1273,2758,20358,,,
20359,7,121.499647,31.105496,浦锦街道,,310112,021,310112009000,,,,,,,,,,2,100,1008,1273,2758,20359,,,
20360,7,121.370307,31.121161,莘庄镇,,310112,021,310112101000,,,,,,,,,,2,100,1008,1273,2758,20360,,,
20361,7,121.351368,31.157657,七宝镇,,310112,021,310112102000,,,,,,,,,,2,100,1008,1273,2758,20361,,,
20362,7,121.400741,31.066046,颛桥镇,,310112,021,310112103000,,,,,,,,,,2,100,1008,1273,2758,20362,,,
20363,7,121.293562,31.207725,华漕镇,,310112,021,310112106000,,,,,,,,,,2,100,1008,1273,2758,20363,,,
20364,7,121.384604,31.177394,虹桥镇,,310112,021,310112107000,,,,,,,,,,2,100,1008,1273,2758,20364,,,
20365,7,121.426119,31.103793,梅陇镇,,310112,021,310112108000,,,,,,,,,,2,100,1008,1273,2758,20365,,,
20366,7,121.455367,31.038718,吴泾镇,,310112,021,310112110000,,,,,,,,,,2,100,1008,1273,2758,20366,,,
20367,7,121.368658,31.030396,马桥镇,,310112,021,310112112000,,,,,,,,,,2,100,1008,1273,2758,20367,,,
20368,7,121.516325,31.075762,浦江镇,,310112,021,310112114000,,,,,,,,,,2,100,1008,1273,2758,20368,,,
20369,7,121.384101,31.077111,莘庄工业区,,310112,021,310112501000,,,,,,,,,,2,100,1008,1273,2758,20369,,,
20370,7,121.487154,31.397382,友谊路街道,,310113,021,310113003000,,,,,,,,,,2,100,1008,1273,2759,20370,,,
20371,7,121.498331,31.389736,吴淞街道,,310113,021,310113007000,,,,,,,,,,2,100,1008,1273,2759,20371,,,
20372,7,121.44199,31.33683,张庙街道,,310113,021,310113008000,,,,,,,,,,2,100,1008,1273,2759,20372,,,
20373,7,121.355815,31.39523,罗店镇,,310113,021,310113101000,,,,,,,,,,2,100,1008,1273,2759,20373,,,
20374,7,121.416721,31.286835,大场镇,,310113,021,310113102000,,,,,,,,,,2,100,1008,1273,2759,20374,,,
20375,7,121.438297,31.364479,杨行镇,,310113,021,310113103000,,,,,,,,,,2,100,1008,1273,2759,20375,,,
20376,7,121.421874,31.420287,月浦镇,,310113,021,310113104000,,,,,,,,,,2,100,1008,1273,2759,20376,,,
20377,7,121.327695,31.472144,罗泾镇,,310113,021,310113106000,,,,,,,,,,2,100,1008,1273,2759,20377,,,
20378,7,121.40703,31.349538,顾村镇,,310113,021,310113109000,,,,,,,,,,2,100,1008,1273,2759,20378,,,
20379,7,121.482565,31.321148,高境镇,,310113,021,310113111000,,,,,,,,,,2,100,1008,1273,2759,20379,,,
20380,7,121.42824,31.3292,庙行镇,,310113,021,310113112000,,,,,,,,,,2,100,1008,1273,2759,20380,,,
20381,7,121.489764,31.348028,淞南镇,,310113,021,310113113000,,,,,,,,,,2,100,1008,1273,2759,20381,,,
20382,7,121.489612,31.405457,宝山城市工业园区,,310113,021,310113501000,,,,,,,,,,2,100,1008,1273,2759,20382,,,
20383,7,121.269643,31.386835,新成路街道,,310114,021,310114001000,,,,,,,,,,2,100,1008,1273,2760,20383,,,
20384,7,121.360954,31.253851,真新街道,,310114,021,310114002000,,,,,,,,,,2,100,1008,1273,2760,20384,,,
20385,7,121.239523,31.372641,嘉定镇街道,,310114,021,310114004000,,,,,,,,,,2,100,1008,1273,2760,20385,,,
20386,7,121.320331,31.294436,南翔镇,,310114,021,310114102000,,,,,,,,,,2,100,1008,1273,2760,20386,,,
20387,7,121.164061,31.294312,安亭镇,,310114,021,310114103000,,,,,,,,,,2,100,1008,1273,2760,20387,,,
20388,7,121.283502,31.332788,马陆镇,,310114,021,310114106000,,,,,,,,,,2,100,1008,1273,2760,20388,,,
20389,7,121.280687,31.416167,徐行镇,,310114,021,310114109000,,,,,,,,,,2,100,1008,1273,2760,20389,,,
20390,7,121.242247,31.468043,华亭镇,,310114,021,310114111000,,,,,,,,,,2,100,1008,1273,2760,20390,,,
20391,7,121.162302,31.362788,外冈镇,,310114,021,310114114000,,,,,,,,,,2,100,1008,1273,2760,20391,,,
20392,7,121.331696,31.238858,江桥镇,,310114,021,310114118000,,,,,,,,,,2,100,1008,1273,2760,20392,,,
20393,7,121.245576,31.392679,菊园新区,,310114,021,310114401000,,,,,,,,,,2,100,1008,1273,2760,20393,,,
20394,7,121.206779,31.417791,嘉定工业区,,310114,021,310114501000,,,,,,,,,,2,100,1008,1273,2760,20394,,,
20395,7,121.529523,31.228759,潍坊新村街道,,310115,021,310115004000,,,,,,,,,,2,100,1008,1273,2761,20395,,,
20396,7,121.525614,31.237183,陆家嘴街道,,310115,021,310115005000,,,,,,,,,,2,100,1008,1273,2761,20396,,,
20397,7,121.499002,31.176369,周家渡街道,,310115,021,310115007000,,,,,,,,,,2,100,1008,1273,2761,20397,,,
20398,7,121.524914,31.214895,塘桥街道,,310115,021,310115008000,,,,,,,,,,2,100,1008,1273,2761,20398,,,
20399,7,121.483037,31.171964,上钢新村街道,,310115,021,310115009000,,,,,,,,,,2,100,1008,1273,2761,20399,,,
20400,7,121.51911,31.19652,南码头路街道,,310115,021,310115010000,,,,,,,,,,2,100,1008,1273,2761,20400,,,
20401,7,121.582142,31.267011,沪东新村街道,,310115,021,310115011000,,,,,,,,,,2,100,1008,1273,2761,20401,,,
20402,7,121.573668,31.256158,金杨新村街道,,310115,021,310115012000,,,,,,,,,,2,100,1008,1273,2761,20402,,,
20403,7,121.545727,31.241006,洋泾街道,,310115,021,310115013000,,,,,,,,,,2,100,1008,1273,2761,20403,,,
20404,7,121.602122,31.275607,浦兴路街道,,310115,021,310115014000,,,,,,,,,,2,100,1008,1273,2761,20404,,,
20405,7,121.527747,31.146707,东明路街道,,310115,021,310115015000,,,,,,,,,,2,100,1008,1273,2761,20405,,,
20406,7,121.547559,31.20633,花木街道,,310115,021,310115016000,,,,,,,,,,2,100,1008,1273,2761,20406,,,
20407,7,121.695947,31.193105,川沙新镇,,310115,021,310115103000,,,,,,,,,,2,100,1008,1273,2761,20407,,,
20408,7,121.580097,31.338698,高桥镇,,310115,021,310115104000,,,,,,,,,,2,100,1008,1273,2761,20408,,,
20409,7,121.554907,31.181773,北蔡镇,,310115,021,310115105000,,,,,,,,,,2,100,1008,1273,2761,20409,,,
20410,7,121.723707,31.236879,合庆镇,,310115,021,310115110000,,,,,,,,,,2,100,1008,1273,2761,20410,,,
20411,7,121.655325,31.208298,唐镇,,310115,021,310115114000,,,,,,,,,,2,100,1008,1273,2761,20411,,,
20412,7,121.667039,31.278414,曹路镇,,310115,021,310115117000,,,,,,,,,,2,100,1008,1273,2761,20412,,,
20413,7,121.611248,31.266133,金桥镇,,310115,021,310115120000,,,,,,,,,,2,100,1008,1273,2761,20413,,,
20414,7,121.606626,31.292949,高行镇,,310115,021,310115121000,,,,,,,,,,2,100,1008,1273,2761,20414,,,
20415,7,121.622783,31.327013,高东镇,,310115,021,310115123000,,,,,,,,,,2,100,1008,1273,2761,20415,,,
20416,7,121.614288,31.205289,张江镇,,310115,021,310115125000,,,,,,,,,,2,100,1008,1273,2761,20416,,,
20417,7,121.502285,31.145183,三林镇,,310115,021,310115130000,,,,,,,,,,2,100,1008,1273,2761,20417,,,
20418,7,121.749346,31.047972,惠南镇,,310115,021,310115131000,,,,,,,,,,2,100,1008,1273,2761,20418,,,
20419,7,121.575074,31.11381,周浦镇,,310115,021,310115132000,,,,,,,,,,2,100,1008,1273,2761,20419,,,
20420,7,121.653461,31.02612,新场镇,,310115,021,310115133000,,,,,,,,,,2,100,1008,1273,2761,20420,,,
20421,7,121.737447,30.966587,大团镇,,310115,021,310115134000,,,,,,,,,,2,100,1008,1273,2761,20421,,,
20422,7,121.617252,31.155553,康桥镇,,310115,021,310115136000,,,,,,,,,,2,100,1008,1273,2761,20422,,,
20423,7,121.587065,31.033434,航头镇,,310115,021,310115137000,,,,,,,,,,2,100,1008,1273,2761,20423,,,
20424,7,121.760183,31.102764,祝桥镇,,310115,021,310115139000,,,,,,,,,,2,100,1008,1273,2761,20424,,,
20425,7,121.830625,30.903942,泥城镇,,310115,021,310115140000,,,,,,,,,,2,100,1008,1273,2761,20425,,,
20426,7,121.695067,31.035676,宣桥镇,,310115,021,310115141000,,,,,,,,,,2,100,1008,1273,2761,20426,,,
20427,7,121.87111,30.982397,书院镇,,310115,021,310115142000,,,,,,,,,,2,100,1008,1273,2761,20427,,,
20428,7,121.815534,30.973008,万祥镇,,310115,021,310115143000,,,,,,,,,,2,100,1008,1273,2761,20428,,,
20429,7,121.839837,31.039602,老港镇,,310115,021,310115144000,,,,,,,,,,2,100,1008,1273,2761,20429,,,
20430,7,121.924644,30.901626,南汇新城镇,,310115,021,310115145000,,,,,,,,,,2,100,1008,1273,2761,20430,,,
20431,7,121.609444,31.282137,芦潮港农场,,310115,021,310115401000,,,,,,,,,,2,100,1008,1273,2761,20431,,,
20432,7,121.906525,30.954519,东海农场,,310115,021,310115402000,,,,,,,,,,2,100,1008,1273,2761,20432,,,
20433,7,121.874764,31.067936,朝阳农场,,310115,021,310115403000,,,,,,,,,,2,100,1008,1273,2761,20433,,,
20434,7,121.604584,31.30867,中国（上海）自由贸易试验区（保税片区）,,310115,021,310115501000,,,,,,,,,,2,100,1008,1273,2761,20434,,,
20435,7,121.608074,31.245246,金桥经济技术开发区,,310115,021,310115502000,,,,,,,,,,2,100,1008,1273,2761,20435,,,
20436,7,121.59064,31.204301,张江高科技园区,,310115,021,310115503000,,,,,,,,,,2,100,1008,1273,2761,20436,,,
20437,7,121.336792,30.725684,石化街道,,310116,021,310116001000,,,,,,,,,,2,100,1008,1273,2762,20437,,,
20438,7,121.166677,30.898687,朱泾镇,,310116,021,310116101000,,,,,,,,,,2,100,1008,1273,2762,20438,,,
20439,7,121.010356,30.888329,枫泾镇,,310116,021,310116102000,,,,,,,,,,2,100,1008,1273,2762,20439,,,
20440,7,121.29806,30.801603,张堰镇,,310116,021,310116103000,,,,,,,,,,2,100,1008,1273,2762,20440,,,
20441,7,121.313651,30.882734,亭林镇,,310116,021,310116104000,,,,,,,,,,2,100,1008,1273,2762,20441,,,
20442,7,121.182775,30.831847,吕巷镇,,310116,021,310116105000,,,,,,,,,,2,100,1008,1273,2762,20442,,,
20443,7,121.192595,30.79097,廊下镇,,310116,021,310116107000,,,,,,,,,,2,100,1008,1273,2762,20443,,,
20444,7,121.317927,30.724669,金山卫镇,,310116,021,310116109000,,,,,,,,,,2,100,1008,1273,2762,20444,,,
20445,7,121.410911,30.794054,漕泾镇,,310116,021,310116112000,,,,,,,,,,2,100,1008,1273,2762,20445,,,
20446,7,121.356657,30.761077,山阳镇,,310116,021,310116113000,,,,,,,,,,2,100,1008,1273,2762,20446,,,
20447,7,121.335199,30.81519,金山工业区,,310116,021,310116503000,,,,,,,,,,2,100,1008,1273,2762,20447,,,
20448,7,121.235945,31.015927,岳阳街道,,310117,021,310117001000,,,,,,,,,,2,100,1008,1273,2763,20448,,,
20449,7,121.2075,31.003026,永丰街道,,310117,021,310117002000,,,,,,,,,,2,100,1008,1273,2763,20449,,,
20450,7,121.196003,31.061073,方松街道,,310117,021,310117003000,,,,,,,,,,2,100,1008,1273,2763,20450,,,
20451,7,121.244443,31.025844,中山街道,,310117,021,310117004000,,,,,,,,,,2,100,1008,1273,2763,20451,,,
20452,7,121.161526,31.048644,广富林街道,,310117,021,310117005000,,,,,,,,,,2,100,1008,1273,2763,20452,,,
20453,7,121.312841,31.142492,九里亭街道,,310117,021,310117006000,,,,,,,,,,2,100,1008,1273,2763,20453,,,
20454,7,121.271347,31.118165,泗泾镇,,310117,021,310117102000,,,,,,,,,,2,100,1008,1273,2763,20454,,,
20455,7,121.175116,31.095176,佘山镇,,310117,021,310117103000,,,,,,,,,,2,100,1008,1273,2763,20455,,,
20456,7,121.315067,31.014986,车墩镇,,310117,021,310117104000,,,,,,,,,,2,100,1008,1273,2763,20456,,,
20457,7,121.315506,31.05988,新桥镇,,310117,021,310117105000,,,,,,,,,,2,100,1008,1273,2763,20457,,,
20458,7,121.269113,31.081672,洞泾镇,,310117,021,310117106000,,,,,,,,,,2,100,1008,1273,2763,20458,,,
20459,7,121.329098,31.132082,九亭镇,,310117,021,310117107000,,,,,,,,,,2,100,1008,1273,2763,20459,,,
20460,7,121.213535,30.933461,泖港镇,,310117,021,310117109000,,,,,,,,,,2,100,1008,1273,2763,20460,,,
20461,7,121.119595,30.984706,石湖荡镇,,310117,021,310117116000,,,,,,,,,,2,100,1008,1273,2763,20461,,,
20462,7,121.068153,30.933455,新浜镇,,310117,021,310117117000,,,,,,,,,,2,100,1008,1273,2763,20462,,,
20463,7,121.321342,30.942786,叶榭镇,,310117,021,310117120000,,,,,,,,,,2,100,1008,1273,2763,20463,,,
20464,7,121.132203,31.029603,小昆山镇,,310117,021,310117121000,,,,,,,,,,2,100,1008,1273,2763,20464,,,
20465,7,121.265562,31.011464,松江工业区,,310117,021,310117501000,,,,,,,,,,2,100,1008,1273,2763,20465,,,
20466,7,121.201568,31.08783,佘山度假区,,310117,021,310117504000,,,,,,,,,,2,100,1008,1273,2763,20466,,,
20467,7,121.278932,31.008983,上海松江出口加工区,,310117,021,310117507000,,,,,,,,,,2,100,1008,1273,2763,20467,,,
20468,7,121.126023,31.148256,夏阳街道,,310118,021,310118001000,,,,,,,,,,2,100,1008,1273,2764,20468,,,
20469,7,121.114796,31.145775,盈浦街道,,310118,021,310118002000,,,,,,,,,,2,100,1008,1273,2764,20469,,,
20470,7,121.099688,31.21367,香花桥街道,,310118,021,310118003000,,,,,,,,,,2,100,1008,1273,2764,20470,,,
20471,7,121.046555,31.103775,朱家角镇,,310118,021,310118102000,,,,,,,,,,2,100,1008,1273,2764,20471,,,
20472,7,121.052565,30.999236,练塘镇,,310118,021,310118103000,,,,,,,,,,2,100,1008,1273,2764,20472,,,
20473,7,120.92219,31.036013,金泽镇,,310118,021,310118104000,,,,,,,,,,2,100,1008,1273,2764,20473,,,
20474,7,121.196053,31.149274,赵巷镇,,310118,021,310118105000,,,,,,,,,,2,100,1008,1273,2764,20474,,,
20475,7,121.272369,31.17309,徐泾镇,,310118,021,310118106000,,,,,,,,,,2,100,1008,1273,2764,20475,,,
20476,7,121.227132,31.245947,华新镇,,310118,021,310118107000,,,,,,,,,,2,100,1008,1273,2764,20476,,,
20477,7,121.177959,31.200595,重固镇,,310118,021,310118109000,,,,,,,,,,2,100,1008,1273,2764,20477,,,
20478,7,121.143077,31.259203,白鹤镇,,310118,021,310118110000,,,,,,,,,,2,100,1008,1273,2764,20478,,,
20479,7,121.440969,30.992627,西渡街道,,310120,021,310120001000,,,,,,,,,,2,100,1008,1273,2765,20479,,,
20480,7,121.474042,30.917795,奉浦街道,,310120,021,310120002000,,,,,,,,,,2,100,1008,1273,2765,20480,,,
20481,7,121.458755,30.903467,南桥镇,,310120,021,310120101000,,,,,,,,,,2,100,1008,1273,2765,20481,,,
20482,7,121.657021,30.908819,奉城镇,,310120,021,310120102000,,,,,,,,,,2,100,1008,1273,2765,20482,,,
20483,7,121.395462,30.895552,庄行镇,,310120,021,310120104000,,,,,,,,,,2,100,1008,1273,2765,20483,,,
20484,7,121.501369,30.988924,金汇镇,,310120,021,310120106000,,,,,,,,,,2,100,1008,1273,2765,20484,,,
20485,7,121.722813,30.939313,四团镇,,310120,021,310120109000,,,,,,,,,,2,100,1008,1273,2765,20485,,,
20486,7,121.581501,30.923556,青村镇,,310120,021,310120111000,,,,,,,,,,2,100,1008,1273,2765,20486,,,
20487,7,121.476348,30.834532,柘林镇,,310120,021,310120118000,,,,,,,,,,2,100,1008,1273,2765,20487,,,
20488,7,121.567409,30.857286,海湾镇,,310120,021,310120123000,,,,,,,,,,2,100,1008,1273,2765,20488,,,
20489,7,121.527244,30.831616,上海市奉贤区海湾旅游区,,310120,021,310120503000,,,,,,,,,,2,100,1008,1273,2765,20489,,,
20490,7,121.495139,30.955328,金海社区,,310120,021,310120504000,,,,,,,,,,2,100,1008,1273,2765,20490,,,
20491,7,121.398065,31.628165,城桥镇,,310151,021,310151101000,,,,,,,,,,2,100,1008,1273,2766,20491,,,
20492,7,121.618449,31.536641,堡镇,,310151,021,310151102000,,,,,,,,,,2,100,1008,1273,2766,20492,,,
20493,7,121.524484,31.581651,新河镇,,310151,021,310151103000,,,,,,,,,,2,100,1008,1273,2766,20493,,,
20494,7,121.349705,31.712858,庙镇,,310151,021,310151104000,,,,,,,,,,2,100,1008,1273,2766,20494,,,
20495,7,121.603761,31.614709,竖新镇,,310151,021,310151105000,,,,,,,,,,2,100,1008,1273,2766,20495,,,
20496,7,121.723524,31.520566,向化镇,,310151,021,310151106000,,,,,,,,,,2,100,1008,1273,2766,20496,,,
20497,7,121.287992,31.74327,三星镇,,310151,021,310151107000,,,,,,,,,,2,100,1008,1273,2766,20497,,,
20498,7,121.656496,31.587828,港沿镇,,310151,021,310151108000,,,,,,,,,,2,100,1008,1273,2766,20498,,,
20499,7,121.758095,31.523871,中兴镇,,310151,021,310151109000,,,,,,,,,,2,100,1008,1273,2766,20499,,,
20500,7,121.832239,31.526085,陈家镇,,310151,021,310151110000,,,,,,,,,,2,100,1008,1273,2766,20500,,,
20501,7,121.220535,31.762452,绿华镇,,310151,021,310151111000,,,,,,,,,,2,100,1008,1273,2766,20501,,,
20502,7,121.415776,31.687751,港西镇,,310151,021,310151112000,,,,,,,,,,2,100,1008,1273,2766,20502,,,
20503,7,121.455667,31.654594,建设镇,,310151,021,310151113000,,,,,,,,,,2,100,1008,1273,2766,20503,,,
20504,7,121.293097,31.817621,新海镇,,310151,021,310151114000,,,,,,,,,,2,100,1008,1273,2766,20504,,,
20505,7,121.541308,31.675511,东平镇,,310151,021,310151115000,,,,,,,,,,2,100,1008,1273,2766,20505,,,
20506,7,121.69391,31.389392,长兴镇,,310151,021,310151116000,,,,,,,,,,2,100,1008,1273,2766,20506,,,
20507,7,121.33222,31.829588,新村乡,,310151,021,310151201000,,,,,,,,,,2,100,1008,1273,2766,20507,,,
20508,7,121.84186,31.34041,横沙乡,,310151,021,310151202000,,,,,,,,,,2,100,1008,1273,2766,20508,,,
20509,7,121.724603,31.388968,前卫农场,,310151,021,310151401000,,,,,,,,,,2,100,1008,1273,2766,20509,,,
20510,7,121.498729,31.718228,东平林场,,310151,021,310151402000,,,,,,,,,,2,100,1008,1273,2766,20510,,,
20511,7,121.397417,31.623587,上实现代农业园区,,310151,021,310151501000,,,,,,,,,,2,100,1008,1273,2766,20511,,,
