gcid,levelid,longitude,latitude,chinese_name,english_name,code1,code2,code3,code4,code5,alias1,alias2,alias3,alias4,alias5,area,population,continentid,countryid,provinceid,cityid,countyid,townid,villageid,buildingid,comments
46034,7,102.701292,25.043924,华山街道,,530102,0871,530102001000,,,,,,,,,,2,100,1024,1468,4421,46034,,,
46035,7,102.713495,25.038405,护国街道,,530102,0871,530102002000,,,,,,,,,,2,100,1024,1468,4421,46035,,,
46036,7,102.696104,25.041404,大观街道,,530102,0871,530102003000,,,,,,,,,,2,100,1024,1468,4421,46036,,,
46037,7,102.69521,25.044111,龙翔街道,,530102,0871,530102004000,,,,,,,,,,2,100,1024,1468,4421,46037,,,
46038,7,102.684189,25.053529,丰宁街道,,530102,0871,530102005000,,,,,,,,,,2,100,1024,1468,4421,46038,,,
46039,7,102.697134,25.069189,莲华街道,,530102,0871,530102006000,,,,,,,,,,2,100,1024,1468,4421,46039,,,
46040,7,102.73827,25.12006,红云街道,,530102,0871,530102007000,,,,,,,,,,2,100,1024,1468,4421,46040,,,
46041,7,102.65315,25.065376,黑林铺街道,,530102,0871,530102008000,,,,,,,,,,2,100,1024,1468,4421,46041,,,
46042,7,102.67183,25.08909,普吉街道,,530102,0871,530102009000,,,,,,,,,,2,100,1024,1468,4421,46042,,,
46043,7,102.662914,25.159909,西翥街道,,530102,0871,530102010000,,,,,,,,,,2,100,1024,1468,4421,46043,,,
46044,7,102.655872,25.074056,昆明国家高新技术产业开发区,,530102,0871,530102401000,,,,,,,,,,2,100,1024,1468,4421,46044,,,
46045,7,102.723261,25.034109,拓东街道,,530103,0871,530103001000,,,,,,,,,,2,100,1024,1468,4422,46045,,,
46046,7,102.71966,25.046143,鼓楼街道,,530103,0871,530103002000,,,,,,,,,,2,100,1024,1468,4422,46046,,,
46047,7,102.731666,25.047808,东华街道,,530103,0871,530103003000,,,,,,,,,,2,100,1024,1468,4422,46047,,,
46048,7,102.724982,25.050738,联盟街道,,530103,0871,530103004000,,,,,,,,,,2,100,1024,1468,4422,46048,,,
46049,7,102.72616,25.07399,金辰街道,,530103,0871,530103005000,,,,,,,,,,2,100,1024,1468,4422,46049,,,
46050,7,102.752401,25.064876,青云街道,,530103,0871,530103006000,,,,,,,,,,2,100,1024,1468,4422,46050,,,
46051,7,102.743948,25.109203,龙泉街道,,530103,0871,530103007000,,,,,,,,,,2,100,1024,1468,4422,46051,,,
46052,7,102.739541,25.1446,茨坝街道,,530103,0871,530103008000,,,,,,,,,,2,100,1024,1468,4422,46052,,,
46053,7,102.850534,25.110688,双龙街道,,530103,0871,530103009000,,,,,,,,,,2,100,1024,1468,4422,46053,,,
46054,7,102.751907,25.116106,松华街道,,530103,0871,530103010000,,,,,,,,,,2,100,1024,1468,4422,46054,,,
46055,7,102.87775,25.293054,滇源街道,,530103,0871,530103011000,,,,,,,,,,2,100,1024,1468,4422,46055,,,
46056,7,102.777743,25.340095,阿子营街道,,530103,0871,530103012000,,,,,,,,,,2,100,1024,1468,4422,46056,,,
46057,7,102.741889,25.011739,关上街道,,530111,0871,530111001000,,,,,,,,,,2,100,1024,1468,4423,46057,,,
46058,7,102.724637,25.025731,太和街道,,530111,0871,530111002000,,,,,,,,,,2,100,1024,1468,4423,46058,,,
46059,7,102.731932,25.030758,吴井街道,,530111,0871,530111003000,,,,,,,,,,2,100,1024,1468,4423,46059,,,
46060,7,102.747563,25.036091,金马街道,,530111,0871,530111004000,,,,,,,,,,2,100,1024,1468,4423,46060,,,
46061,7,102.774791,24.977125,小板桥街道,,530111,0871,530111005000,,,,,,,,,,2,100,1024,1468,4423,46061,,,
46062,7,102.760597,24.957345,官渡街道,,530111,0871,530111006000,,,,,,,,,,2,100,1024,1468,4423,46062,,,
46063,7,102.779123,24.936483,矣六街道,,530111,0871,530111007000,,,,,,,,,,2,100,1024,1468,4423,46063,,,
46064,7,102.711356,24.962608,六甲街道,,530111,0871,530111008000,,,,,,,,,,2,100,1024,1468,4423,46064,,,
46065,7,102.881098,25.04567,大板桥街道,,530111,0871,530111009000,,,,,,,,,,2,100,1024,1468,4423,46065,,,
46066,7,102.793806,24.998889,阿拉街道,,530111,0871,530111010000,,,,,,,,,,2,100,1024,1468,4423,46066,,,
46067,7,102.82113,24.982351,昆明经济技术开发区,,530111,0871,530111402000,,,,,,,,,,2,100,1024,1468,4423,46067,,,
46068,7,102.664428,25.040769,西苑街道,,530112,0871,530112001000,,,,,,,,,,2,100,1024,1468,4424,46068,,,
46069,7,102.647229,25.040251,马街街道,,530112,0871,530112002000,,,,,,,,,,2,100,1024,1468,4424,46069,,,
46070,7,102.704849,25.026532,金碧街道,,530112,0871,530112003000,,,,,,,,,,2,100,1024,1468,4424,46070,,,
46071,7,102.705601,25.020148,永昌街道,,530112,0871,530112004000,,,,,,,,,,2,100,1024,1468,4424,46071,,,
46072,7,102.709875,25.002116,前卫街道,,530112,0871,530112005000,,,,,,,,,,2,100,1024,1468,4424,46072,,,
46073,7,102.681908,25.010759,福海街道,,530112,0871,530112006000,,,,,,,,,,2,100,1024,1468,4424,46073,,,
46074,7,102.686741,25.038885,棕树营街道,,530112,0871,530112007000,,,,,,,,,,2,100,1024,1468,4424,46074,,,
46075,7,102.624776,24.982891,碧鸡街道,,530112,0871,530112008000,,,,,,,,,,2,100,1024,1468,4424,46075,,,
46076,7,102.608982,24.784034,海口街道,,530112,0871,530112009000,,,,,,,,,,2,100,1024,1468,4424,46076,,,
46077,7,102.5341,25.071749,团结街道,,530112,0871,530112010000,,,,,,,,,,2,100,1024,1468,4424,46077,,,
46078,7,102.673186,24.97534,昆明滇池国家旅游度假区,,530112,0871,530112403000,,,,,,,,,,2,100,1024,1468,4424,46078,,,
46079,7,103.189749,26.06688,铜都街道,,530113,0871,530113001000,,,,,,,,,,2,100,1024,1468,4425,46079,,,
46080,7,103.066855,26.177783,汤丹镇,,530113,0871,530113102000,,,,,,,,,,2,100,1024,1468,4425,46080,,,
46081,7,102.924193,26.327923,因民镇,,530113,0871,530113103000,,,,,,,,,,2,100,1024,1468,4425,46081,,,
46082,7,103.253849,25.916335,阿旺镇,,530113,0871,530113104000,,,,,,,,,,2,100,1024,1468,4425,46082,,,
46083,7,103.097649,26.022585,乌龙镇,,530113,0871,530113105000,,,,,,,,,,2,100,1024,1468,4425,46083,,,
46084,7,103.017471,26.024765,红土地镇,,530113,0871,530113106000,,,,,,,,,,2,100,1024,1468,4425,46084,,,
46085,7,103.044116,26.371358,拖布卡镇,,530113,0871,530113107000,,,,,,,,,,2,100,1024,1468,4425,46085,,,
46086,7,102.82983,26.238982,舍块乡,,530113,0871,530113201000,,,,,,,,,,2,100,1024,1468,4425,46086,,,
46087,7,102.798573,24.891228,龙城街道,,530114,0871,530114001000,,,,,,,,,,2,100,1024,1468,4426,46087,,,
46088,7,102.84572,24.86774,洛龙街道,,530114,0871,530114002000,,,,,,,,,,2,100,1024,1468,4426,46088,,,
46089,7,102.791511,24.911975,斗南街道,,530114,0871,530114003000,,,,,,,,,,2,100,1024,1468,4426,46089,,,
46090,7,102.8077,24.86153,乌龙街道,,530114,0871,530114004000,,,,,,,,,,2,100,1024,1468,4426,46090,,,
46091,7,102.841747,24.843746,吴家营街道,,530114,0871,530114005000,,,,,,,,,,2,100,1024,1468,4426,46091,,,
46092,7,102.81911,24.837606,雨花街道,,530114,0871,530114006000,,,,,,,,,,2,100,1024,1468,4426,46092,,,
46093,7,102.945882,24.951972,七甸街道,,530114,0871,530114007000,,,,,,,,,,2,100,1024,1468,4426,46093,,,
46094,7,102.830449,24.901527,洛羊街道,,530114,0871,530114008000,,,,,,,,,,2,100,1024,1468,4426,46094,,,
46095,7,102.796044,24.829064,大渔街道,,530114,0871,530114009000,,,,,,,,,,2,100,1024,1468,4426,46095,,,
46096,7,102.801562,24.785682,马金铺街道,,530114,0871,530114010000,,,,,,,,,,2,100,1024,1468,4426,46096,,,
46097,7,102.594149,24.666049,昆阳街道,,530115,0871,530115001000,,,,,,,,,,2,100,1024,1468,4427,46097,,,
46098,7,102.832891,24.880095,宝峰街道,,530100,0871,530115002000,,,,,,,,,,2,100,1024,1468,4427,46098,,,
46099,7,102.752792,24.706706,晋城镇,,530115,0871,530115100000,,,,,,,,,,2,100,1024,1468,4427,46099,,,
46100,7,102.489667,24.696084,二街镇,,530115,0871,530115101000,,,,,,,,,,2,100,1024,1468,4427,46100,,,
46101,7,102.709313,24.680212,上蒜镇,,530115,0871,530115102000,,,,,,,,,,2,100,1024,1468,4427,46101,,,
46102,7,102.685374,24.531918,六街镇,,530115,0871,530115103000,,,,,,,,,,2,100,1024,1468,4427,46102,,,
46103,7,102.433876,24.563234,双河彝族乡,,530115,0871,530115200000,,,,,,,,,,2,100,1024,1468,4427,46103,,,
46104,7,102.289255,24.460677,夕阳彝族乡,,530115,0871,530115201000,,,,,,,,,,2,100,1024,1468,4427,46104,,,
46105,7,102.498046,25.221025,永定街道,,530124,0871,530124001000,,,,,,,,,,2,100,1024,1468,4428,46105,,,
46106,7,102.524455,25.223286,大营街道,,530124,0871,530124002000,,,,,,,,,,2,100,1024,1468,4428,46106,,,
46107,7,102.45804,25.336581,罗免镇,,530124,0871,530124103000,,,,,,,,,,2,100,1024,1468,4428,46107,,,
46108,7,102.510039,25.353408,赤鹫镇,,530124,0871,530124104000,,,,,,,,,,2,100,1024,1468,4428,46108,,,
46109,7,102.674667,25.516667,东村镇,,530124,0871,530124105000,,,,,,,,,,2,100,1024,1468,4428,46109,,,
46110,7,102.674891,25.449402,款庄镇,,530124,0871,530124106000,,,,,,,,,,2,100,1024,1468,4428,46110,,,
46111,7,102.65632,25.302495,散旦镇,,530124,0871,530124107000,,,,,,,,,,2,100,1024,1468,4428,46111,,,
46112,7,103.14157,24.91727,匡远街道,,530125,0871,530125001000,,,,,,,,,,2,100,1024,1468,4429,46112,,,
46113,7,103.040671,24.959167,汤池街道,,530125,0871,530125002000,,,,,,,,,,2,100,1024,1468,4429,46113,,,
46114,7,103.141296,24.919715,南羊街道,,530125,0871,530125003000,,,,,,,,,,2,100,1024,1468,4429,46114,,,
46115,7,103.191037,24.975824,北古城镇,,530125,0871,530125102000,,,,,,,,,,2,100,1024,1468,4429,46115,,,
46116,7,103.140748,24.789361,狗街镇,,530125,0871,530125103000,,,,,,,,,,2,100,1024,1468,4429,46116,,,
46117,7,103.113396,24.570305,竹山镇,,530125,0871,530125105000,,,,,,,,,,2,100,1024,1468,4429,46117,,,
46118,7,103.216034,25.199892,马街镇,,530125,0871,530125106000,,,,,,,,,,2,100,1024,1468,4429,46118,,,
46119,7,103.231828,25.026893,耿家营彝族苗族乡,,530125,0871,530125201000,,,,,,,,,,2,100,1024,1468,4429,46119,,,
46120,7,103.382904,25.098624,九乡彝族回族乡,,530125,0871,530125202000,,,,,,,,,,2,100,1024,1468,4429,46120,,,
46121,7,103.003656,24.953228,昆明阳宗海风景名胜区,,530125,0871,530125404000,,,,,,,,,,2,100,1024,1468,4429,46121,,,
46122,7,103.271339,24.759221,鹿阜街道,,530126,0871,530126001000,,,,,,,,,,2,100,1024,1468,4430,46122,,,
46123,7,103.358736,24.861189,石林街道,,530126,0871,530126002000,,,,,,,,,,2,100,1024,1468,4430,46123,,,
46124,7,102.971038,25.620935,板桥街道,,530129,0871,530126003000,,,,,,,,,,2,100,1024,1468,4430,46124,,,
46125,7,103.513739,24.822479,西街口镇,,530126,0871,530126105000,,,,,,,,,,2,100,1024,1468,4430,46125,,,
46126,7,103.405492,24.704477,长湖镇,,530126,0871,530126106000,,,,,,,,,,2,100,1024,1468,4430,46126,,,
46127,7,103.55413,24.644149,圭山镇,,530126,0871,530126107000,,,,,,,,,,2,100,1024,1468,4430,46127,,,
46128,7,103.244599,24.607483,大可乡,,530126,0871,530126201000,,,,,,,,,,2,100,1024,1468,4430,46128,,,
46129,7,103.042086,25.331714,嵩阳街道,,530127,0871,530127001000,,,,,,,,,,2,100,1024,1468,4431,46129,,,
46130,7,103.048146,25.305758,杨桥街道,,530127,0871,530127002000,,,,,,,,,,2,100,1024,1468,4431,46130,,,
46131,7,103.123037,25.310911,小街镇,,530127,0871,530127102000,,,,,,,,,,2,100,1024,1468,4431,46131,,,
46132,7,103.066442,25.225715,杨林镇,,530127,0871,530127103000,,,,,,,,,,2,100,1024,1468,4431,46132,,,
46133,7,103.133588,25.272649,牛栏江镇,,530127,0871,530127104000,,,,,,,,,,2,100,1024,1468,4431,46133,,,
46134,7,103.066474,25.222576,嵩明杨林经济技术开发区,,530127,0871,530127401000,,,,,,,,,,2,100,1024,1468,4431,46134,,,
46135,7,103.00389,25.245691,云南省嵩明职业教育基地,,530127,0871,530127402000,,,,,,,,,,2,100,1024,1468,4431,46135,,,
46136,7,102.467558,25.555802,屏山街道,,530128,0871,530128001000,,,,,,,,,,2,100,1024,1468,4432,46136,,,
46137,7,102.526921,26.003505,撒营盘镇,,530128,0871,530128102000,,,,,,,,,,2,100,1024,1468,4432,46137,,,
46138,7,102.870567,25.899158,转龙镇,,530128,0871,530128103000,,,,,,,,,,2,100,1024,1468,4432,46138,,,
46139,7,102.499649,25.663529,茂山镇,,530128,0871,530128104000,,,,,,,,,,2,100,1024,1468,4432,46139,,,
46140,7,102.529475,25.762469,团街镇,,530128,0871,530128105000,,,,,,,,,,2,100,1024,1468,4432,46140,,,
46141,7,102.618567,25.863854,中屏镇,,530128,0871,530128106000,,,,,,,,,,2,100,1024,1468,4432,46141,,,
46142,7,102.452019,26.124388,皎平渡镇,,530128,0871,530128107000,,,,,,,,,,2,100,1024,1468,4432,46142,,,
46143,7,102.536203,26.253497,乌东德镇,,530128,0871,530128108000,,,,,,,,,,2,100,1024,1468,4432,46143,,,
46144,7,102.580025,25.632229,翠华镇,,530128,0871,530128109000,,,,,,,,,,2,100,1024,1468,4432,46144,,,
46145,7,102.799231,25.742835,九龙镇,,530128,0871,530128110000,,,,,,,,,,2,100,1024,1468,4432,46145,,,
46146,7,102.426543,25.844014,云龙乡,,530128,0871,530128204000,,,,,,,,,,2,100,1024,1468,4432,46146,,,
46147,7,102.279156,26.188971,汤郎乡,,530128,0871,530128207000,,,,,,,,,,2,100,1024,1468,4432,46147,,,
46148,7,102.559751,26.144885,马鹿塘乡,,530128,0871,530128208000,,,,,,,,,,2,100,1024,1468,4432,46148,,,
46149,7,102.683391,26.13153,则黑乡,,530128,0871,530128211000,,,,,,,,,,2,100,1024,1468,4432,46149,,,
46150,7,102.79038,26.023388,乌蒙乡,,530128,0871,530128212000,,,,,,,,,,2,100,1024,1468,4432,46150,,,
46151,7,102.805544,26.141192,雪山乡,,530128,0871,530128213000,,,,,,,,,,2,100,1024,1468,4432,46151,,,
46152,7,102.50979,25.49498,禄劝工业园区,,530128,0871,530128401000,,,,,,,,,,2,100,1024,1468,4432,46152,,,
46153,7,103.25974,25.56565,仁德街道,,530129,0871,530129001000,,,,,,,,,,2,100,1024,1468,4433,46153,,,
46154,7,103.256604,25.558175,塘子街道,,530129,0871,530129002000,,,,,,,,,,2,100,1024,1468,4433,46154,,,
46155,7,103.190029,25.536756,金所街道,,530129,0871,530129003000,,,,,,,,,,2,100,1024,1468,4433,46155,,,
46156,7,103.124573,25.439409,羊街镇,,530129,0871,530129103000,,,,,,,,,,2,100,1024,1468,4433,46156,,,
46157,7,102.856019,25.545911,柯渡镇,,530129,0871,530129104000,,,,,,,,,,2,100,1024,1468,4433,46157,,,
46158,7,102.923873,25.768552,倘甸镇,,530129,0871,530129105000,,,,,,,,,,2,100,1024,1468,4433,46158,,,
46159,7,103.264266,25.739408,功山镇,,530129,0871,530129106000,,,,,,,,,,2,100,1024,1468,4433,46159,,,
46160,7,103.376688,25.639961,河口镇,,530129,0871,530129107000,,,,,,,,,,2,100,1024,1468,4433,46160,,,
46161,7,103.332605,25.532002,七星镇,,530129,0871,530129108000,,,,,,,,,,2,100,1024,1468,4433,46161,,,
46162,7,103.005487,25.486211,先锋镇,,530129,0871,530129109000,,,,,,,,,,2,100,1024,1468,4433,46162,,,
46163,7,102.781653,25.639791,鸡街镇,,530129,0871,530129110000,,,,,,,,,,2,100,1024,1468,4433,46163,,,
46164,7,102.993398,25.830074,凤合镇,,530129,0871,530129111000,,,,,,,,,,2,100,1024,1468,4433,46164,,,
46165,7,102.970632,25.621089,六哨乡,,530129,0871,530129205000,,,,,,,,,,2,100,1024,1468,4433,46165,,,
46166,7,103.001255,25.932565,联合乡,,530129,0871,530129208000,,,,,,,,,,2,100,1024,1468,4433,46166,,,
46167,7,103.128274,25.843031,金源乡,,530129,0871,530129209000,,,,,,,,,,2,100,1024,1468,4433,46167,,,
46168,7,103.11093,25.685566,甸沙乡,,530129,0871,530129210000,,,,,,,,,,2,100,1024,1468,4433,46168,,,
46169,7,103.256604,25.558175,昆明倘甸产业园区轿子山旅游开发区,,530129,0871,530129405000,,,,,,,,,,2,100,1024,1468,4433,46169,,,
46170,7,102.487163,24.921465,连然街道,,530181,0871,530181001000,,,,,,,,,,2,100,1024,1468,4434,46170,,,
46171,7,102.497203,24.900827,金方街道,,530181,0871,530181002000,,,,,,,,,,2,100,1024,1468,4434,46171,,,
46172,7,102.359501,24.663574,八街街道,,530181,0871,530181003000,,,,,,,,,,2,100,1024,1468,4434,46172,,,
46173,7,102.450187,24.955396,温泉街道,,530181,0871,530181004000,,,,,,,,,,2,100,1024,1468,4434,46173,,,
46174,7,102.326184,25.01713,青龙街道,,530181,0871,530181005000,,,,,,,,,,2,100,1024,1468,4434,46174,,,
46175,7,102.235456,24.939309,禄脿街道,,530181,0871,530181006000,,,,,,,,,,2,100,1024,1468,4434,46175,,,
46176,7,102.382852,24.932975,草铺街道,,530181,0871,530181007000,,,,,,,,,,2,100,1024,1468,4434,46176,,,
46177,7,102.582056,24.948629,太平新城街道,,530181,0871,530181008000,,,,,,,,,,2,100,1024,1468,4434,46177,,,
46178,7,102.418925,24.854672,县街街道,,530181,0871,530181009000,,,,,,,,,,2,100,1024,1468,4434,46178,,,
46179,7,103.80671,25.490243,南宁街道,,530302,0874,530302001000,,,,,,,,,,2,100,1024,1469,4435,46179,,,
46180,7,103.794199,25.525674,建宁街道,,530302,0874,530302002000,,,,,,,,,,2,100,1024,1469,4435,46180,,,
46181,7,103.807182,25.524175,白石江街道,,530302,0874,530302003000,,,,,,,,,,2,100,1024,1469,4435,46181,,,
46182,7,103.783525,25.489493,寥廓街道,,530302,0874,530302004000,,,,,,,,,,2,100,1024,1469,4435,46182,,,
46183,7,103.733849,25.5178,西城街道,,530302,0874,530302005000,,,,,,,,,,2,100,1024,1469,4435,46183,,,
46184,7,103.81134,25.455803,益宁街道,,530302,0874,530302006000,,,,,,,,,,2,100,1024,1469,4435,46184,,,
46185,7,103.805012,25.495241,文华街道,,530302,0874,530302007000,,,,,,,,,,2,100,1024,1469,4435,46185,,,
46186,7,103.805012,25.495241,太和街道,,530302,0874,530302008000,,,,,,,,,,2,100,1024,1469,4435,46186,,,
46187,7,103.805012,25.495241,潇湘街道,,530302,0874,530302009000,,,,,,,,,,2,100,1024,1469,4435,46187,,,
46188,7,103.805012,25.495241,翠峰街道,,530302,0874,530302010000,,,,,,,,,,2,100,1024,1469,4435,46188,,,
46189,7,103.82877,25.420586,三宝街道,,530302,0874,530302011000,,,,,,,,,,2,100,1024,1469,4435,46189,,,
46190,7,103.847561,25.467889,沿江街道,,530302,0874,530302012000,,,,,,,,,,2,100,1024,1469,4435,46190,,,
46191,7,103.880525,25.51111,珠街街道,,530302,0874,530302013000,,,,,,,,,,2,100,1024,1469,4435,46191,,,
46192,7,103.877617,25.298147,越州镇,,530302,0874,530302102000,,,,,,,,,,2,100,1024,1469,4435,46192,,,
46193,7,104.062765,25.248803,东山镇,,530302,0874,530302103000,,,,,,,,,,2,100,1024,1469,4435,46193,,,
46194,7,103.916149,25.356418,茨营镇,,530302,0874,530302104000,,,,,,,,,,2,100,1024,1469,4435,46194,,,
46195,7,103.809811,25.589845,西平街道,,530303,0874,530303001000,,,,,,,,,,2,100,1024,1469,4436,46195,,,
46196,7,103.809824,25.589857,龙华街道,,530303,0874,530303002000,,,,,,,,,,2,100,1024,1469,4436,46196,,,
46197,7,103.796167,25.489999,金龙街道,,530300,0874,530303003000,,,,,,,,,,2,100,1024,1469,4436,46197,,,
46198,7,103.796167,25.489999,花山街道,,530300,0874,530303004000,,,,,,,,,,2,100,1024,1469,4436,46198,,,
46199,7,104.016835,25.652864,白水镇,,530303,0874,530303101000,,,,,,,,,,2,100,1024,1469,4436,46199,,,
46200,7,103.835776,25.750825,盘江镇,,530303,0874,530303102000,,,,,,,,,,2,100,1024,1469,4436,46200,,,
46201,7,104.039928,25.912256,炎方乡,,530303,0874,530303201000,,,,,,,,,,2,100,1024,1469,4436,46201,,,
46202,7,104.119804,25.830643,播乐乡,,530303,0874,530303202000,,,,,,,,,,2,100,1024,1469,4436,46202,,,
46203,7,103.663428,25.673874,大坡乡,,530303,0874,530303203000,,,,,,,,,,2,100,1024,1469,4436,46203,,,
46204,7,103.67135,25.878907,菱角乡,,530303,0874,530303204000,,,,,,,,,,2,100,1024,1469,4436,46204,,,
46205,7,103.601923,25.990393,德泽乡,,530303,0874,530303205000,,,,,,,,,,2,100,1024,1469,4436,46205,,,
46206,7,103.577921,25.430624,通泉街道,,530321,0874,530304001000,,,,,,,,,,2,100,1024,1469,4437,46206,,,
46207,7,103.596347,25.481523,鸡头村街道,,530321,0874,530304002000,,,,,,,,,,2,100,1024,1469,4437,46207,,,
46208,7,103.499789,25.475084,王家庄街道,,530321,0874,530304003000,,,,,,,,,,2,100,1024,1469,4437,46208,,,
46209,7,103.662395,25.571203,张安屯街道,,530321,0874,530304004000,,,,,,,,,,2,100,1024,1469,4437,46209,,,
46210,7,103.412866,25.382052,旧县街道,,530321,0874,530304005000,,,,,,,,,,2,100,1024,1469,4437,46210,,,
46211,7,103.393379,25.453332,马过河镇,,530321,0874,530304100000,,,,,,,,,,2,100,1024,1469,4437,46211,,,
46212,7,103.577662,25.267806,纳章镇,,530321,0874,530304101000,,,,,,,,,,2,100,1024,1469,4437,46212,,,
46213,7,103.379402,25.270649,马鸣乡,,530321,0874,530304200000,,,,,,,,,,2,100,1024,1469,4437,46213,,,
46214,7,103.464115,25.212195,大庄乡,,530321,0874,530304201000,,,,,,,,,,2,100,1024,1469,4437,46214,,,
46215,7,103.637092,25.329575,月望乡,,530321,0874,530304202000,,,,,,,,,,2,100,1024,1469,4437,46215,,,
46216,7,103.666663,25.030051,中枢街道,,530322,0874,530322001000,,,,,,,,,,2,100,1024,1469,4438,46216,,,
46217,7,103.666663,25.030051,同乐街道,,530322,0874,530322002000,,,,,,,,,,2,100,1024,1469,4438,46217,,,
46218,7,103.747909,25.121553,板桥镇,,530322,0874,530322102000,,,,,,,,,,2,100,1024,1469,4438,46218,,,
46219,7,103.772083,25.044235,三岔河镇,,530322,0874,530322103000,,,,,,,,,,2,100,1024,1469,4438,46219,,,
46220,7,103.758028,24.957113,马街镇,,530322,0874,530322104000,,,,,,,,,,2,100,1024,1469,4438,46220,,,
46221,7,103.693763,24.842086,召夸镇,,530322,0874,530322105000,,,,,,,,,,2,100,1024,1469,4438,46221,,,
46222,7,103.51485,24.900443,大莫古镇,,530322,0874,530322106000,,,,,,,,,,2,100,1024,1469,4438,46222,,,
46223,7,103.686655,25.163827,芳华镇,,530322,0874,530322107000,,,,,,,,,,2,100,1024,1469,4438,46223,,,
46224,7,103.573129,25.041209,小百户镇,,530322,0874,530322108000,,,,,,,,,,2,100,1024,1469,4438,46224,,,
46225,7,103.954785,25.122779,活水乡,,530322,0874,530322201000,,,,,,,,,,2,100,1024,1469,4438,46225,,,
46226,7,103.836552,24.947476,龙海乡,,530322,0874,530322202000,,,,,,,,,,2,100,1024,1469,4438,46226,,,
46227,7,103.666663,25.030051,陆良华侨管理区,,530322,0874,530322501000,,,,,,,,,,2,100,1024,1469,4438,46227,,,
46228,7,103.993544,24.822762,丹凤街道,,530323,0874,530323001000,,,,,,,,,,2,100,1024,1469,4439,46228,,,
46229,7,103.986235,24.818191,漾月街道,,530323,0874,530323002000,,,,,,,,,,2,100,1024,1469,4439,46229,,,
46230,7,103.985478,24.822403,大同街道,,530323,0874,530323003000,,,,,,,,,,2,100,1024,1469,4439,46230,,,
46231,7,103.828877,24.869936,雄壁镇,,530323,0874,530323102000,,,,,,,,,,2,100,1024,1469,4439,46231,,,
46232,7,103.817453,24.769989,葵山镇,,530323,0874,530323103000,,,,,,,,,,2,100,1024,1469,4439,46232,,,
46233,7,103.919803,24.699084,彩云镇,,530323,0874,530323104000,,,,,,,,,,2,100,1024,1469,4439,46233,,,
46234,7,104.038618,24.91159,竹基镇,,530323,0874,530323105000,,,,,,,,,,2,100,1024,1469,4439,46234,,,
46235,7,104.083165,24.55215,龙庆彝族壮族乡,,530323,0874,530323202000,,,,,,,,,,2,100,1024,1469,4439,46235,,,
46236,7,104.291771,24.617103,五龙壮族乡,,530323,0874,530323203000,,,,,,,,,,2,100,1024,1469,4439,46236,,,
46237,7,103.985478,24.822403,高良壮族苗族瑶族乡,,530323,0874,530323204000,,,,,,,,,,2,100,1024,1469,4439,46237,,,
46238,7,104.308675,24.884626,罗雄街道,,530324,0874,530324001000,,,,,,,,,,2,100,1024,1469,4440,46238,,,
46239,7,104.310464,24.873764,腊山街道,,530324,0874,530324002000,,,,,,,,,,2,100,1024,1469,4440,46239,,,
46240,7,104.294095,24.959738,九龙街道,,530324,0874,530324003000,,,,,,,,,,2,100,1024,1469,4440,46240,,,
46241,7,104.496254,24.962975,板桥镇,,530324,0874,530324102000,,,,,,,,,,2,100,1024,1469,4440,46241,,,
46242,7,104.238931,25.147795,马街镇,,530324,0874,530324103000,,,,,,,,,,2,100,1024,1469,4440,46242,,,
46243,7,104.38755,25.357622,富乐镇,,530324,0874,530324104000,,,,,,,,,,2,100,1024,1469,4440,46243,,,
46244,7,104.109163,25.073962,阿岗镇,,530324,0874,530324106000,,,,,,,,,,2,100,1024,1469,4440,46244,,,
46245,7,104.427766,24.740639,大水井乡,,530324,0874,530324201000,,,,,,,,,,2,100,1024,1469,4440,46245,,,
46246,7,104.308675,24.884626,鲁布革布依族苗族乡,,530324,0874,530324202000,,,,,,,,,,2,100,1024,1469,4440,46246,,,
46247,7,104.536667,24.853461,旧屋基彝族乡,,530324,0874,530324203000,,,,,,,,,,2,100,1024,1469,4440,46247,,,
46248,7,104.624493,24.976444,钟山乡,,530324,0874,530324204000,,,,,,,,,,2,100,1024,1469,4440,46248,,,
46249,7,104.503155,25.028605,长底布依族乡,,530324,0874,530324205000,,,,,,,,,,2,100,1024,1469,4440,46249,,,
46250,7,104.36298,25.18702,老厂乡,,530324,0874,530324206000,,,,,,,,,,2,100,1024,1469,4440,46250,,,
46251,7,104.255613,25.670816,中安街道,,530325,0874,530325001000,,,,,,,,,,2,100,1024,1469,4441,46251,,,
46252,7,104.278777,25.664602,胜境街道,,530325,0874,530325002000,,,,,,,,,,2,100,1024,1469,4441,46252,,,
46253,7,104.321125,25.476566,营上镇,,530325,0874,530325102000,,,,,,,,,,2,100,1024,1469,4441,46253,,,
46254,7,104.712125,25.271403,黄泥河镇,,530325,0874,530325103000,,,,,,,,,,2,100,1024,1469,4441,46254,,,
46255,7,104.303179,25.405347,竹园镇,,530325,0874,530325104000,,,,,,,,,,2,100,1024,1469,4441,46255,,,
46256,7,104.29938,25.798532,后所镇,,530325,0874,530325105000,,,,,,,,,,2,100,1024,1469,4441,46256,,,
46257,7,104.303186,25.548171,大河镇,,530325,0874,530325106000,,,,,,,,,,2,100,1024,1469,4441,46257,,,
46258,7,104.156056,25.375006,墨红镇,,530325,0874,530325107000,,,,,,,,,,2,100,1024,1469,4441,46258,,,
46259,7,104.459038,25.374608,富村镇,,530325,0874,530325108000,,,,,,,,,,2,100,1024,1469,4441,46259,,,
46260,7,104.57701,25.132694,十八连山镇,,530325,0874,530325109000,,,,,,,,,,2,100,1024,1469,4441,46260,,,
46261,7,104.524606,25.221862,老厂镇,,530325,0874,530325110000,,,,,,,,,,2,100,1024,1469,4441,46261,,,
46262,7,104.801458,25.218461,古敢水族乡,,530325,0874,530325201000,,,,,,,,,,2,100,1024,1469,4441,46262,,,
46263,7,103.297361,26.417947,古城街道,,530326,0874,530326001000,,,,,,,,,,2,100,1024,1469,4442,46263,,,
46264,7,103.306649,26.411151,宝云街道,,530326,0874,530326002000,,,,,,,,,,2,100,1024,1469,4442,46264,,,
46265,7,103.297361,26.417947,金钟街道,,530326,0874,530326003000,,,,,,,,,,2,100,1024,1469,4442,46265,,,
46266,7,103.148487,26.514353,娜姑镇,,530326,0874,530326102000,,,,,,,,,,2,100,1024,1469,4442,46266,,,
46267,7,103.515016,26.810393,迤车镇,,530326,0874,530326103000,,,,,,,,,,2,100,1024,1469,4442,46267,,,
46268,7,103.547248,26.717818,乐业镇,,530326,0874,530326104000,,,,,,,,,,2,100,1024,1469,4442,46268,,,
46269,7,103.696462,26.624654,矿山镇,,530326,0874,530326105000,,,,,,,,,,2,100,1024,1469,4442,46269,,,
46270,7,103.625308,26.552511,者海镇,,530326,0874,530326106000,,,,,,,,,,2,100,1024,1469,4442,46270,,,
46271,7,103.822878,26.47011,大井镇,,530326,0874,530326107000,,,,,,,,,,2,100,1024,1469,4442,46271,,,
46272,7,103.421216,26.191369,待补镇,,530326,0874,530326108000,,,,,,,,,,2,100,1024,1469,4442,46272,,,
46273,7,103.231482,26.290072,大海乡,,530326,0874,530326201000,,,,,,,,,,2,100,1024,1469,4442,46273,,,
46274,7,103.170899,26.593606,老厂乡,,530326,0874,530326202000,,,,,,,,,,2,100,1024,1469,4442,46274,,,
46275,7,103.26189,26.547948,五星乡,,530326,0874,530326203000,,,,,,,,,,2,100,1024,1469,4442,46275,,,
46276,7,103.32785,26.685645,大桥乡,,530326,0874,530326204000,,,,,,,,,,2,100,1024,1469,4442,46276,,,
46277,7,103.473818,26.935418,纸厂乡,,530326,0874,530326205000,,,,,,,,,,2,100,1024,1469,4442,46277,,,
46278,7,103.645094,26.916791,马路乡,,530326,0874,530326206000,,,,,,,,,,2,100,1024,1469,4442,46278,,,
46279,7,103.65608,26.821561,火红乡,,530326,0874,530326207000,,,,,,,,,,2,100,1024,1469,4442,46279,,,
46280,7,103.532971,26.391157,新街回族乡,,530326,0874,530326208000,,,,,,,,,,2,100,1024,1469,4442,46280,,,
46281,7,103.583966,26.367442,雨碌乡,,530326,0874,530326209000,,,,,,,,,,2,100,1024,1469,4442,46281,,,
46282,7,103.618792,26.251699,鲁纳乡,,530326,0874,530326210000,,,,,,,,,,2,100,1024,1469,4442,46282,,,
46283,7,103.569224,26.122891,上村乡,,530326,0874,530326211000,,,,,,,,,,2,100,1024,1469,4442,46283,,,
46284,7,103.365646,25.984941,驾车乡,,530326,0874,530326212000,,,,,,,,,,2,100,1024,1469,4442,46284,,,
46285,7,103.510351,25.960905,田坝乡,,530326,0874,530326213000,,,,,,,,,,2,100,1024,1469,4442,46285,,,
46286,7,104.098459,26.206593,宛水街道,,530381,0874,530381001000,,,,,,,,,,2,100,1024,1469,4443,46286,,,
46287,7,104.094769,26.235027,西宁街道,,530381,0874,530381002000,,,,,,,,,,2,100,1024,1469,4443,46287,,,
46288,7,104.104497,26.219759,双龙街道,,530381,0874,530381003000,,,,,,,,,,2,100,1024,1469,4443,46288,,,
46289,7,104.095242,26.155625,虹桥街道,,530381,0874,530381004000,,,,,,,,,,2,100,1024,1469,4443,46289,,,
46290,7,104.091113,26.220307,丰华街道,,530381,0874,530381005000,,,,,,,,,,2,100,1024,1469,4443,46290,,,
46291,7,104.07491,26.085316,板桥街道,,530381,0874,530381006000,,,,,,,,,,2,100,1024,1469,4443,46291,,,
46292,7,104.157942,26.311656,来宾街道,,530381,0874,530381007000,,,,,,,,,,2,100,1024,1469,4443,46292,,,
46293,7,104.151268,26.258484,凤凰街道,,530381,0874,530381008000,,,,,,,,,,2,100,1024,1469,4443,46293,,,
46294,7,104.104497,26.219759,复兴街道,,530381,0874,530381009000,,,,,,,,,,2,100,1024,1469,4443,46294,,,
46295,7,104.394332,26.31399,格宜镇,,530381,0874,530381102000,,,,,,,,,,2,100,1024,1469,4443,46295,,,
46296,7,104.45522,26.168703,田坝镇,,530381,0874,530381103000,,,,,,,,,,2,100,1024,1469,4443,46296,,,
46297,7,104.252332,26.005129,羊场镇,,530381,0874,530381104000,,,,,,,,,,2,100,1024,1469,4443,46297,,,
46298,7,104.216706,26.481498,倘塘镇,,530381,0874,530381106000,,,,,,,,,,2,100,1024,1469,4443,46298,,,
46299,7,103.994466,26.154139,落水镇,,530381,0874,530381107000,,,,,,,,,,2,100,1024,1469,4443,46299,,,
46300,7,103.722524,26.26417,务德镇,,530381,0874,530381108000,,,,,,,,,,2,100,1024,1469,4443,46300,,,
46301,7,104.347913,26.070669,海岱镇,,530381,0874,530381109000,,,,,,,,,,2,100,1024,1469,4443,46301,,,
46302,7,104.257615,26.30124,龙场镇,,530381,0874,530381110000,,,,,,,,,,2,100,1024,1469,4443,46302,,,
46303,7,104.00818,26.407954,龙潭镇,,530381,0874,530381111000,,,,,,,,,,2,100,1024,1469,4443,46303,,,
46304,7,103.775493,26.068695,热水镇,,530381,0874,530381112000,,,,,,,,,,2,100,1024,1469,4443,46304,,,
46305,7,104.465563,26.311169,宝山镇,,530381,0874,530381113000,,,,,,,,,,2,100,1024,1469,4443,46305,,,
46306,7,104.26669,26.10326,东山镇,,530381,0874,530381114000,,,,,,,,,,2,100,1024,1469,4443,46306,,,
46307,7,104.277055,26.616242,杨柳镇,,530381,0874,530381115000,,,,,,,,,,2,100,1024,1469,4443,46307,,,
46308,7,104.559855,26.352435,普立乡,,530381,0874,530381201000,,,,,,,,,,2,100,1024,1469,4443,46308,,,
46309,7,103.851086,26.237644,西泽乡,,530381,0874,530381202000,,,,,,,,,,2,100,1024,1469,4443,46309,,,
46310,7,103.962362,26.469117,得禄乡,,530381,0874,530381203000,,,,,,,,,,2,100,1024,1469,4443,46310,,,
46311,7,104.414513,26.613303,双河乡,,530381,0874,530381205000,,,,,,,,,,2,100,1024,1469,4443,46311,,,
46312,7,104.39043,26.490351,乐丰乡,,530381,0874,530381206000,,,,,,,,,,2,100,1024,1469,4443,46312,,,
46313,7,104.510346,26.448425,文兴乡,,530381,0874,530381207000,,,,,,,,,,2,100,1024,1469,4443,46313,,,
46314,7,104.491998,26.524754,阿都乡,,530381,0874,530381208000,,,,,,,,,,2,100,1024,1469,4443,46314,,,
46315,7,102.55522,24.353642,玉兴街道,,530402,0877,530402001000,,,,,,,,,,2,100,1024,1470,4444,46315,,,
46316,7,102.540179,24.341098,凤凰街道,,530402,0877,530402002000,,,,,,,,,,2,100,1024,1470,4444,46316,,,
46317,7,102.534604,24.358386,玉带街道,,530402,0877,530402003000,,,,,,,,,,2,100,1024,1470,4444,46317,,,
46318,7,102.54733,24.424287,北城街道,,530402,0877,530402004000,,,,,,,,,,2,100,1024,1470,4444,46318,,,
46319,7,102.529998,24.399088,春和街道,,530402,0877,530402005000,,,,,,,,,,2,100,1024,1470,4444,46319,,,
46320,7,102.554103,24.385249,李棋街道,,530402,0877,530402006000,,,,,,,,,,2,100,1024,1470,4444,46320,,,
46321,7,102.498177,24.337986,大营街街道,,530402,0877,530402007000,,,,,,,,,,2,100,1024,1470,4444,46321,,,
46322,7,102.500115,24.254175,研和街道,,530402,0877,530402008000,,,,,,,,,,2,100,1024,1470,4444,46322,,,
46323,7,102.518546,24.318077,高仓街道,,530402,0877,530402009000,,,,,,,,,,2,100,1024,1470,4444,46323,,,
46324,7,102.615247,24.439516,小石桥彝族乡,,530402,0877,530402201000,,,,,,,,,,2,100,1024,1470,4444,46324,,,
46325,7,102.391265,24.326444,洛河彝族乡,,530402,0877,530402202000,,,,,,,,,,2,100,1024,1470,4444,46325,,,
46326,7,102.749568,24.289987,大街街道,,530403,0877,530403001000,,,,,,,,,,2,100,1024,1470,4445,46326,,,
46327,7,102.810471,24.425071,江城镇,,530403,0877,530403101000,,,,,,,,,,2,100,1024,1470,4445,46327,,,
46328,7,102.732635,24.335493,前卫镇,,530403,0877,530403102000,,,,,,,,,,2,100,1024,1470,4445,46328,,,
46329,7,102.638296,24.301245,九溪镇,,530403,0877,530403103000,,,,,,,,,,2,100,1024,1470,4445,46329,,,
46330,7,102.864587,24.342335,路居镇,,530403,0877,530403104000,,,,,,,,,,2,100,1024,1470,4445,46330,,,
46331,7,102.665768,24.414825,安化彝族乡,,530403,0877,530403201000,,,,,,,,,,2,100,1024,1470,4445,46331,,,
46332,7,102.799867,24.220874,雄关乡,,530403,0877,530403202000,,,,,,,,,,2,100,1024,1470,4445,46332,,,
46333,7,102.912348,24.67241,凤麓街道,,530422,0877,530422001000,,,,,,,,,,2,100,1024,1470,4446,46333,,,
46334,7,102.894076,24.648845,龙街街道,,530422,0877,530422002000,,,,,,,,,,2,100,1024,1470,4446,46334,,,
46335,7,102.915635,24.643589,右所镇,,530422,0877,530422101000,,,,,,,,,,2,100,1024,1470,4446,46335,,,
46336,7,102.975628,24.814635,阳宗镇,,530422,0877,530422102000,,,,,,,,,,2,100,1024,1470,4446,46336,,,
46337,7,102.942714,24.515901,海口镇,,530422,0877,530422103000,,,,,,,,,,2,100,1024,1470,4446,46337,,,
46338,7,102.982797,24.689698,九村镇,,530422,0877,530422104000,,,,,,,,,,2,100,1024,1470,4446,46338,,,
46339,7,102.765524,24.111461,秀山街道,,530423,0877,530423001000,,,,,,,,,,2,100,1024,1470,4447,46339,,,
46340,7,102.760039,24.112205,九龙街道,,530423,0877,530423002000,,,,,,,,,,2,100,1024,1470,4447,46340,,,
46341,7,102.793681,24.13006,杨广镇,,530423,0877,530423101000,,,,,,,,,,2,100,1024,1470,4447,46341,,,
46342,7,102.648232,24.141807,河西镇,,530423,0877,530423102000,,,,,,,,,,2,100,1024,1470,4447,46342,,,
46343,7,102.701058,24.162522,四街镇,,530423,0877,530423103000,,,,,,,,,,2,100,1024,1470,4447,46343,,,
46344,7,102.733854,24.178434,纳古镇,,530423,0877,530423104000,,,,,,,,,,2,100,1024,1470,4447,46344,,,
46345,7,102.755815,24.067783,里山彝族乡,,530423,0877,530423201000,,,,,,,,,,2,100,1024,1470,4447,46345,,,
46346,7,102.760039,24.112205,高大傣族彝族乡,,530423,0877,530423202000,,,,,,,,,,2,100,1024,1470,4447,46346,,,
46347,7,102.664918,24.148053,兴蒙蒙古族乡,,530423,0877,530423203000,,,,,,,,,,2,100,1024,1470,4447,46347,,,
46348,7,102.931279,24.18625,宁州街道,,530424,0877,530424001000,,,,,,,,,,2,100,1024,1470,4448,46348,,,
46349,7,103.102947,24.221992,盘溪镇,,530424,0877,530424102000,,,,,,,,,,2,100,1024,1470,4448,46349,,,
46350,7,103.019468,24.05813,华溪镇,,530424,0877,530424103000,,,,,,,,,,2,100,1024,1470,4448,46350,,,
46351,7,102.981614,24.43502,青龙镇,,530424,0877,530424104000,,,,,,,,,,2,100,1024,1470,4448,46351,,,
46352,7,103.070887,24.333348,通红甸彝族苗族乡,,530424,0877,530424201000,,,,,,,,,,2,100,1024,1470,4448,46352,,,
46353,7,102.168845,24.669803,龙泉街道,,530425,0877,530425001000,,,,,,,,,,2,100,1024,1470,4449,46353,,,
46354,7,102.227467,24.817994,六街街道,,530425,0877,530425002000,,,,,,,,,,2,100,1024,1470,4449,46354,,,
46355,7,101.962301,24.674468,绿汁镇,,530425,0877,530425100000,,,,,,,,,,2,100,1024,1470,4449,46355,,,
46356,7,102.182361,24.612582,浦贝彝族乡,,530425,0877,530425201000,,,,,,,,,,2,100,1024,1470,4449,46356,,,
46357,7,102.157538,24.498539,十街彝族乡,,530425,0877,530425202000,,,,,,,,,,2,100,1024,1470,4449,46357,,,
46358,7,102.035673,24.711417,铜厂彝族乡,,530425,0877,530425203000,,,,,,,,,,2,100,1024,1470,4449,46358,,,
46359,7,102.135436,24.858612,小街乡,,530425,0877,530425204000,,,,,,,,,,2,100,1024,1470,4449,46359,,,
46360,7,102.407039,24.176535,双江街道,,530426,0877,530426001000,,,,,,,,,,2,100,1024,1470,4450,46360,,,
46361,7,102.459389,24.152346,小街街道,,530426,0877,530426002000,,,,,,,,,,2,100,1024,1470,4450,46361,,,
46362,7,102.227057,24.405858,甸中镇,,530426,0877,530426103000,,,,,,,,,,2,100,1024,1470,4450,46362,,,
46363,7,102.202461,24.079172,化念镇,,530426,0877,530426104000,,,,,,,,,,2,100,1024,1470,4450,46363,,,
46364,7,102.159264,24.248501,塔甸镇,,530426,0877,530426105000,,,,,,,,,,2,100,1024,1470,4450,46364,,,
46365,7,102.244585,24.282562,岔河乡,,530426,0877,530426201000,,,,,,,,,,2,100,1024,1470,4450,46365,,,
46366,7,102.111655,24.431598,大龙潭乡,,530426,0877,530426202000,,,,,,,,,,2,100,1024,1470,4450,46366,,,
46367,7,102.092057,24.308666,富良棚乡,,530426,0877,530426203000,,,,,,,,,,2,100,1024,1470,4450,46367,,,
46368,7,101.984273,24.069208,桂山街道,,530427,0877,530427001000,,,,,,,,,,2,100,1024,1470,4451,46368,,,
46369,7,101.990157,24.070051,古城街道,,530427,0877,530427002000,,,,,,,,,,2,100,1024,1470,4451,46369,,,
46370,7,102.150541,23.920168,扬武镇,,530427,0877,530427100000,,,,,,,,,,2,100,1024,1470,4451,46370,,,
46371,7,101.727398,23.841288,漠沙镇,,530427,0877,530427101000,,,,,,,,,,2,100,1024,1470,4451,46371,,,
46372,7,101.575554,24.047102,戛洒镇,,530427,0877,530427102000,,,,,,,,,,2,100,1024,1470,4451,46372,,,
46373,7,101.509516,24.143854,水塘镇,,530427,0877,530427103000,,,,,,,,,,2,100,1024,1470,4451,46373,,,
46374,7,101.968598,24.059562,平甸乡,,530427,0877,530427200000,,,,,,,,,,2,100,1024,1470,4451,46374,,,
46375,7,101.864987,24.112839,新化乡,,530427,0877,530427201000,,,,,,,,,,2,100,1024,1470,4451,46375,,,
46376,7,101.573844,23.716396,建兴乡,,530427,0877,530427202000,,,,,,,,,,2,100,1024,1470,4451,46376,,,
46377,7,101.685243,24.168582,老厂乡,,530427,0877,530427203000,,,,,,,,,,2,100,1024,1470,4451,46377,,,
46378,7,101.363389,24.309772,者竜乡,,530427,0877,530427204000,,,,,,,,,,2,100,1024,1470,4451,46378,,,
46379,7,101.551542,23.819618,平掌乡,,530427,0877,530427205000,,,,,,,,,,2,100,1024,1470,4451,46379,,,
46380,7,102.00395,23.597119,红河街道,,530428,0877,530428001000,,,,,,,,,,2,100,1024,1470,4452,46380,,,
46381,7,102.003026,23.594065,澧江街道,,530428,0877,530428002000,,,,,,,,,,2,100,1024,1470,4452,46381,,,
46382,7,101.998103,23.596503,甘庄街道,,530428,0877,530428003000,,,,,,,,,,2,100,1024,1470,4452,46382,,,
46383,7,101.829722,23.694073,曼来镇,,530428,0877,530428101000,,,,,,,,,,2,100,1024,1470,4452,46383,,,
46384,7,101.852354,23.402769,因远镇,,530428,0877,530428102000,,,,,,,,,,2,100,1024,1470,4452,46384,,,
46385,7,102.172497,23.653662,龙潭乡,,530428,0877,530428201000,,,,,,,,,,2,100,1024,1470,4452,46385,,,
46386,7,102.056585,23.438841,羊街乡,,530428,0877,530428202000,,,,,,,,,,2,100,1024,1470,4452,46386,,,
46387,7,102.117933,23.385822,那诺乡,,530428,0877,530428203000,,,,,,,,,,2,100,1024,1470,4452,46387,,,
46388,7,102.285139,23.539705,洼垤乡,,530428,0877,530428204000,,,,,,,,,,2,100,1024,1470,4452,46388,,,
46389,7,101.850992,23.502317,咪哩乡,,530428,0877,530428205000,,,,,,,,,,2,100,1024,1470,4452,46389,,,
46390,7,99.162806,25.102757,兰城街道,,530502,0875,530502001000,,,,,,,,,,2,100,1024,1471,4453,46390,,,
46391,7,99.166469,25.131291,永昌街道,,530502,0875,530502002000,,,,,,,,,,2,100,1024,1471,4453,46391,,,
46392,7,99.165607,25.121154,九隆街道,,530502,0875,530502003000,,,,,,,,,,2,100,1024,1471,4453,46392,,,
46393,7,99.165607,25.121154,青华街道,,530502,0875,530502004000,,,,,,,,,,2,100,1024,1471,4453,46393,,,
46394,7,99.165607,25.121154,河图街道,,530502,0875,530502005000,,,,,,,,,,2,100,1024,1471,4453,46394,,,
46395,7,99.165607,25.121154,永盛街道,,530502,0875,530502006000,,,,,,,,,,2,100,1024,1471,4453,46395,,,
46396,7,99.22043,25.172891,板桥镇,,530502,0875,530502101000,,,,,,,,,,2,100,1024,1471,4453,46396,,,
46397,7,99.180993,25.070813,汉庄镇,,530502,0875,530502103000,,,,,,,,,,2,100,1024,1471,4453,46397,,,
46398,7,99.015081,25.010994,蒲缥镇,,530502,0875,530502104000,,,,,,,,,,2,100,1024,1471,4453,46398,,,
46399,7,99.262157,25.447538,瓦窑镇,,530502,0875,530502105000,,,,,,,,,,2,100,1024,1471,4453,46399,,,
46400,7,98.869881,24.967554,潞江镇,,530502,0875,530502106000,,,,,,,,,,2,100,1024,1471,4453,46400,,,
46401,7,99.256519,25.152418,金鸡乡,,530502,0875,530502201000,,,,,,,,,,2,100,1024,1471,4453,46401,,,
46402,7,99.177618,25.018862,辛街乡,,530502,0875,530502202000,,,,,,,,,,2,100,1024,1471,4453,46402,,,
46403,7,99.32177,24.928447,西邑乡,,530502,0875,530502203000,,,,,,,,,,2,100,1024,1471,4453,46403,,,
46404,7,99.373643,25.013178,丙麻乡,,530502,0875,530502204000,,,,,,,,,,2,100,1024,1471,4453,46404,,,
46405,7,99.361314,25.104009,瓦渡乡,,530502,0875,530502205000,,,,,,,,,,2,100,1024,1471,4453,46405,,,
46406,7,99.332583,25.265692,水寨乡,,530502,0875,530502206000,,,,,,,,,,2,100,1024,1471,4453,46406,,,
46407,7,98.97778,25.56827,瓦马彝族白族乡,,530502,0875,530502207000,,,,,,,,,,2,100,1024,1471,4453,46407,,,
46408,7,99.062152,25.361177,瓦房彝族苗族乡,,530502,0875,530502208000,,,,,,,,,,2,100,1024,1471,4453,46408,,,
46409,7,98.996334,25.187099,杨柳白族彝族乡,,530502,0875,530502209000,,,,,,,,,,2,100,1024,1471,4453,46409,,,
46410,7,98.867109,25.445111,芒宽彝族傣族乡,,530502,0875,530502210000,,,,,,,,,,2,100,1024,1471,4453,46410,,,
46411,7,99.222063,25.064256,保山工贸园区,,530502,0875,530502401000,,,,,,,,,,2,100,1024,1471,4453,46411,,,
46412,7,98.765039,25.462551,保山市高黎贡山旅游渡假区,,530581,0875,530502501000,,,,,,,,,,2,100,1024,1471,4453,46412,,,
46413,7,99.183374,24.721319,甸阳镇,,530521,0875,530521101000,,,,,,,,,,2,100,1024,1471,4454,46413,,,
46414,7,99.10592,24.869413,由旺镇,,530521,0875,530521102000,,,,,,,,,,2,100,1024,1471,4454,46414,,,
46415,7,99.230157,24.601874,姚关镇,,530521,0875,530521103000,,,,,,,,,,2,100,1024,1471,4454,46415,,,
46416,7,99.167897,24.770909,仁和镇,,530521,0875,530521104000,,,,,,,,,,2,100,1024,1471,4454,46416,,,
46417,7,99.027794,24.833321,太平镇,,530521,0875,530521105000,,,,,,,,,,2,100,1024,1471,4454,46417,,,
46418,7,99.178308,24.580044,万兴乡,,530521,0875,530521201000,,,,,,,,,,2,100,1024,1471,4454,46418,,,
46419,7,99.27126,24.637521,摆榔彝族布朗族乡,,530521,0875,530521202000,,,,,,,,,,2,100,1024,1471,4454,46419,,,
46420,7,99.137448,24.464922,酒房乡,,530521,0875,530521203000,,,,,,,,,,2,100,1024,1471,4454,46420,,,
46421,7,99.236691,24.422569,旧城乡,,530521,0875,530521204000,,,,,,,,,,2,100,1024,1471,4454,46421,,,
46422,7,99.321282,24.717534,木老元布朗族彝族乡,,530521,0875,530521205000,,,,,,,,,,2,100,1024,1471,4454,46422,,,
46423,7,99.242539,24.878936,老麦乡,,530521,0875,530521206000,,,,,,,,,,2,100,1024,1471,4454,46423,,,
46424,7,99.189221,24.723064,何元乡,,530521,0875,530521207000,,,,,,,,,,2,100,1024,1471,4454,46424,,,
46425,7,99.076685,24.922627,水长乡,,530521,0875,530521208000,,,,,,,,,,2,100,1024,1471,4454,46425,,,
46426,7,99.084622,24.907558,保山市水长工业园区,,530521,0875,530521401000,,,,,,,,,,2,100,1024,1471,4454,46426,,,
46427,7,98.694507,24.596452,龙山镇,,530523,0875,530523101000,,,,,,,,,,2,100,1024,1471,4455,46427,,,
46428,7,98.825573,24.695635,镇安镇,,530523,0875,530523102000,,,,,,,,,,2,100,1024,1471,4455,46428,,,
46429,7,99.039641,24.319503,勐糯镇,,530523,0875,530523103000,,,,,,,,,,2,100,1024,1471,4455,46429,,,
46430,7,98.928426,24.727503,腊勐镇,,530523,0875,530523104000,,,,,,,,,,2,100,1024,1471,4455,46430,,,
46431,7,98.724275,24.443964,象达镇,,530523,0875,530523105000,,,,,,,,,,2,100,1024,1471,4455,46431,,,
46432,7,98.684908,24.754776,龙江乡,,530523,0875,530523201000,,,,,,,,,,2,100,1024,1471,4455,46432,,,
46433,7,99.035742,24.558391,碧寨乡,,530523,0875,530523203000,,,,,,,,,,2,100,1024,1471,4455,46433,,,
46434,7,98.82336,24.561494,龙新乡,,530523,0875,530523204000,,,,,,,,,,2,100,1024,1471,4455,46434,,,
46435,7,98.932086,24.333857,平达乡,,530523,0875,530523206000,,,,,,,,,,2,100,1024,1471,4455,46435,,,
46436,7,98.76196,24.149892,木城彝族傈僳族乡,,530523,0875,530523207000,,,,,,,,,,2,100,1024,1471,4455,46436,,,
46437,7,99.615812,24.822454,田园镇,,530524,0875,530524101000,,,,,,,,,,2,100,1024,1471,4456,46437,,,
46438,7,99.70002,24.90744,漭水镇,,530524,0875,530524102000,,,,,,,,,,2,100,1024,1471,4456,46438,,,
46439,7,99.441711,24.880508,柯街镇,,530524,0875,530524103000,,,,,,,,,,2,100,1024,1471,4456,46439,,,
46440,7,99.393742,24.787973,卡斯镇,,530524,0875,530524104000,,,,,,,,,,2,100,1024,1471,4456,46440,,,
46441,7,99.639419,24.521129,勐统镇,,530524,0875,530524105000,,,,,,,,,,2,100,1024,1471,4456,46441,,,
46442,7,99.698678,24.696335,温泉镇,,530524,0875,530524106000,,,,,,,,,,2,100,1024,1471,4456,46442,,,
46443,7,99.489787,25.045522,大田坝镇,,530524,0875,530524107000,,,,,,,,,,2,100,1024,1471,4456,46443,,,
46444,7,99.464883,24.684152,鸡飞镇,,530524,0875,530524108000,,,,,,,,,,2,100,1024,1471,4456,46444,,,
46445,7,99.576153,24.676743,翁堵镇,,530524,0875,530524109000,,,,,,,,,,2,100,1024,1471,4456,46445,,,
46446,7,99.34744,24.537397,湾甸傣族乡,,530524,0875,530524205000,,,,,,,,,,2,100,1024,1471,4456,46446,,,
46447,7,99.514977,24.477244,更戛乡,,530524,0875,530524206000,,,,,,,,,,2,100,1024,1471,4456,46447,,,
46448,7,99.975371,25.087644,珠街彝族乡,,530524,0875,530524207000,,,,,,,,,,2,100,1024,1471,4456,46448,,,
46449,7,99.828114,25.02107,耈街彝族苗族乡,,530524,0875,530524208000,,,,,,,,,,2,100,1024,1471,4456,46449,,,
46450,7,98.508267,25.024548,腾越镇,,530581,0875,530581101000,,,,,,,,,,2,100,1024,1471,4457,46450,,,
46451,7,98.484025,25.343618,固东镇,,530581,0875,530581102000,,,,,,,,,,2,100,1024,1471,4457,46451,,,
46452,7,98.407984,25.528374,滇滩镇,,530581,0875,530581103000,,,,,,,,,,2,100,1024,1471,4457,46452,,,
46453,7,98.277767,25.323455,猴桥镇,,530581,0875,530581104000,,,,,,,,,,2,100,1024,1471,4457,46453,,,
46454,7,98.447787,25.018479,和顺镇,,530581,0875,530581105000,,,,,,,,,,2,100,1024,1471,4457,46454,,,
46455,7,98.65233,25.424084,界头镇,,530581,0875,530581106000,,,,,,,,,,2,100,1024,1471,4457,46455,,,
46456,7,98.602613,25.228339,曲石镇,,530581,0875,530581107000,,,,,,,,,,2,100,1024,1471,4457,46456,,,
46457,7,98.541604,25.4903,明光镇,,530581,0875,530581108000,,,,,,,,,,2,100,1024,1471,4457,46457,,,
46458,7,98.394549,25.060928,中和镇,,530581,0875,530581109000,,,,,,,,,,2,100,1024,1471,4457,46458,,,
46459,7,98.671115,24.934783,芒棒镇,,530581,0875,530581110000,,,,,,,,,,2,100,1024,1471,4457,46459,,,
46460,7,98.387064,24.975843,荷花镇,,530581,0875,530581111000,,,,,,,,,,2,100,1024,1471,4457,46460,,,
46461,7,98.484639,25.20998,马站乡,,530581,0875,530581201000,,,,,,,,,,2,100,1024,1471,4457,46461,,,
46462,7,98.577691,25.080015,北海乡,,530581,0875,530581202000,,,,,,,,,,2,100,1024,1471,4457,46462,,,
46463,7,98.461066,24.936583,清水乡,,530581,0875,530581203000,,,,,,,,,,2,100,1024,1471,4457,46463,,,
46464,7,98.667557,24.858681,五合乡,,530581,0875,530581204000,,,,,,,,,,2,100,1024,1471,4457,46464,,,
46465,7,98.482367,24.753464,新华乡,,530581,0875,530581205000,,,,,,,,,,2,100,1024,1471,4457,46465,,,
46466,7,98.570793,24.701887,蒲川乡,,530581,0875,530581206000,,,,,,,,,,2,100,1024,1471,4457,46466,,,
46467,7,98.647206,24.682117,团田乡,,530581,0875,530581207000,,,,,,,,,,2,100,1024,1471,4457,46467,,,
46468,7,103.706956,27.311126,凤凰街道,,530602,0870,530602001000,,,,,,,,,,2,100,1024,1472,4458,46468,,,
46469,7,103.719905,27.342237,龙泉街道,,530602,0870,530602002000,,,,,,,,,,2,100,1024,1472,4458,46469,,,
46470,7,103.737143,27.34198,太平街道,,530602,0870,530602003000,,,,,,,,,,2,100,1024,1472,4458,46470,,,
46471,7,103.661653,27.384239,旧圃镇,,530602,0870,530602101000,,,,,,,,,,2,100,1024,1472,4458,46471,,,
46472,7,103.669772,27.248366,永丰镇,,530602,0870,530602102000,,,,,,,,,,2,100,1024,1472,4458,46472,,,
46473,7,103.766335,27.417978,北闸镇,,530602,0870,530602103000,,,,,,,,,,2,100,1024,1472,4458,46473,,,
46474,7,103.706539,27.320075,盘河镇,,530602,0870,530602104000,,,,,,,,,,2,100,1024,1472,4458,46474,,,
46475,7,103.753571,27.550416,靖安镇,,530602,0870,530602105000,,,,,,,,,,2,100,1024,1472,4458,46475,,,
46476,7,103.621271,27.4466,洒渔镇,,530602,0870,530602106000,,,,,,,,,,2,100,1024,1472,4458,46476,,,
46477,7,103.59166,27.37266,乐居镇,,530602,0870,530602107000,,,,,,,,,,2,100,1024,1472,4458,46477,,,
46478,7,103.706539,27.320075,苏家院镇,,530602,0870,530602108000,,,,,,,,,,2,100,1024,1472,4458,46478,,,
46479,7,103.706539,27.320075,大山包镇,,530602,0870,530602109000,,,,,,,,,,2,100,1024,1472,4458,46479,,,
46480,7,103.706539,27.320075,炎山镇,,530602,0870,530602110000,,,,,,,,,,2,100,1024,1472,4458,46480,,,
46481,7,103.715078,27.207731,布嘎回族乡,,530602,0870,530602201000,,,,,,,,,,2,100,1024,1472,4458,46481,,,
46482,7,103.74936,27.260486,守望回族乡,,530602,0870,530602202000,,,,,,,,,,2,100,1024,1472,4458,46482,,,
46483,7,103.815362,27.342749,小龙洞回族彝族乡,,530602,0870,530602203000,,,,,,,,,,2,100,1024,1472,4458,46483,,,
46484,7,103.741796,27.522745,青岗岭回族彝族乡,,530602,0870,530602206000,,,,,,,,,,2,100,1024,1472,4458,46484,,,
46485,7,103.481166,27.49081,苏甲乡,,530602,0870,530602210000,,,,,,,,,,2,100,1024,1472,4458,46485,,,
46486,7,103.265276,27.516683,大寨子乡,,530602,0870,530602212000,,,,,,,,,,2,100,1024,1472,4458,46486,,,
46487,7,103.177476,27.424108,田坝乡,,530602,0870,530602214000,,,,,,,,,,2,100,1024,1472,4458,46487,,,
46488,7,103.54953,27.19338,文屏镇,,530621,0870,530621101000,,,,,,,,,,2,100,1024,1472,4459,46488,,,
46489,7,103.40475,27.235229,水磨镇,,530621,0870,530621102000,,,,,,,,,,2,100,1024,1472,4459,46489,,,
46490,7,103.38383,27.112069,龙头山镇,,530621,0870,530621103000,,,,,,,,,,2,100,1024,1472,4459,46490,,,
46491,7,103.48545,27.18472,小寨镇,,530621,0870,530621104000,,,,,,,,,,2,100,1024,1472,4459,46491,,,
46492,7,103.558042,27.186659,江底镇,,530621,0870,530621105000,,,,,,,,,,2,100,1024,1472,4459,46492,,,
46493,7,103.558042,27.186659,火德红镇,,530621,0870,530621106000,,,,,,,,,,2,100,1024,1472,4459,46493,,,
46494,7,103.558042,27.186659,龙树镇,,530621,0870,530621107000,,,,,,,,,,2,100,1024,1472,4459,46494,,,
46495,7,103.558042,27.186659,新街镇,,530621,0870,530621108000,,,,,,,,,,2,100,1024,1472,4459,46495,,,
46496,7,103.558042,27.186659,梭山镇,,530621,0870,530621109000,,,,,,,,,,2,100,1024,1472,4459,46496,,,
46497,7,103.558042,27.186659,乐红镇,,530621,0870,530621110000,,,,,,,,,,2,100,1024,1472,4459,46497,,,
46498,7,103.587933,27.155773,桃源回族乡,,530621,0870,530621201000,,,,,,,,,,2,100,1024,1472,4459,46498,,,
46499,7,103.602889,27.217584,茨院回族乡,,530621,0870,530621202000,,,,,,,,,,2,100,1024,1472,4459,46499,,,
46500,7,102.925047,26.912582,白鹤滩镇,,530622,0870,530622101000,,,,,,,,,,2,100,1024,1472,4460,46500,,,
46501,7,102.921541,27.225813,大寨镇,,530622,0870,530622102000,,,,,,,,,,2,100,1024,1472,4460,46501,,,
46502,7,103.194243,27.229912,小河镇,,530622,0870,530622103000,,,,,,,,,,2,100,1024,1472,4460,46502,,,
46503,7,103.039072,27.084518,药山镇,,530622,0870,530622104000,,,,,,,,,,2,100,1024,1472,4460,46503,,,
46504,7,103.244905,26.753545,马树镇,,530622,0870,530622105000,,,,,,,,,,2,100,1024,1472,4460,46504,,,
46505,7,103.27835,26.926302,老店镇,,530622,0870,530622106000,,,,,,,,,,2,100,1024,1472,4460,46505,,,
46506,7,102.982425,27.356807,茂租镇,,530622,0870,530622107000,,,,,,,,,,2,100,1024,1472,4460,46506,,,
46507,7,103.061481,27.318431,东坪镇,,530622,0870,530622108000,,,,,,,,,,2,100,1024,1472,4460,46507,,,
46508,7,103.25582,27.103331,新店镇,,530622,0870,530622109000,,,,,,,,,,2,100,1024,1472,4460,46508,,,
46509,7,103.134134,26.85774,崇溪镇,,530622,0870,530622110000,,,,,,,,,,2,100,1024,1472,4460,46509,,,
46510,7,102.993044,26.778537,金塘镇,,530622,0870,530622111000,,,,,,,,,,2,100,1024,1472,4460,46510,,,
46511,7,103.046428,26.569825,蒙姑镇,,530622,0870,530622112000,,,,,,,,,,2,100,1024,1472,4460,46511,,,
46512,7,103.146631,27.352607,红山乡,,530622,0870,530622203000,,,,,,,,,,2,100,1024,1472,4460,46512,,,
46513,7,103.351482,26.980971,包谷垴乡,,530622,0870,530622205000,,,,,,,,,,2,100,1024,1472,4460,46513,,,
46514,7,103.039311,26.93203,中寨乡,,530622,0870,530622206000,,,,,,,,,,2,100,1024,1472,4460,46514,,,
46515,7,103.17899,26.663609,炉房乡,,530622,0870,530622209000,,,,,,,,,,2,100,1024,1472,4460,46515,,,
46516,7,104.243387,28.071536,盐井镇,,530623,0870,530623101000,,,,,,,,,,2,100,1024,1472,4461,46516,,,
46517,7,104.164388,28.24249,普洱镇,,530623,0870,530623102000,,,,,,,,,,2,100,1024,1472,4461,46517,,,
46518,7,104.121886,28.035222,豆沙镇,,530623,0870,530623103000,,,,,,,,,,2,100,1024,1472,4461,46518,,,
46519,7,104.095194,28.156645,中和镇,,530623,0870,530623104000,,,,,,,,,,2,100,1024,1472,4461,46519,,,
46520,7,104.334755,27.955161,庙坝镇,,530623,0870,530623105000,,,,,,,,,,2,100,1024,1472,4461,46520,,,
46521,7,104.190617,27.979162,柿子镇,,530623,0870,530623106000,,,,,,,,,,2,100,1024,1472,4461,46521,,,
46522,7,104.384063,28.265707,兴隆乡,,530623,0870,530623201000,,,,,,,,,,2,100,1024,1472,4461,46522,,,
46523,7,104.258414,28.207344,落雁乡,,530623,0870,530623202000,,,,,,,,,,2,100,1024,1472,4461,46523,,,
46524,7,104.271621,28.32172,滩头乡,,530623,0870,530623203000,,,,,,,,,,2,100,1024,1472,4461,46524,,,
46525,7,104.371503,28.110772,牛寨乡,,530623,0870,530623204000,,,,,,,,,,2,100,1024,1472,4461,46525,,,
46526,7,103.893466,27.753827,翠华镇,,530624,0870,530624101000,,,,,,,,,,2,100,1024,1472,4462,46526,,,
46527,7,103.875876,27.670359,玉碗镇,,530624,0870,530624102000,,,,,,,,,,2,100,1024,1472,4462,46527,,,
46528,7,104.009031,28.007425,吉利镇,,530624,0870,530624103000,,,,,,,,,,2,100,1024,1472,4462,46528,,,
46529,7,103.984513,27.82596,天星镇,,530624,0870,530624104000,,,,,,,,,,2,100,1024,1472,4462,46529,,,
46530,7,103.972601,28.144185,木杆镇,,530624,0870,530624105000,,,,,,,,,,2,100,1024,1472,4462,46530,,,
46531,7,103.781784,27.821646,悦乐镇,,530624,0870,530624106000,,,,,,,,,,2,100,1024,1472,4462,46531,,,
46532,7,103.891146,27.747978,寿山镇,,530624,0870,530624107000,,,,,,,,,,2,100,1024,1472,4462,46532,,,
46533,7,103.891146,27.747978,高桥镇,,530624,0870,530624108000,,,,,,,,,,2,100,1024,1472,4462,46533,,,
46534,7,103.775082,27.644365,上高桥回族彝族苗族乡,,530624,0870,530624201000,,,,,,,,,,2,100,1024,1472,4462,46534,,,
46535,7,103.632009,28.232395,溪洛渡镇,,530625,0870,530625101000,,,,,,,,,,2,100,1024,1472,4463,46535,,,
46536,7,103.8817,28.32393,桧溪镇,,530625,0870,530625102000,,,,,,,,,,2,100,1024,1472,4463,46536,,,
46537,7,103.552387,27.991483,黄华镇,,530625,0870,530625103000,,,,,,,,,,2,100,1024,1472,4463,46537,,,
46538,7,103.592544,27.626569,茂林镇,,530625,0870,530625104000,,,,,,,,,,2,100,1024,1472,4463,46538,,,
46539,7,103.38254,27.7004,大兴镇,,530625,0870,530625105000,,,,,,,,,,2,100,1024,1472,4463,46539,,,
46540,7,103.593069,27.811191,莲峰镇,,530625,0870,530625106000,,,,,,,,,,2,100,1024,1472,4463,46540,,,
46541,7,103.638067,28.229113,务基镇,,530625,0870,530625107000,,,,,,,,,,2,100,1024,1472,4463,46541,,,
46542,7,103.303183,27.618442,码口镇,,530625,0870,530625108000,,,,,,,,,,2,100,1024,1472,4463,46542,,,
46543,7,103.850972,28.203953,团结乡,,530625,0870,530625201000,,,,,,,,,,2,100,1024,1472,4463,46543,,,
46544,7,103.981109,28.299617,细沙乡,,530625,0870,530625202000,,,,,,,,,,2,100,1024,1472,4463,46544,,,
46545,7,103.862428,28.426142,青胜乡,,530625,0870,530625203000,,,,,,,,,,2,100,1024,1472,4463,46545,,,
46546,7,103.63042,28.009589,马楠苗族彝族乡,,530625,0870,530625205000,,,,,,,,,,2,100,1024,1472,4463,46546,,,
46547,7,103.675348,27.941119,水竹乡,,530625,0870,530625206000,,,,,,,,,,2,100,1024,1472,4463,46547,,,
46548,7,103.737384,27.823393,墨翰乡,,530625,0870,530625207000,,,,,,,,,,2,100,1024,1472,4463,46548,,,
46549,7,103.523279,27.603092,伍寨彝族苗族乡,,530625,0870,530625208000,,,,,,,,,,2,100,1024,1472,4463,46549,,,
46550,7,103.979417,28.593978,中城镇,,530626,0870,530626101000,,,,,,,,,,2,100,1024,1472,4464,46550,,,
46551,7,103.866297,28.649635,南岸镇,,530626,0870,530626102000,,,,,,,,,,2,100,1024,1472,4464,46551,,,
46552,7,104.168009,28.633799,新滩镇,,530626,0870,530626103000,,,,,,,,,,2,100,1024,1472,4464,46552,,,
46553,7,103.968978,28.5921,会仪镇,,530626,0870,530626104000,,,,,,,,,,2,100,1024,1472,4464,46553,,,
46554,7,103.968978,28.5921,板栗镇,,530626,0870,530626105000,,,,,,,,,,2,100,1024,1472,4464,46554,,,
46555,7,104.873046,27.441235,乌峰街道,,530627,0870,530627001000,,,,,,,,,,2,100,1024,1472,4465,46555,,,
46556,7,104.872999,27.433628,南台街道,,530627,0870,530627002000,,,,,,,,,,2,100,1024,1472,4465,46556,,,
46557,7,104.873579,27.441668,旧府街道,,530627,0870,530627003000,,,,,,,,,,2,100,1024,1472,4465,46557,,,
46558,7,104.977138,27.407408,泼机镇,,530627,0870,530627102000,,,,,,,,,,2,100,1024,1472,4465,46558,,,
46559,7,105.216233,27.46317,黑树镇,,530627,0870,530627103000,,,,,,,,,,2,100,1024,1472,4465,46559,,,
46560,7,105.190509,27.562278,母享镇,,530627,0870,530627104000,,,,,,,,,,2,100,1024,1472,4465,46560,,,
46561,7,105.05425,27.67552,大湾镇,,530627,0870,530627105000,,,,,,,,,,2,100,1024,1472,4465,46561,,,
46562,7,105.143843,27.61542,以勒镇,,530627,0870,530627106000,,,,,,,,,,2,100,1024,1472,4465,46562,,,
46563,7,104.824522,27.499104,赤水源镇,,530627,0870,530627107000,,,,,,,,,,2,100,1024,1472,4465,46563,,,
46564,7,104.860264,27.618905,芒部镇,,530627,0870,530627108000,,,,,,,,,,2,100,1024,1472,4465,46564,,,
46565,7,104.847401,27.744354,雨河镇,,530627,0870,530627109000,,,,,,,,,,2,100,1024,1472,4465,46565,,,
46566,7,104.677306,27.728968,罗坎镇,,530627,0870,530627110000,,,,,,,,,,2,100,1024,1472,4465,46566,,,
46567,7,104.571123,27.508911,牛场镇,,530627,0870,530627111000,,,,,,,,,,2,100,1024,1472,4465,46567,,,
46568,7,104.732448,27.57218,五德镇,,530627,0870,530627112000,,,,,,,,,,2,100,1024,1472,4465,46568,,,
46569,7,105.244358,27.696847,坡头镇,,530627,0870,530627113000,,,,,,,,,,2,100,1024,1472,4465,46569,,,
46570,7,104.624386,27.386611,以古镇,,530627,0870,530627114000,,,,,,,,,,2,100,1024,1472,4465,46570,,,
46571,7,104.789316,27.407573,场坝镇,,530627,0870,530627115000,,,,,,,,,,2,100,1024,1472,4465,46571,,,
46572,7,104.958386,27.486683,塘房镇,,530627,0870,530627116000,,,,,,,,,,2,100,1024,1472,4465,46572,,,
46573,7,104.878497,27.346796,中屯镇,,530627,0870,530627117000,,,,,,,,,,2,100,1024,1472,4465,46573,,,
46574,7,104.820326,27.686611,木卓镇,,530627,0870,530627118000,,,,,,,,,,2,100,1024,1472,4465,46574,,,
46575,7,104.627731,27.630333,盐源镇,,530627,0870,530627119000,,,,,,,,,,2,100,1024,1472,4465,46575,,,
46576,7,104.509691,27.635224,碗厂镇,,530627,0870,530627120000,,,,,,,,,,2,100,1024,1472,4465,46576,,,
46577,7,104.657342,27.438095,坪上镇,,530627,0870,530627121000,,,,,,,,,,2,100,1024,1472,4465,46577,,,
46578,7,105.151959,27.455286,鱼洞乡,,530627,0870,530627202000,,,,,,,,,,2,100,1024,1472,4465,46578,,,
46579,7,105.105829,27.72062,花朗乡,,530627,0870,530627203000,,,,,,,,,,2,100,1024,1472,4465,46579,,,
46580,7,104.944123,27.599431,尖山乡,,530627,0870,530627204000,,,,,,,,,,2,100,1024,1472,4465,46580,,,
46581,7,104.441911,27.678829,杉树乡,,530627,0870,530627208000,,,,,,,,,,2,100,1024,1472,4465,46581,,,
46582,7,104.47031,27.497479,花山乡,,530627,0870,530627209000,,,,,,,,,,2,100,1024,1472,4465,46582,,,
46583,7,105.00305,27.613993,果珠彝族乡,,530627,0870,530627211000,,,,,,,,,,2,100,1024,1472,4465,46583,,,
46584,7,105.026445,27.507531,林口彝族苗族乡,,530627,0870,530627212000,,,,,,,,,,2,100,1024,1472,4465,46584,,,
46585,7,104.05112,27.628378,角奎镇,,530628,0870,530628101000,,,,,,,,,,2,100,1024,1472,4466,46585,,,
46586,7,104.004246,27.534466,洛泽河镇,,530628,0870,530628102000,,,,,,,,,,2,100,1024,1472,4466,46586,,,
46587,7,104.478669,27.849581,牛街镇,,530628,0870,530628103000,,,,,,,,,,2,100,1024,1472,4466,46587,,,
46588,7,104.261233,27.554027,海子镇,,530628,0870,530628104000,,,,,,,,,,2,100,1024,1472,4466,46588,,,
46589,7,104.206388,27.564003,荞山镇,,530628,0870,530628105000,,,,,,,,,,2,100,1024,1472,4466,46589,,,
46590,7,104.155236,27.719138,龙安镇,,530628,0870,530628106000,,,,,,,,,,2,100,1024,1472,4466,46590,,,
46591,7,104.062156,27.786209,钟鸣镇,,530628,0870,530628107000,,,,,,,,,,2,100,1024,1472,4466,46591,,,
46592,7,104.164877,27.820891,两河镇,,530628,0870,530628108000,,,,,,,,,,2,100,1024,1472,4466,46592,,,
46593,7,104.260276,27.768678,小草坝镇,,530628,0870,530628109000,,,,,,,,,,2,100,1024,1472,4466,46593,,,
46594,7,104.376059,27.769234,龙海镇,,530628,0870,530628110000,,,,,,,,,,2,100,1024,1472,4466,46594,,,
46595,7,104.125067,27.381527,龙街苗族彝族乡,,530628,0870,530628201000,,,,,,,,,,2,100,1024,1472,4466,46595,,,
46596,7,104.263162,27.373626,奎香苗族彝族乡,,530628,0870,530628202000,,,,,,,,,,2,100,1024,1472,4466,46596,,,
46597,7,104.346673,27.483812,树林彝族苗族乡,,530628,0870,530628203000,,,,,,,,,,2,100,1024,1472,4466,46597,,,
46598,7,104.527813,27.790235,柳溪苗族乡,,530628,0870,530628211000,,,,,,,,,,2,100,1024,1472,4466,46598,,,
46599,7,104.586381,27.767356,洛旺苗族乡,,530628,0870,530628212000,,,,,,,,,,2,100,1024,1472,4466,46599,,,
46600,7,105.048167,27.84037,扎西镇,,530629,0870,530629101000,,,,,,,,,,2,100,1024,1472,4467,46600,,,
46601,7,105.054304,28.023934,旧城镇,,530629,0870,530629102000,,,,,,,,,,2,100,1024,1472,4467,46601,,,
46602,7,105.050719,27.953356,罗布镇,,530629,0870,530629103000,,,,,,,,,,2,100,1024,1472,4467,46602,,,
46603,7,104.868408,27.854767,麟凤镇,,530629,0870,530629104000,,,,,,,,,,2,100,1024,1472,4467,46603,,,
46604,7,104.818828,27.839532,长安镇,,530629,0870,530629105000,,,,,,,,,,2,100,1024,1472,4467,46604,,,
46605,7,104.800301,27.801158,庙沟镇,,530629,0870,530629106000,,,,,,,,,,2,100,1024,1472,4467,46605,,,
46606,7,105.254589,27.757491,水田镇,,530629,0870,530629107000,,,,,,,,,,2,100,1024,1472,4467,46606,,,
46607,7,105.202122,27.86026,双河苗族彝族乡,,530629,0870,530629201000,,,,,,,,,,2,100,1024,1472,4467,46607,,,
46608,7,105.168391,27.943094,高田乡,,530629,0870,530629202000,,,,,,,,,,2,100,1024,1472,4467,46608,,,
46609,7,104.951719,27.907048,三桃乡,,530629,0870,530629207000,,,,,,,,,,2,100,1024,1472,4467,46609,,,
46610,7,104.416031,28.62988,云富街道,,530630,0870,530681001000,,,,,,,,,,2,100,1024,1472,4468,46610,,,
46611,7,104.423518,28.624841,向家坝镇,,530630,0870,530681101000,,,,,,,,,,2,100,1024,1472,4468,46611,,,
46612,7,104.228543,28.552156,太平镇,,530630,0870,530681102000,,,,,,,,,,2,100,1024,1472,4468,46612,,,
46613,7,104.263403,28.499941,两碗镇,,530630,0870,530681103000,,,,,,,,,,2,100,1024,1472,4468,46613,,,
46614,7,100.219853,26.872868,西安街道,,530702,0888,530702001000,,,,,,,,,,2,100,1024,1473,4469,46614,,,
46615,7,100.233716,26.866066,大研街道,,530702,0888,530702002000,,,,,,,,,,2,100,1024,1473,4469,46615,,,
46616,7,100.23117,26.86374,祥和街道,,530702,0888,530702003000,,,,,,,,,,2,100,1024,1473,4469,46616,,,
46617,7,100.202499,26.914316,束河街道,,530702,0888,530702004000,,,,,,,,,,2,100,1024,1473,4469,46617,,,
46618,7,100.225766,26.87719,金山街道,,530702,0888,530702005000,,,,,,,,,,2,100,1024,1473,4469,46618,,,
46619,7,100.225766,26.87719,开南街道,,530702,0888,530702006000,,,,,,,,,,2,100,1024,1473,4469,46619,,,
46620,7,100.225766,26.87719,文化街道,,530702,0888,530702007000,,,,,,,,,,2,100,1024,1473,4469,46620,,,
46621,7,100.365734,26.869793,金安镇,,530702,0888,530702101000,,,,,,,,,,2,100,1024,1473,4469,46621,,,
46622,7,100.272502,26.748149,七河镇,,530702,0888,530702102000,,,,,,,,,,2,100,1024,1473,4469,46622,,,
46623,7,100.393965,27.145901,大东乡,,530702,0888,530702203000,,,,,,,,,,2,100,1024,1473,4469,46623,,,
46624,7,100.355824,26.629607,金江白族乡,,530702,0888,530702205000,,,,,,,,,,2,100,1024,1473,4469,46624,,,
46625,7,100.215739,26.853966,黄山镇,,530721,0888,530721101000,,,,,,,,,,2,100,1024,1473,4470,46625,,,
46626,7,99.955558,26.864152,石鼓镇,,530721,0888,530721102000,,,,,,,,,,2,100,1024,1473,4470,46626,,,
46627,7,99.650983,27.296948,巨甸镇,,530721,0888,530721103000,,,,,,,,,,2,100,1024,1473,4470,46627,,,
46628,7,100.218429,26.953833,白沙镇,,530721,0888,530721104000,,,,,,,,,,2,100,1024,1473,4470,46628,,,
46629,7,100.148045,26.848517,拉市镇,,530721,0888,530721105000,,,,,,,,,,2,100,1024,1473,4470,46629,,,
46630,7,100.236955,26.82146,奉科镇,,530721,0888,530721106000,,,,,,,,,,2,100,1024,1473,4470,46630,,,
46631,7,100.236955,26.82146,鸣音镇,,530721,0888,530721107000,,,,,,,,,,2,100,1024,1473,4470,46631,,,
46632,7,100.083998,26.778904,太安乡,,530721,0888,530721203000,,,,,,,,,,2,100,1024,1473,4470,46632,,,
46633,7,100.071404,27.092262,龙蟠乡,,530721,0888,530721204000,,,,,,,,,,2,100,1024,1473,4470,46633,,,
46634,7,100.236955,26.82146,黎明傈僳族乡,,530721,0888,530721205000,,,,,,,,,,2,100,1024,1473,4470,46634,,,
46635,7,99.461061,27.189866,鲁甸乡,,530721,0888,530721206000,,,,,,,,,,2,100,1024,1473,4470,46635,,,
46636,7,99.562404,27.48097,塔城乡,,530721,0888,530721207000,,,,,,,,,,2,100,1024,1473,4470,46636,,,
46637,7,100.250923,27.299398,大具乡,,530721,0888,530721208000,,,,,,,,,,2,100,1024,1473,4470,46637,,,
46638,7,100.409911,27.418264,宝山乡,,530721,0888,530721209000,,,,,,,,,,2,100,1024,1473,4470,46638,,,
46639,7,99.846637,26.796068,石头白族乡,,530721,0888,530721212000,,,,,,,,,,2,100,1024,1473,4470,46639,,,
46640,7,99.992997,26.76252,九河白族乡,,530721,0888,530721213000,,,,,,,,,,2,100,1024,1473,4470,46640,,,
46641,7,100.74742,26.686113,永北镇,,530722,0888,530722101000,,,,,,,,,,2,100,1024,1473,4471,46641,,,
46642,7,101.020503,26.465571,仁和镇,,530722,0888,530722102000,,,,,,,,,,2,100,1024,1473,4471,46642,,,
46643,7,100.626243,26.305764,期纳镇,,530722,0888,530722103000,,,,,,,,,,2,100,1024,1473,4471,46643,,,
46644,7,100.660654,26.746109,三川镇,,530722,0888,530722104000,,,,,,,,,,2,100,1024,1473,4471,46644,,,
46645,7,100.679799,26.458503,程海镇,,530722,0888,530722105000,,,,,,,,,,2,100,1024,1473,4471,46645,,,
46646,7,100.55906,26.220368,涛源镇,,530722,0888,530722106000,,,,,,,,,,2,100,1024,1473,4471,46646,,,
46647,7,100.760366,26.21221,鲁地拉镇,,530722,0888,530722107000,,,,,,,,,,2,100,1024,1473,4471,46647,,,
46648,7,100.583654,26.006417,片角镇,,530722,0888,530722108000,,,,,,,,,,2,100,1024,1473,4471,46648,,,
46649,7,100.561208,26.619191,顺州镇,,530722,0888,530722109000,,,,,,,,,,2,100,1024,1473,4471,46649,,,
46650,7,100.815603,26.73468,羊坪彝族乡,,530722,0888,530722201000,,,,,,,,,,2,100,1024,1473,4471,46650,,,
46651,7,100.847003,26.551878,六德傈僳族彝族乡,,530722,0888,530722202000,,,,,,,,,,2,100,1024,1473,4471,46651,,,
46652,7,100.895458,26.354591,东山傈僳族彝族乡,,530722,0888,530722203000,,,,,,,,,,2,100,1024,1473,4471,46652,,,
46653,7,100.62062,26.852632,光华傈僳族彝族乡,,530722,0888,530722207000,,,,,,,,,,2,100,1024,1473,4471,46653,,,
46654,7,100.750795,26.684225,松坪傈僳族彝族乡,,530722,0888,530722208000,,,,,,,,,,2,100,1024,1473,4471,46654,,,
46655,7,100.492071,26.752792,大安彝族纳西族乡,,530722,0888,530722209000,,,,,,,,,,2,100,1024,1473,4471,46655,,,
46656,7,101.263785,26.627226,中心镇,,530723,0888,530723101000,,,,,,,,,,2,100,1024,1473,4472,46656,,,
46657,7,101.277259,26.573786,荣将镇,,530723,0888,530723102000,,,,,,,,,,2,100,1024,1473,4472,46657,,,
46658,7,101.430197,26.610892,兴泉镇,,530723,0888,530723103000,,,,,,,,,,2,100,1024,1473,4472,46658,,,
46659,7,101.266195,26.629211,石龙坝镇,,530723,0888,530723104000,,,,,,,,,,2,100,1024,1473,4472,46659,,,
46660,7,101.193259,26.582103,新庄傈僳族傣族乡,,530723,0888,530723202000,,,,,,,,,,2,100,1024,1473,4472,46660,,,
46661,7,101.058131,26.610986,通达傈僳族乡,,530723,0888,530723203000,,,,,,,,,,2,100,1024,1473,4472,46661,,,
46662,7,101.224145,26.840604,永兴傈僳族乡,,530723,0888,530723204000,,,,,,,,,,2,100,1024,1473,4472,46662,,,
46663,7,101.32509,26.828826,船房傈僳族傣族乡,,530723,0888,530723205000,,,,,,,,,,2,100,1024,1473,4472,46663,,,
46664,7,100.851018,27.277699,大兴镇,,530724,0888,530724101000,,,,,,,,,,2,100,1024,1473,4473,46664,,,
46665,7,100.852001,27.282071,永宁镇,,530724,0888,530724102000,,,,,,,,,,2,100,1024,1473,4473,46665,,,
46666,7,100.852001,27.282071,红桥镇,,530724,0888,530724103000,,,,,,,,,,2,100,1024,1473,4473,46666,,,
46667,7,100.916755,26.856147,战河镇,,530724,0888,530724104000,,,,,,,,,,2,100,1024,1473,4473,46667,,,
46668,7,100.446992,27.743789,拉伯乡,,530724,0888,530724201000,,,,,,,,,,2,100,1024,1473,4473,46668,,,
46669,7,100.666908,27.449048,翠玉傈僳族普米族乡,,530724,0888,530724203000,,,,,,,,,,2,100,1024,1473,4473,46669,,,
46670,7,100.757655,27.248033,宁利乡,,530724,0888,530724205000,,,,,,,,,,2,100,1024,1473,4473,46670,,,
46671,7,100.607419,27.180959,金棉乡,,530724,0888,530724206000,,,,,,,,,,2,100,1024,1473,4473,46671,,,
46672,7,100.663931,27.064115,西川乡,,530724,0888,530724207000,,,,,,,,,,2,100,1024,1473,4473,46672,,,
46673,7,100.790506,27.000759,西布河乡,,530724,0888,530724208000,,,,,,,,,,2,100,1024,1473,4473,46673,,,
46674,7,101.005005,26.700926,永宁坪乡,,530724,0888,530724210000,,,,,,,,,,2,100,1024,1473,4473,46674,,,
46675,7,100.981774,26.992656,跑马坪乡,,530724,0888,530724211000,,,,,,,,,,2,100,1024,1473,4473,46675,,,
46676,7,101.174098,26.97657,蝉战河乡,,530724,0888,530724212000,,,,,,,,,,2,100,1024,1473,4473,46676,,,
46677,7,100.920813,27.164921,新营盘乡,,530724,0888,530724213000,,,,,,,,,,2,100,1024,1473,4473,46677,,,
46678,7,100.981249,27.220126,烂泥箐乡,,530724,0888,530724214000,,,,,,,,,,2,100,1024,1473,4473,46678,,,
46679,7,100.974511,22.785299,思茅镇,,530802,0879,530802101000,,,,,,,,,,2,100,1024,1474,4474,46679,,,
46680,7,100.960558,22.761376,南屏镇,,530802,0879,530802102000,,,,,,,,,,2,100,1024,1474,4474,46680,,,
46681,7,101.049756,22.742164,倚象镇,,530802,0879,530802103000,,,,,,,,,,2,100,1024,1474,4474,46681,,,
46682,7,100.585929,22.498605,思茅港镇,,530802,0879,530802104000,,,,,,,,,,2,100,1024,1474,4474,46682,,,
46683,7,100.977165,22.78691,六顺镇,,530802,0879,530802105000,,,,,,,,,,2,100,1024,1474,4474,46683,,,
46684,7,100.664134,22.681355,龙潭彝族傣族乡,,530802,0879,530802201000,,,,,,,,,,2,100,1024,1474,4474,46684,,,
46685,7,100.697921,22.93965,云仙彝族乡,,530802,0879,530802202000,,,,,,,,,,2,100,1024,1474,4474,46685,,,
46686,7,101.061463,23.075681,宁洱镇,,530821,0879,530821101000,,,,,,,,,,2,100,1024,1474,4475,46686,,,
46687,7,101.162991,23.159145,磨黑镇,,530821,0879,530821102000,,,,,,,,,,2,100,1024,1474,4475,46687,,,
46688,7,100.883373,23.001516,德化镇,,530821,0879,530821103000,,,,,,,,,,2,100,1024,1474,4475,46688,,,
46689,7,101.066415,22.962452,同心镇,,530821,0879,530821104000,,,,,,,,,,2,100,1024,1474,4475,46689,,,
46690,7,101.210935,23.042876,勐先镇,,530821,0879,530821105000,,,,,,,,,,2,100,1024,1474,4475,46690,,,
46691,7,101.167615,23.518945,梅子镇,,530821,0879,530821106000,,,,,,,,,,2,100,1024,1474,4475,46691,,,
46692,7,101.193915,23.420536,德安乡,,530821,0879,530821201000,,,,,,,,,,2,100,1024,1474,4475,46692,,,
46693,7,101.343384,23.019508,普义乡,,530821,0879,530821205000,,,,,,,,,,2,100,1024,1474,4475,46693,,,
46694,7,101.46534,22.778825,黎明乡,,530821,0879,530821206000,,,,,,,,,,2,100,1024,1474,4475,46694,,,
46695,7,101.684188,23.423754,联珠镇,,530822,0879,530822101000,,,,,,,,,,2,100,1024,1474,4476,46695,,,
46696,7,101.381807,23.29263,通关镇,,530822,0879,530822102000,,,,,,,,,,2,100,1024,1474,4476,46696,,,
46697,7,101.802571,23.357138,龙坝镇,,530822,0879,530822103000,,,,,,,,,,2,100,1024,1474,4476,46697,,,
46698,7,101.692461,23.431894,新安镇,,530822,0879,530822104000,,,,,,,,,,2,100,1024,1474,4476,46698,,,
46699,7,101.692461,23.431894,团田镇,,530822,0879,530822105000,,,,,,,,,,2,100,1024,1474,4476,46699,,,
46700,7,101.692461,23.431894,新抚镇,,530822,0879,530822106000,,,,,,,,,,2,100,1024,1474,4476,46700,,,
46701,7,101.692461,23.431894,景星镇,,530822,0879,530822107000,,,,,,,,,,2,100,1024,1474,4476,46701,,,
46702,7,101.692461,23.431894,鱼塘镇,,530822,0879,530822108000,,,,,,,,,,2,100,1024,1474,4476,46702,,,
46703,7,101.692461,23.431894,文武镇,,530822,0879,530822109000,,,,,,,,,,2,100,1024,1474,4476,46703,,,
46704,7,101.692461,23.431894,坝溜镇,,530822,0879,530822110000,,,,,,,,,,2,100,1024,1474,4476,46704,,,
46705,7,101.752916,23.119516,泗南江镇,,530822,0879,530822111000,,,,,,,,,,2,100,1024,1474,4476,46705,,,
46706,7,101.692461,23.431894,雅邑镇,,530822,0879,530822112000,,,,,,,,,,2,100,1024,1474,4476,46706,,,
46707,7,101.526346,23.665156,孟弄彝族乡,,530822,0879,530822203000,,,,,,,,,,2,100,1024,1474,4476,46707,,,
46708,7,101.59727,23.08743,龙潭乡,,530822,0879,530822208000,,,,,,,,,,2,100,1024,1474,4476,46708,,,
46709,7,101.84508,23.141356,那哈乡,,530822,0879,530822212000,,,,,,,,,,2,100,1024,1474,4476,46709,,,
46710,7,100.833499,24.450614,锦屏镇,,530823,0879,530823101000,,,,,,,,,,2,100,1024,1474,4477,46710,,,
46711,7,100.93077,24.299569,文井镇,,530823,0879,530823102000,,,,,,,,,,2,100,1024,1474,4477,46711,,,
46712,7,100.486752,24.637733,漫湾镇,,530823,0879,530823103000,,,,,,,,,,2,100,1024,1474,4477,46712,,,
46713,7,100.58516,24.159124,大朝山东镇,,530823,0879,530823104000,,,,,,,,,,2,100,1024,1474,4477,46713,,,
46714,7,100.833877,24.446731,花山镇,,530823,0879,530823105000,,,,,,,,,,2,100,1024,1474,4477,46714,,,
46715,7,100.833877,24.446731,大街镇,,530823,0879,530823106000,,,,,,,,,,2,100,1024,1474,4477,46715,,,
46716,7,100.833877,24.446731,太忠镇,,530823,0879,530823107000,,,,,,,,,,2,100,1024,1474,4477,46716,,,
46717,7,100.833877,24.446731,文龙镇,,530823,0879,530823108000,,,,,,,,,,2,100,1024,1474,4477,46717,,,
46718,7,100.833877,24.446731,安定镇,,530823,0879,530823109000,,,,,,,,,,2,100,1024,1474,4477,46718,,,
46719,7,100.833877,24.446731,景福镇,,530823,0879,530823110000,,,,,,,,,,2,100,1024,1474,4477,46719,,,
46720,7,100.543485,24.287466,曼等乡,,530823,0879,530823201000,,,,,,,,,,2,100,1024,1474,4477,46720,,,
46721,7,100.877027,24.612914,龙街乡,,530823,0879,530823205000,,,,,,,,,,2,100,1024,1474,4477,46721,,,
46722,7,100.58022,24.454785,林街乡,,530823,0879,530823208000,,,,,,,,,,2,100,1024,1474,4477,46722,,,
46723,7,100.712916,23.481406,威远镇,,530824,0879,530824101000,,,,,,,,,,2,100,1024,1474,4478,46723,,,
46724,7,100.397662,23.414541,永平镇,,530824,0879,530824102000,,,,,,,,,,2,100,1024,1474,4478,46724,,,
46725,7,100.965384,23.329015,正兴镇,,530824,0879,530824103000,,,,,,,,,,2,100,1024,1474,4478,46725,,,
46726,7,100.491164,23.691274,民乐镇,,530824,0879,530824104000,,,,,,,,,,2,100,1024,1474,4478,46726,,,
46727,7,100.795509,23.674685,凤山镇,,530824,0879,530824105000,,,,,,,,,,2,100,1024,1474,4478,46727,,,
46728,7,100.622175,23.734609,景谷镇,,530824,0879,530824106000,,,,,,,,,,2,100,1024,1474,4478,46728,,,
46729,7,100.438899,23.069318,碧安乡,,530824,0879,530824201000,,,,,,,,,,2,100,1024,1474,4478,46729,,,
46730,7,100.588768,23.205929,益智乡,,530824,0879,530824204000,,,,,,,,,,2,100,1024,1474,4478,46730,,,
46731,7,100.192001,23.21482,半坡乡,,530824,0879,530824205000,,,,,,,,,,2,100,1024,1474,4478,46731,,,
46732,7,100.35642,23.105956,勐班乡,,530824,0879,530824206000,,,,,,,,,,2,100,1024,1474,4478,46732,,,
46733,7,101.107055,24.005374,恩乐镇,,530825,0879,530825101000,,,,,,,,,,2,100,1024,1474,4479,46733,,,
46734,7,100.890264,23.859154,按板镇,,530825,0879,530825102000,,,,,,,,,,2,100,1024,1474,4479,46734,,,
46735,7,100.811926,24.039486,勐大镇,,530825,0879,530825103000,,,,,,,,,,2,100,1024,1474,4479,46735,,,
46736,7,101.289393,23.995031,者东镇,,530825,0879,530825104000,,,,,,,,,,2,100,1024,1474,4479,46736,,,
46737,7,101.229288,24.192506,九甲镇,,530825,0879,530825105000,,,,,,,,,,2,100,1024,1474,4479,46737,,,
46738,7,101.108595,24.004442,古城镇,,530825,0879,530825106000,,,,,,,,,,2,100,1024,1474,4479,46738,,,
46739,7,101.108595,24.004442,振太镇,,530825,0879,530825107000,,,,,,,,,,2,100,1024,1474,4479,46739,,,
46740,7,101.108595,24.004442,和平镇,,530825,0879,530825108000,,,,,,,,,,2,100,1024,1474,4479,46740,,,
46741,7,100.971592,23.694137,田坝乡,,530825,0879,530825201000,,,,,,,,,,2,100,1024,1474,4479,46741,,,
46742,7,101.867342,22.580058,勐烈镇,,530826,0879,530826101000,,,,,,,,,,2,100,1024,1474,4480,46742,,,
46743,7,101.50774,22.48203,整董镇,,530826,0879,530826102000,,,,,,,,,,2,100,1024,1474,4480,46743,,,
46744,7,101.86212,22.585868,曲水镇,,530826,0879,530826103000,,,,,,,,,,2,100,1024,1474,4480,46744,,,
46745,7,101.86212,22.585868,宝藏镇,,530826,0879,530826104000,,,,,,,,,,2,100,1024,1474,4480,46745,,,
46746,7,101.456733,22.599566,康平镇,,530826,0879,530826105000,,,,,,,,,,2,100,1024,1474,4480,46746,,,
46747,7,101.86994,22.634629,国庆乡,,530826,0879,530826202000,,,,,,,,,,2,100,1024,1474,4480,46747,,,
46748,7,101.880368,22.761956,嘉禾乡,,530826,0879,530826203000,,,,,,,,,,2,100,1024,1474,4480,46748,,,
46749,7,99.576742,22.32511,娜允镇,,530827,0879,530827101000,,,,,,,,,,2,100,1024,1474,4481,46749,,,
46750,7,99.378422,22.229207,勐马镇,,530827,0879,530827102000,,,,,,,,,,2,100,1024,1474,4481,46750,,,
46751,7,99.581992,22.160089,芒信镇,,530827,0879,530827103000,,,,,,,,,,2,100,1024,1474,4481,46751,,,
46752,7,99.584157,22.3291,富岩镇,,530827,0879,530827104000,,,,,,,,,,2,100,1024,1474,4481,46752,,,
46753,7,99.669687,22.451178,景信乡,,530827,0879,530827201000,,,,,,,,,,2,100,1024,1474,4481,46753,,,
46754,7,99.31915,22.3058,公信乡,,530827,0879,530827202000,,,,,,,,,,2,100,1024,1474,4481,46754,,,
46755,7,99.934532,22.555311,勐朗镇,,530828,0879,530828101000,,,,,,,,,,2,100,1024,1474,4482,46755,,,
46756,7,99.834463,23.041922,上允镇,,530828,0879,530828102000,,,,,,,,,,2,100,1024,1474,4482,46756,,,
46757,7,100.270524,22.578085,糯扎渡镇,,530828,0879,530828103000,,,,,,,,,,2,100,1024,1474,4482,46757,,,
46758,7,99.931975,22.555905,惠民镇,,530828,0879,530828104000,,,,,,,,,,2,100,1024,1474,4482,46758,,,
46759,7,99.931975,22.555905,东回镇,,530828,0879,530828105000,,,,,,,,,,2,100,1024,1474,4482,46759,,,
46760,7,100.17376,22.33112,发展河哈尼族乡,,530828,0879,530828201000,,,,,,,,,,2,100,1024,1474,4482,46760,,,
46761,7,100.180535,22.892902,谦六彝族乡,,530828,0879,530828202000,,,,,,,,,,2,100,1024,1474,4482,46761,,,
46762,7,99.701767,22.219245,糯福乡,,530828,0879,530828203000,,,,,,,,,,2,100,1024,1474,4482,46762,,,
46763,7,100.068902,22.92221,东河乡,,530828,0879,530828204000,,,,,,,,,,2,100,1024,1474,4482,46763,,,
46764,7,100.113391,23.002369,大山乡,,530828,0879,530828205000,,,,,,,,,,2,100,1024,1474,4482,46764,,,
46765,7,99.99595,22.708548,南岭乡,,530828,0879,530828206000,,,,,,,,,,2,100,1024,1474,4482,46765,,,
46766,7,99.558116,23.022208,雪林佤族乡,,530828,0879,530828207000,,,,,,,,,,2,100,1024,1474,4482,46766,,,
46767,7,99.636179,22.986993,木戛乡,,530828,0879,530828208000,,,,,,,,,,2,100,1024,1474,4482,46767,,,
46768,7,99.975836,22.445527,酒井哈尼族乡,,530828,0879,530828209000,,,,,,,,,,2,100,1024,1474,4482,46768,,,
46769,7,99.635997,22.50738,拉巴乡,,530828,0879,530828212000,,,,,,,,,,2,100,1024,1474,4482,46769,,,
46770,7,99.804039,22.709298,竹塘乡,,530828,0879,530828213000,,,,,,,,,,2,100,1024,1474,4482,46770,,,
46771,7,99.801957,22.902392,富邦乡,,530828,0879,530828214000,,,,,,,,,,2,100,1024,1474,4482,46771,,,
46772,7,99.745359,23.180518,安康佤族乡,,530828,0879,530828215000,,,,,,,,,,2,100,1024,1474,4482,46772,,,
46773,7,99.897635,23.170399,文东佤族乡,,530828,0879,530828216000,,,,,,,,,,2,100,1024,1474,4482,46773,,,
46774,7,99.999051,23.122337,富东乡,,530828,0879,530828217000,,,,,,,,,,2,100,1024,1474,4482,46774,,,
46775,7,99.611691,22.635319,勐梭镇,,530829,0879,530829101000,,,,,,,,,,2,100,1024,1474,4483,46775,,,
46776,7,99.455683,22.731786,勐卡镇,,530829,0879,530829102000,,,,,,,,,,2,100,1024,1474,4483,46776,,,
46777,7,99.46659,22.515661,翁嘎科镇,,530829,0879,530829103000,,,,,,,,,,2,100,1024,1474,4483,46777,,,
46778,7,99.614724,22.799386,中课镇,,530829,0879,530829104000,,,,,,,,,,2,100,1024,1474,4483,46778,,,
46779,7,99.476037,22.853416,新厂镇,,530829,0879,530829105000,,,,,,,,,,2,100,1024,1474,4483,46779,,,
46780,7,99.45985,22.649353,力所拉祜族乡,,530829,0879,530829202000,,,,,,,,,,2,100,1024,1474,4483,46780,,,
46781,7,99.383321,22.72407,岳宋乡,,530829,0879,530829203000,,,,,,,,,,2,100,1024,1474,4483,46781,,,
46782,7,100.089134,23.889131,凤翔街道,,530902,0883,530902001000,,,,,,,,,,2,100,1024,1475,4484,46782,,,
46783,7,100.1045,23.91126,忙畔街道,,530902,0883,530902002000,,,,,,,,,,2,100,1024,1475,4484,46783,,,
46784,7,100.055758,23.720771,博尚镇,,530902,0883,530902102000,,,,,,,,,,2,100,1024,1475,4484,46784,,,
46785,7,100.082523,23.895137,南美拉祜族乡,,530902,0883,530902202000,,,,,,,,,,2,100,1024,1475,4484,46785,,,
46786,7,100.067983,24.087492,蚂蚁堆乡,,530902,0883,530902203000,,,,,,,,,,2,100,1024,1475,4484,46786,,,
46787,7,99.948843,23.971845,章驮乡,,530902,0883,530902204000,,,,,,,,,,2,100,1024,1475,4484,46787,,,
46788,7,100.105178,23.629028,圈内乡,,530902,0883,530902206000,,,,,,,,,,2,100,1024,1475,4484,46788,,,
46789,7,100.27237,23.790384,马台乡,,530902,0883,530902207000,,,,,,,,,,2,100,1024,1475,4484,46789,,,
46790,7,100.3475,23.92103,邦东乡,,530902,0883,530902208000,,,,,,,,,,2,100,1024,1475,4484,46790,,,
46791,7,100.329881,23.657412,平村彝族傣族乡,,530902,0883,530902209000,,,,,,,,,,2,100,1024,1475,4484,46791,,,
46792,7,99.924043,24.584439,凤山镇,,530921,0883,530921101000,,,,,,,,,,2,100,1024,1475,4485,46792,,,
46793,7,100.001435,24.842351,鲁史镇,,530921,0883,530921102000,,,,,,,,,,2,100,1024,1475,4485,46793,,,
46794,7,100.077444,24.675945,小湾镇,,530921,0883,530921103000,,,,,,,,,,2,100,1024,1475,4485,46794,,,
46795,7,99.67212,24.375604,营盘镇,,530921,0883,530921104000,,,,,,,,,,2,100,1024,1475,4485,46795,,,
46796,7,99.86844,24.427866,三岔河镇,,530921,0883,530921105000,,,,,,,,,,2,100,1024,1475,4485,46796,,,
46797,7,99.776921,24.615366,勐佑镇,,530921,0883,530921106000,,,,,,,,,,2,100,1024,1475,4485,46797,,,
46798,7,99.938293,24.342818,雪山镇,,530921,0883,530921107000,,,,,,,,,,2,100,1024,1475,4485,46798,,,
46799,7,100.022956,24.529033,洛党镇,,530921,0883,530921108000,,,,,,,,,,2,100,1024,1475,4485,46799,,,
46800,7,99.95025,24.913861,诗礼乡,,530921,0883,530921201000,,,,,,,,,,2,100,1024,1475,4485,46800,,,
46801,7,100.076886,24.869261,新华彝族苗族乡,,530921,0883,530921202000,,,,,,,,,,2,100,1024,1475,4485,46801,,,
46802,7,99.87983,24.70151,大寺乡,,530921,0883,530921204000,,,,,,,,,,2,100,1024,1475,4485,46802,,,
46803,7,100.19029,24.665611,腰街彝族乡,,530921,0883,530921206000,,,,,,,,,,2,100,1024,1475,4485,46803,,,
46804,7,99.77255,24.305413,郭大寨彝族白族乡,,530921,0883,530921207000,,,,,,,,,,2,100,1024,1475,4485,46804,,,
46805,7,100.128861,24.448456,爱华镇,,530922,0883,530922101000,,,,,,,,,,2,100,1024,1475,4486,46805,,,
46806,7,100.47032,24.5908,漫湾镇,,530922,0883,530922102000,,,,,,,,,,2,100,1024,1475,4486,46806,,,
46807,7,100.322861,24.024915,大朝山西镇,,530922,0883,530922103000,,,,,,,,,,2,100,1024,1475,4486,46807,,,
46808,7,100.31405,24.2735,涌宝镇,,530922,0883,530922104000,,,,,,,,,,2,100,1024,1475,4486,46808,,,
46809,7,100.241007,24.568287,茂兰镇,,530922,0883,530922105000,,,,,,,,,,2,100,1024,1475,4486,46809,,,
46810,7,99.952633,24.145389,幸福镇,,530922,0883,530922106000,,,,,,,,,,2,100,1024,1475,4486,46810,,,
46811,7,100.275044,24.103631,大寨镇,,530922,0883,530922107000,,,,,,,,,,2,100,1024,1475,4486,46811,,,
46812,7,100.123248,24.437061,忙怀彝族布朗族乡,,530922,0883,530922201000,,,,,,,,,,2,100,1024,1475,4486,46812,,,
46813,7,100.242283,24.377427,晓街乡,,530922,0883,530922202000,,,,,,,,,,2,100,1024,1475,4486,46813,,,
46814,7,100.186679,24.237245,茶房乡,,530922,0883,530922203000,,,,,,,,,,2,100,1024,1475,4486,46814,,,
46815,7,100.46765,24.20857,栗树彝族傣族乡,,530922,0883,530922204000,,,,,,,,,,2,100,1024,1475,4486,46815,,,
46816,7,100.460924,24.339739,后箐彝族乡,,530922,0883,530922205000,,,,,,,,,,2,100,1024,1475,4486,46816,,,
46817,7,100.123248,24.437061,幸福农场,,530922,0883,530922501000,,,,,,,,,,2,100,1024,1475,4486,46817,,,
46818,7,100.148835,24.466249,新城农场,,530922,0883,530922502000,,,,,,,,,,2,100,1024,1475,4486,46818,,,
46819,7,99.254033,24.027972,德党镇,,530923,0883,530923101000,,,,,,,,,,2,100,1024,1475,4487,46819,,,
46820,7,99.287645,24.204391,小勐统镇,,530923,0883,530923102000,,,,,,,,,,2,100,1024,1475,4487,46820,,,
46821,7,99.385694,24.110047,永康镇,,530923,0883,530923103000,,,,,,,,,,2,100,1024,1475,4487,46821,,,
46822,7,99.148077,24.085058,勐板乡,,530923,0883,530923203000,,,,,,,,,,2,100,1024,1475,4487,46822,,,
46823,7,99.569415,24.231529,亚练乡,,530923,0883,530923204000,,,,,,,,,,2,100,1024,1475,4487,46823,,,
46824,7,99.703865,24.196969,乌木龙彝族乡,,530923,0883,530923205000,,,,,,,,,,2,100,1024,1475,4487,46824,,,
46825,7,99.741894,24.023981,大雪山彝族拉祜族傣族乡,,530923,0883,530923206000,,,,,,,,,,2,100,1024,1475,4487,46825,,,
46826,7,99.480457,24.016622,班卡乡,,530923,0883,530923207000,,,,,,,,,,2,100,1024,1475,4487,46826,,,
46827,7,99.490141,23.835849,崇岗乡,,530923,0883,530923208000,,,,,,,,,,2,100,1024,1475,4487,46827,,,
46828,7,99.383585,23.94199,大山乡,,530923,0883,530923209000,,,,,,,,,,2,100,1024,1475,4487,46828,,,
46829,7,99.4696,24.199621,勐底农场,,530923,0883,530923401000,,,,,,,,,,2,100,1024,1475,4487,46829,,,
46830,7,99.025761,23.883573,凤尾镇,,530924,0883,530924101000,,,,,,,,,,2,100,1024,1475,4488,46830,,,
46831,7,98.97408,24.05997,勐捧镇,,530924,0883,530924102000,,,,,,,,,,2,100,1024,1475,4488,46831,,,
46832,7,98.825866,23.775769,南伞镇,,530924,0883,530924103000,,,,,,,,,,2,100,1024,1475,4488,46832,,,
46833,7,99.156915,23.936045,忙丙乡,,530924,0883,530924201000,,,,,,,,,,2,100,1024,1475,4488,46833,,,
46834,7,98.892426,23.915703,勐堆乡,,530924,0883,530924202000,,,,,,,,,,2,100,1024,1475,4488,46834,,,
46835,7,99.15536,23.7497,木场乡,,530924,0883,530924204000,,,,,,,,,,2,100,1024,1475,4488,46835,,,
46836,7,98.825285,23.762584,军赛佤族拉祜族傈僳族德昂族乡,,530924,0883,530924205000,,,,,,,,,,2,100,1024,1475,4488,46836,,,
46837,7,99.831108,23.472152,勐勐镇,,530925,0883,530925101000,,,,,,,,,,2,100,1024,1475,4489,46837,,,
46838,7,99.884251,23.61621,勐库镇,,530925,0883,530925102000,,,,,,,,,,2,100,1024,1475,4489,46838,,,
46839,7,99.811846,23.489807,沙河乡,,530925,0883,530925201000,,,,,,,,,,2,100,1024,1475,4489,46839,,,
46840,7,99.998511,23.342462,大文乡,,530925,0883,530925202000,,,,,,,,,,2,100,1024,1475,4489,46840,,,
46841,7,100.022782,23.419102,忙糯乡,,530925,0883,530925203000,,,,,,,,,,2,100,1024,1475,4489,46841,,,
46842,7,99.849036,23.254757,邦丙乡,,530925,0883,530925205000,,,,,,,,,,2,100,1024,1475,4489,46842,,,
46843,7,99.402874,23.538821,耿马镇,,530926,0883,530926100000,,,,,,,,,,2,100,1024,1475,4490,46843,,,
46844,7,99.765763,23.947154,勐永镇,,530926,0883,530926101000,,,,,,,,,,2,100,1024,1475,4490,46844,,,
46845,7,99.601992,23.756353,勐撒镇,,530926,0883,530926102000,,,,,,,,,,2,100,1024,1475,4490,46845,,,
46846,7,99.081995,23.55404,孟定镇,,530926,0883,530926103000,,,,,,,,,,2,100,1024,1475,4490,46846,,,
46847,7,99.806795,23.795422,大兴乡,,530926,0883,530926200000,,,,,,,,,,2,100,1024,1475,4490,46847,,,
46848,7,99.397127,23.538092,芒洪拉祜族布朗族乡,,530926,0883,530926201000,,,,,,,,,,2,100,1024,1475,4490,46848,,,
46849,7,99.57047,23.456654,四排山乡,,530926,0883,530926202000,,,,,,,,,,2,100,1024,1475,4490,46849,,,
46850,7,99.367735,23.478511,贺派乡,,530926,0883,530926203000,,,,,,,,,,2,100,1024,1475,4490,46850,,,
46851,7,99.337393,23.717098,勐简乡,,530926,0883,530926204000,,,,,,,,,,2,100,1024,1475,4490,46851,,,
46852,7,99.44242,23.587519,耿马华侨农场,,530926,0883,530926401000,,,,,,,,,,2,100,1024,1475,4490,46852,,,
46853,7,99.64076,23.79886,勐撒农场,,530926,0883,530926402000,,,,,,,,,,2,100,1024,1475,4490,46853,,,
46854,7,99.173545,23.615797,孟定农场,,530926,0883,530926403000,,,,,,,,,,2,100,1024,1475,4490,46854,,,
46855,7,99.25825,23.141359,勐董镇,,530927,0883,530927101000,,,,,,,,,,2,100,1024,1475,4491,46855,,,
46856,7,99.594111,23.22682,岩帅镇,,530927,0883,530927102000,,,,,,,,,,2,100,1024,1475,4491,46856,,,
46857,7,99.422096,23.344299,勐省镇,,530927,0883,530927103000,,,,,,,,,,2,100,1024,1475,4491,46857,,,
46858,7,98.911168,23.49015,芒卡镇,,530927,0883,530927104000,,,,,,,,,,2,100,1024,1475,4491,46858,,,
46859,7,99.411124,23.19582,单甲乡,,530927,0883,530927202000,,,,,,,,,,2,100,1024,1475,4491,46859,,,
46860,7,99.331683,23.234402,糯良乡,,530927,0883,530927203000,,,,,,,,,,2,100,1024,1475,4491,46860,,,
46861,7,99.291106,23.262783,勐来乡,,530927,0883,530927204000,,,,,,,,,,2,100,1024,1475,4491,46861,,,
46862,7,99.246197,23.146712,勐角傣族彝族拉祜族乡,,530927,0883,530927205000,,,,,,,,,,2,100,1024,1475,4491,46862,,,
46863,7,99.098682,23.290171,班洪乡,,530927,0883,530927206000,,,,,,,,,,2,100,1024,1475,4491,46863,,,
46864,7,98.93399,23.248909,班老乡,,530927,0883,530927207000,,,,,,,,,,2,100,1024,1475,4491,46864,,,
46865,7,99.431144,23.342686,勐省农场,,530927,0883,530927401000,,,,,,,,,,2,100,1024,1475,4491,46865,,,
46866,7,101.566839,25.033632,鹿城镇,,532301,0878,532301101000,,,,,,,,,,2,100,1024,1476,4492,46866,,,
46867,7,101.51055,25.07307,东瓜镇,,532301,0878,532301102000,,,,,,,,,,2,100,1024,1476,4492,46867,,,
46868,7,101.375197,25.142721,吕合镇,,532301,0878,532301103000,,,,,,,,,,2,100,1024,1476,4492,46868,,,
46869,7,101.457041,25.085896,紫溪镇,,532301,0878,532301104000,,,,,,,,,,2,100,1024,1476,4492,46869,,,
46870,7,101.492995,24.943023,东华镇,,532301,0878,532301105000,,,,,,,,,,2,100,1024,1476,4492,46870,,,
46871,7,101.53511,24.888619,子午镇,,532301,0878,532301106000,,,,,,,,,,2,100,1024,1476,4492,46871,,,
46872,7,101.678305,25.048274,苍岭镇,,532301,0878,532301107000,,,,,,,,,,2,100,1024,1476,4492,46872,,,
46873,7,101.052273,25.004357,三街镇,,532301,0878,532301108000,,,,,,,,,,2,100,1024,1476,4492,46873,,,
46874,7,100.954452,24.862175,八角镇,,532301,0878,532301109000,,,,,,,,,,2,100,1024,1476,4492,46874,,,
46875,7,101.097907,24.89776,中山镇,,532301,0878,532301110000,,,,,,,,,,2,100,1024,1476,4492,46875,,,
46876,7,101.228952,24.670059,新村镇,,532301,0878,532301111000,,,,,,,,,,2,100,1024,1476,4492,46876,,,
46877,7,101.076752,24.6674,西舍路镇,,532301,0878,532301112000,,,,,,,,,,2,100,1024,1476,4492,46877,,,
46878,7,100.938747,24.994394,树苴乡,,532301,0878,532301201000,,,,,,,,,,2,100,1024,1476,4492,46878,,,
46879,7,101.155352,24.877301,大过口乡,,532301,0878,532301202000,,,,,,,,,,2,100,1024,1476,4492,46879,,,
46880,7,101.361564,24.691054,大地基乡,,532301,0878,532301203000,,,,,,,,,,2,100,1024,1476,4492,46880,,,
46881,7,101.639698,24.687475,妥甸镇,,532322,0878,532322101000,,,,,,,,,,2,100,1024,1476,4493,46881,,,
46882,7,101.836342,24.731258,大庄镇,,532322,0878,532322102000,,,,,,,,,,2,100,1024,1476,4493,46882,,,
46883,7,101.848523,24.600005,法脿镇,,532322,0878,532322103000,,,,,,,,,,2,100,1024,1476,4493,46883,,,
46884,7,101.24818,24.452402,鄂嘉镇,,532322,0878,532322104000,,,,,,,,,,2,100,1024,1476,4493,46884,,,
46885,7,101.641937,24.688875,大麦地镇,,532322,0878,532322105000,,,,,,,,,,2,100,1024,1476,4493,46885,,,
46886,7,101.957827,24.41202,安龙堡乡,,532322,0878,532322201000,,,,,,,,,,2,100,1024,1476,4493,46886,,,
46887,7,101.561596,24.489875,爱尼山乡,,532322,0878,532322202000,,,,,,,,,,2,100,1024,1476,4493,46887,,,
46888,7,101.467198,24.551896,独田乡,,532322,0878,532322203000,,,,,,,,,,2,100,1024,1476,4493,46888,,,
46889,7,101.547236,25.305826,共和镇,,532323,0878,532323101000,,,,,,,,,,2,100,1024,1476,4494,46889,,,
46890,7,101.595938,25.364183,新桥镇,,532323,0878,532323102000,,,,,,,,,,2,100,1024,1476,4494,46890,,,
46891,7,101.623874,25.265217,江坡镇,,532323,0878,532323103000,,,,,,,,,,2,100,1024,1476,4494,46891,,,
46892,7,101.459774,25.250766,凤屯镇,,532323,0878,532323104000,,,,,,,,,,2,100,1024,1476,4494,46892,,,
46893,7,101.55532,25.488567,蟠猫乡,,532323,0878,532323201000,,,,,,,,,,2,100,1024,1476,4494,46893,,,
46894,7,101.673518,25.576695,戌街乡,,532323,0878,532323202000,,,,,,,,,,2,100,1024,1476,4494,46894,,,
46895,7,101.674281,25.470381,安乐乡,,532323,0878,532323203000,,,,,,,,,,2,100,1024,1476,4494,46895,,,
46896,7,101.277758,25.191421,龙川镇,,532324,0878,532324101000,,,,,,,,,,2,100,1024,1476,4495,46896,,,
46897,7,101.145225,25.238571,沙桥镇,,532324,0878,532324102000,,,,,,,,,,2,100,1024,1476,4495,46897,,,
46898,7,101.012448,25.159804,五街镇,,532324,0878,532324103000,,,,,,,,,,2,100,1024,1476,4495,46898,,,
46899,7,100.824349,25.033495,红土坡镇,,532324,0878,532324104000,,,,,,,,,,2,100,1024,1476,4495,46899,,,
46900,7,100.851267,24.886788,马街镇,,532324,0878,532324105000,,,,,,,,,,2,100,1024,1476,4495,46900,,,
46901,7,100.79651,24.798903,兔街镇,,532324,0878,532324106000,,,,,,,,,,2,100,1024,1476,4495,46901,,,
46902,7,101.280245,25.09408,雨露白族乡,,532324,0878,532324201000,,,,,,,,,,2,100,1024,1476,4495,46902,,,
46903,7,100.888014,25.154854,一街乡,,532324,0878,532324202000,,,,,,,,,,2,100,1024,1476,4495,46903,,,
46904,7,100.767585,25.113353,罗武庄乡,,532324,0878,532324203000,,,,,,,,,,2,100,1024,1476,4495,46904,,,
46905,7,100.805428,24.971667,五顶山乡,,532324,0878,532324204000,,,,,,,,,,2,100,1024,1476,4495,46905,,,
46906,7,101.237125,25.505625,栋川镇,,532325,0878,532325101000,,,,,,,,,,2,100,1024,1476,4496,46906,,,
46907,7,101.202361,25.583385,光禄镇,,532325,0878,532325102000,,,,,,,,,,2,100,1024,1476,4496,46907,,,
46908,7,101.375931,25.522294,前场镇,,532325,0878,532325103000,,,,,,,,,,2,100,1024,1476,4496,46908,,,
46909,7,101.155481,25.403618,弥兴镇,,532325,0878,532325104000,,,,,,,,,,2,100,1024,1476,4496,46909,,,
46910,7,101.238226,25.394565,太平镇,,532325,0878,532325105000,,,,,,,,,,2,100,1024,1476,4496,46910,,,
46911,7,101.241728,25.504173,官屯镇,,532325,0878,532325106000,,,,,,,,,,2,100,1024,1476,4496,46911,,,
46912,7,101.504384,25.564408,适中乡,,532325,0878,532325201000,,,,,,,,,,2,100,1024,1476,4496,46912,,,
46913,7,101.066036,25.641971,左门乡,,532325,0878,532325202000,,,,,,,,,,2,100,1024,1476,4496,46913,,,
46914,7,101.0257,25.455773,大河口乡,,532325,0878,532325204000,,,,,,,,,,2,100,1024,1476,4496,46914,,,
46915,7,101.325509,25.732674,金碧镇,,532326,0878,532326101000,,,,,,,,,,2,100,1024,1476,4497,46915,,,
46916,7,101.101211,25.84712,石羊镇,,532326,0878,532326102000,,,,,,,,,,2,100,1024,1476,4497,46916,,,
46917,7,101.354207,25.903188,六苴镇,,532326,0878,532326103000,,,,,,,,,,2,100,1024,1476,4497,46917,,,
46918,7,101.5433,25.665439,龙街镇,,532326,0878,532326104000,,,,,,,,,,2,100,1024,1476,4497,46918,,,
46919,7,101.255555,25.804761,新街镇,,532326,0878,532326105000,,,,,,,,,,2,100,1024,1476,4497,46919,,,
46920,7,101.491711,25.81789,赵家店镇,,532326,0878,532326106000,,,,,,,,,,2,100,1024,1476,4497,46920,,,
46921,7,101.001045,25.884197,三岔河镇,,532326,0878,532326107000,,,,,,,,,,2,100,1024,1476,4497,46921,,,
46922,7,101.286391,26.082923,桂花镇,,532326,0878,532326108000,,,,,,,,,,2,100,1024,1476,4497,46922,,,
46923,7,101.227473,25.951614,昙华乡,,532326,0878,532326204000,,,,,,,,,,2,100,1024,1476,4497,46923,,,
46924,7,101.189364,26.353745,湾碧傣族傈僳族乡,,532326,0878,532326206000,,,,,,,,,,2,100,1024,1476,4497,46924,,,
46925,7,100.953511,26.114025,铁锁乡,,532326,0878,532326207000,,,,,,,,,,2,100,1024,1476,4497,46925,,,
46926,7,101.079666,26.008964,三台乡,,532326,0878,532326208000,,,,,,,,,,2,100,1024,1476,4497,46926,,,
46927,7,101.677523,26.048476,永定镇,,532327,0878,532327101000,,,,,,,,,,2,100,1024,1476,4498,46927,,,
46928,7,101.545579,25.980873,宜就镇,,532327,0878,532327102000,,,,,,,,,,2,100,1024,1476,4498,46928,,,
46929,7,101.407075,26.153198,中和镇,,532327,0878,532327103000,,,,,,,,,,2,100,1024,1476,4498,46929,,,
46930,7,101.656914,26.020214,莲池乡,,532327,0878,532327201000,,,,,,,,,,2,100,1024,1476,4498,46930,,,
46931,7,101.637582,26.143215,维的乡,,532327,0878,532327202000,,,,,,,,,,2,100,1024,1476,4498,46931,,,
46932,7,101.570368,26.085597,猛虎乡,,532327,0878,532327203000,,,,,,,,,,2,100,1024,1476,4498,46932,,,
46933,7,101.530823,26.343716,永兴傣族乡,,532327,0878,532327204000,,,,,,,,,,2,100,1024,1476,4498,46933,,,
46934,7,101.86931,25.698769,元马镇,,532328,0878,532328101000,,,,,,,,,,2,100,1024,1476,4499,46934,,,
46935,7,101.863024,25.816903,黄瓜园镇,,532328,0878,532328103000,,,,,,,,,,2,100,1024,1476,4499,46935,,,
46936,7,101.929061,25.501077,羊街镇,,532328,0878,532328104000,,,,,,,,,,2,100,1024,1476,4499,46936,,,
46937,7,101.893099,25.619726,老城乡,,532328,0878,532328202000,,,,,,,,,,2,100,1024,1476,4499,46937,,,
46938,7,101.790515,25.869174,物茂乡,,532328,0878,532328203000,,,,,,,,,,2,100,1024,1476,4499,46938,,,
46939,7,101.882907,25.955691,江边乡,,532328,0878,532328204000,,,,,,,,,,2,100,1024,1476,4499,46939,,,
46940,7,101.67123,25.714042,新华乡,,532328,0878,532328205000,,,,,,,,,,2,100,1024,1476,4499,46940,,,
46941,7,101.775014,25.751999,平田乡,,532328,0878,532328206000,,,,,,,,,,2,100,1024,1476,4499,46941,,,
46942,7,101.963679,25.736351,凉山乡,,532328,0878,532328209000,,,,,,,,,,2,100,1024,1476,4499,46942,,,
46943,7,101.909543,26.06855,姜驿乡,,532328,0878,532328210000,,,,,,,,,,2,100,1024,1476,4499,46943,,,
46944,7,102.401434,25.53816,狮山镇,,532329,0878,532329101000,,,,,,,,,,2,100,1024,1476,4500,46944,,,
46945,7,102.192146,25.603956,高桥镇,,532329,0878,532329102000,,,,,,,,,,2,100,1024,1476,4500,46945,,,
46946,7,102.148673,25.523357,猫街镇,,532329,0878,532329103000,,,,,,,,,,2,100,1024,1476,4500,46946,,,
46947,7,102.290043,25.649109,插甸镇,,532329,0878,532329104000,,,,,,,,,,2,100,1024,1476,4500,46947,,,
46948,7,102.053742,25.653075,白路镇,,532329,0878,532329105000,,,,,,,,,,2,100,1024,1476,4500,46948,,,
46949,7,102.173215,25.999597,万德镇,,532329,0878,532329106000,,,,,,,,,,2,100,1024,1476,4500,46949,,,
46950,7,102.256233,26.097679,己衣镇,,532329,0878,532329107000,,,,,,,,,,2,100,1024,1476,4500,46950,,,
46951,7,102.19175,25.81784,田心乡,,532329,0878,532329202000,,,,,,,,,,2,100,1024,1476,4500,46951,,,
46952,7,102.287039,25.881651,发窝乡,,532329,0878,532329203000,,,,,,,,,,2,100,1024,1476,4500,46952,,,
46953,7,101.987121,25.866584,环州乡,,532329,0878,532329207000,,,,,,,,,,2,100,1024,1476,4500,46953,,,
46954,7,102.084542,25.901165,东坡傣族乡,,532329,0878,532329208000,,,,,,,,,,2,100,1024,1476,4500,46954,,,
46955,7,102.066105,25.137265,金山镇,,532331,0878,532331101000,,,,,,,,,,2,100,1024,1476,4501,46955,,,
46956,7,102.300163,25.38247,仁兴镇,,532331,0878,532331102000,,,,,,,,,,2,100,1024,1476,4501,46956,,,
46957,7,102.301817,25.306065,碧城镇,,532331,0878,532331103000,,,,,,,,,,2,100,1024,1476,4501,46957,,,
46958,7,102.298218,25.177378,勤丰镇,,532331,0878,532331104000,,,,,,,,,,2,100,1024,1476,4501,46958,,,
46959,7,101.91111,25.187328,一平浪镇,,532331,0878,532331105000,,,,,,,,,,2,100,1024,1476,4501,46959,,,
46960,7,101.749623,25.166218,广通镇,,532331,0878,532331106000,,,,,,,,,,2,100,1024,1476,4501,46960,,,
46961,7,101.745879,25.369903,黑井镇,,532331,0878,532331107000,,,,,,,,,,2,100,1024,1476,4501,46961,,,
46962,7,102.197424,24.95039,土官镇,,532331,0878,532331108000,,,,,,,,,,2,100,1024,1476,4501,46962,,,
46963,7,101.868593,25.003674,彩云镇,,532331,0878,532331109000,,,,,,,,,,2,100,1024,1476,4501,46963,,,
46964,7,102.198316,25.203709,和平镇,,532331,0878,532331110000,,,,,,,,,,2,100,1024,1476,4501,46964,,,
46965,7,102.04714,24.899001,恐龙山镇,,532331,0878,532331111000,,,,,,,,,,2,100,1024,1476,4501,46965,,,
46966,7,102.063624,25.246042,中村乡,,532331,0878,532331201000,,,,,,,,,,2,100,1024,1476,4501,46966,,,
46967,7,101.860471,25.33465,高峰乡,,532331,0878,532331203000,,,,,,,,,,2,100,1024,1476,4501,46967,,,
46968,7,101.719763,25.314631,妥安乡,,532331,0878,532331204000,,,,,,,,,,2,100,1024,1476,4501,46968,,,
46969,7,103.157827,23.352802,城区街道,,532501,0873,532501001000,,,,,,,,,,2,100,1024,1477,4502,46969,,,
46970,7,103.152481,23.351959,锡城镇,,532501,0873,532501101000,,,,,,,,,,2,100,1024,1477,4502,46970,,,
46971,7,103.237163,23.527116,沙甸镇,,532501,0873,532501102000,,,,,,,,,,2,100,1024,1477,4502,46971,,,
46972,7,103.221561,23.513728,鸡街镇,,532501,0873,532501103000,,,,,,,,,,2,100,1024,1477,4502,46972,,,
46973,7,103.27645,23.411654,大屯镇,,532501,0873,532501104000,,,,,,,,,,2,100,1024,1477,4502,46973,,,
46974,7,103.207881,23.295745,老厂镇,,532501,0873,532501106000,,,,,,,,,,2,100,1024,1477,4502,46974,,,
46975,7,103.147006,23.254639,卡房镇,,532501,0873,532501107000,,,,,,,,,,2,100,1024,1477,4502,46975,,,
46976,7,103.348248,23.019485,蔓耗镇,,532501,0873,532501108000,,,,,,,,,,2,100,1024,1477,4502,46976,,,
46977,7,103.056003,23.341755,贾沙乡,,532501,0873,532501202000,,,,,,,,,,2,100,1024,1477,4502,46977,,,
46978,7,103.046893,23.24479,保和乡,,532501,0873,532501203000,,,,,,,,,,2,100,1024,1477,4502,46978,,,
46979,7,103.26268,23.708628,乐白道街道,,532502,0873,532502001000,,,,,,,,,,2,100,1024,1477,4503,46979,,,
46980,7,103.248924,23.705222,灵泉街道,,532502,0873,532502002000,,,,,,,,,,2,100,1024,1477,4503,46980,,,
46981,7,103.616875,23.76655,中和营镇,,532502,0873,532502101000,,,,,,,,,,2,100,1024,1477,4503,46981,,,
46982,7,103.162087,23.785839,小龙潭镇,,532502,0873,532502102000,,,,,,,,,,2,100,1024,1477,4503,46982,,,
46983,7,103.375492,23.60201,大庄回族乡,,532502,0873,532502201000,,,,,,,,,,2,100,1024,1477,4503,46983,,,
46984,7,103.358962,23.574726,羊街乡,,532502,0873,532502202000,,,,,,,,,,2,100,1024,1477,4503,46984,,,
46985,7,103.577214,23.678787,碑格乡,,532502,0873,532502203000,,,,,,,,,,2,100,1024,1477,4503,46985,,,
46986,7,103.385882,23.363505,文澜街道,,532503,0873,532503001000,,,,,,,,,,2,100,1024,1477,4504,46986,,,
46987,7,103.319453,23.461269,雨过铺街道,,532503,0873,532503002000,,,,,,,,,,2,100,1024,1477,4504,46987,,,
46988,7,103.404205,23.514352,草坝镇,,532503,0873,532503102000,,,,,,,,,,2,100,1024,1477,4504,46988,,,
46989,7,103.436692,23.32307,新安所镇,,532503,0873,532503104000,,,,,,,,,,2,100,1024,1477,4504,46989,,,
46990,7,103.53778,23.346489,芷村镇,,532503,0873,532503105000,,,,,,,,,,2,100,1024,1477,4504,46990,,,
46991,7,103.649671,23.447861,鸣鹫镇,,532503,0873,532503106000,,,,,,,,,,2,100,1024,1477,4504,46991,,,
46992,7,103.381924,23.208387,冷泉镇,,532503,0873,532503107000,,,,,,,,,,2,100,1024,1477,4504,46992,,,
46993,7,103.525504,23.196672,期路白苗族乡,,532503,0873,532503201000,,,,,,,,,,2,100,1024,1477,4504,46993,,,
46994,7,103.786805,23.397,老寨苗族乡,,532503,0873,532503202000,,,,,,,,,,2,100,1024,1477,4504,46994,,,
46995,7,103.382376,23.132917,水田乡,,532503,0873,532503203000,,,,,,,,,,2,100,1024,1477,4504,46995,,,
46996,7,103.471332,23.481343,西北勒乡,,532503,0873,532503204000,,,,,,,,,,2,100,1024,1477,4504,46996,,,
46997,7,103.442971,24.421066,弥阳镇,,532504,0873,532504101000,,,,,,,,,,2,100,1024,1477,4505,46997,,,
46998,7,103.451951,24.246769,新哨镇,,532504,0873,532504102000,,,,,,,,,,2,100,1024,1477,4505,46998,,,
46999,7,103.321475,24.151431,虹溪镇,,532504,0873,532504103000,,,,,,,,,,2,100,1024,1477,4505,46999,,,
47000,7,103.411183,24.111937,竹园镇,,532504,0873,532504104000,,,,,,,,,,2,100,1024,1477,4505,47000,,,
47001,7,103.414874,24.411912,朋普镇,,532504,0873,532504105000,,,,,,,,,,2,100,1024,1477,4505,47001,,,
47002,7,103.18542,23.96007,巡检司镇,,532504,0873,532504106000,,,,,,,,,,2,100,1024,1477,4505,47002,,,
47003,7,103.276675,24.462776,西一镇,,532504,0873,532504107000,,,,,,,,,,2,100,1024,1477,4505,47003,,,
47004,7,103.179035,24.421847,西二镇,,532504,0873,532504108000,,,,,,,,,,2,100,1024,1477,4505,47004,,,
47005,7,103.418167,24.49705,西三镇,,532504,0873,532504109000,,,,,,,,,,2,100,1024,1477,4505,47005,,,
47006,7,103.643336,24.256315,东山镇,,532504,0873,532504110000,,,,,,,,,,2,100,1024,1477,4505,47006,,,
47007,7,103.207314,24.168793,五山乡,,532504,0873,532504202000,,,,,,,,,,2,100,1024,1477,4505,47007,,,
47008,7,103.608659,24.018956,江边乡,,532504,0873,532504203000,,,,,,,,,,2,100,1024,1477,4505,47008,,,
47009,7,103.684429,22.986369,玉屏镇,,532523,0873,532523101000,,,,,,,,,,2,100,1024,1477,4506,47009,,,
47010,7,103.550198,23.138827,新现镇,,532523,0873,532523102000,,,,,,,,,,2,100,1024,1477,4506,47010,,,
47011,7,103.792023,23.254531,和平镇,,532523,0873,532523103000,,,,,,,,,,2,100,1024,1477,4506,47011,,,
47012,7,103.687612,22.98356,白河镇,,532523,0873,532523104000,,,,,,,,,,2,100,1024,1477,4506,47012,,,
47013,7,103.802113,23.162427,白云乡,,532523,0873,532523204000,,,,,,,,,,2,100,1024,1477,4506,47013,,,
47014,7,103.695614,23.256795,新华乡,,532523,0873,532523205000,,,,,,,,,,2,100,1024,1477,4506,47014,,,
47015,7,103.743487,23.098797,湾塘乡,,532523,0873,532523206000,,,,,,,,,,2,100,1024,1477,4506,47015,,,
47016,7,102.802775,23.624768,临安镇,,532524,0873,532524101000,,,,,,,,,,2,100,1024,1477,4507,47016,,,
47017,7,102.722944,23.402151,官厅镇,,532524,0873,532524102000,,,,,,,,,,2,100,1024,1477,4507,47017,,,
47018,7,102.766747,23.645298,西庄镇,,532524,0873,532524103000,,,,,,,,,,2,100,1024,1477,4507,47018,,,
47019,7,102.748975,23.554079,青龙镇,,532524,0873,532524104000,,,,,,,,,,2,100,1024,1477,4507,47019,,,
47020,7,102.82451,23.718309,南庄镇,,532524,0873,532524105000,,,,,,,,,,2,100,1024,1477,4507,47020,,,
47021,7,103.044255,23.867738,岔科镇,,532524,0873,532524106000,,,,,,,,,,2,100,1024,1477,4507,47021,,,
47022,7,102.794601,23.963916,曲江镇,,532524,0873,532524107000,,,,,,,,,,2,100,1024,1477,4507,47022,,,
47023,7,103.014005,23.633739,面甸镇,,532524,0873,532524108000,,,,,,,,,,2,100,1024,1477,4507,47023,,,
47024,7,103.037042,23.504339,普雄乡,,532524,0873,532524201000,,,,,,,,,,2,100,1024,1477,4507,47024,,,
47025,7,102.84593,23.830173,李浩寨乡,,532524,0873,532524202000,,,,,,,,,,2,100,1024,1477,4507,47025,,,
47026,7,102.853832,23.370565,坡头乡,,532524,0873,532524203000,,,,,,,,,,2,100,1024,1477,4507,47026,,,
47027,7,103.131771,24.014947,盘江乡,,532524,0873,532524204000,,,,,,,,,,2,100,1024,1477,4507,47027,,,
47028,7,102.968389,23.945147,利民乡,,532524,0873,532524205000,,,,,,,,,,2,100,1024,1477,4507,47028,,,
47029,7,102.714511,23.766597,甸尾乡,,532524,0873,532524206000,,,,,,,,,,2,100,1024,1477,4507,47029,,,
47030,7,102.497233,23.705437,异龙镇,,532525,0873,532525101000,,,,,,,,,,2,100,1024,1477,4508,47030,,,
47031,7,102.414686,23.756909,宝秀镇,,532525,0873,532525102000,,,,,,,,,,2,100,1024,1477,4508,47031,,,
47032,7,102.633911,23.649899,坝心镇,,532525,0873,532525103000,,,,,,,,,,2,100,1024,1477,4508,47032,,,
47033,7,102.572995,23.882959,龙朋镇,,532525,0873,532525104000,,,,,,,,,,2,100,1024,1477,4508,47033,,,
47034,7,102.40402,24.001844,龙武镇,,532525,0873,532525105000,,,,,,,,,,2,100,1024,1477,4508,47034,,,
47035,7,102.496721,23.974528,哨冲镇,,532525,0873,532525106000,,,,,,,,,,2,100,1024,1477,4508,47035,,,
47036,7,102.442624,23.445363,牛街镇,,532525,0873,532525107000,,,,,,,,,,2,100,1024,1477,4508,47036,,,
47037,7,102.535742,23.803481,新城乡,,532525,0873,532525201000,,,,,,,,,,2,100,1024,1477,4508,47037,,,
47038,7,102.359227,23.853686,大桥乡,,532525,0873,532525202000,,,,,,,,,,2,100,1024,1477,4508,47038,,,
47039,7,103.75881,24.555735,中枢镇,,532527,0873,532527101000,,,,,,,,,,2,100,1024,1477,4509,47039,,,
47040,7,103.7481,24.634829,金马镇,,532527,0873,532527102000,,,,,,,,,,2,100,1024,1477,4509,47040,,,
47041,7,103.671692,24.625725,旧城镇,,532527,0873,532527104000,,,,,,,,,,2,100,1024,1477,4509,47041,,,
47042,7,103.594215,24.519074,午街铺镇,,532527,0873,532527106000,,,,,,,,,,2,100,1024,1477,4509,47042,,,
47043,7,103.859967,24.637204,白水镇,,532527,0873,532527107000,,,,,,,,,,2,100,1024,1477,4509,47043,,,
47044,7,103.893035,24.490504,向阳乡,,532527,0873,532527201000,,,,,,,,,,2,100,1024,1477,4509,47044,,,
47045,7,103.842936,24.419673,三塘乡,,532527,0873,532527202000,,,,,,,,,,2,100,1024,1477,4509,47045,,,
47046,7,103.690002,24.372396,永宁乡,,532527,0873,532527203000,,,,,,,,,,2,100,1024,1477,4509,47046,,,
47047,7,102.825512,23.225261,南沙镇,,532528,0873,532528101000,,,,,,,,,,2,100,1024,1477,4510,47047,,,
47048,7,102.746171,23.153469,新街镇,,532528,0873,532528102000,,,,,,,,,,2,100,1024,1477,4510,47048,,,
