gcid,levelid,longitude,latitude,chinese_name,english_name,code1,code2,code3,code4,code5,alias1,alias2,alias3,alias4,alias5,area,population,continentid,countryid,provinceid,cityid,countyid,townid,villageid,buildingid,comments
22045,7,120.158768,30.23765,清波街道,,330102,0571,330102001000,,,,,,,,,,2,100,1010,1287,2874,22045,,,
22046,7,120.170441,30.255597,湖滨街道,,330102,0571,330102003000,,,,,,,,,,2,100,1010,1287,2874,22046,,,
22047,7,120.176654,30.23965,小营街道,,330102,0571,330102004000,,,,,,,,,,2,100,1010,1287,2874,22047,,,
22048,7,120.162473,30.207356,南星街道,,330102,0571,330102008000,,,,,,,,,,2,100,1010,1287,2874,22048,,,
22049,7,120.176449,30.219172,紫阳街道,,330102,0571,330102009000,,,,,,,,,,2,100,1010,1287,2874,22049,,,
22050,7,120.198455,30.235373,望江街道,,330102,0571,330102010000,,,,,,,,,,2,100,1010,1287,2874,22050,,,
22051,7,120.173981,30.260506,长庆街道,,330103,0571,330103001000,,,,,,,,,,2,100,1010,1287,2875,22051,,,
22052,7,120.167789,30.262603,武林街道,,330103,0571,330103002000,,,,,,,,,,2,100,1010,1287,2875,22052,,,
22053,7,120.162429,30.267276,天水街道,,330103,0571,330103003000,,,,,,,,,,2,100,1010,1287,2875,22053,,,
22054,7,120.181551,30.260662,潮鸣街道,,330103,0571,330103005000,,,,,,,,,,2,100,1010,1287,2875,22054,,,
22055,7,120.159817,30.290087,朝晖街道,,330103,0571,330103006000,,,,,,,,,,2,100,1010,1287,2875,22055,,,
22056,7,120.178881,30.278254,文晖街道,,330103,0571,330103007000,,,,,,,,,,2,100,1010,1287,2875,22056,,,
22057,7,120.171575,30.31085,东新街道,,330103,0571,330103008000,,,,,,,,,,2,100,1010,1287,2875,22057,,,
22058,7,120.184936,30.339178,石桥街道,,330103,0571,330103009000,,,,,,,,,,2,100,1010,1287,2875,22058,,,
22059,7,120.2039,30.267714,凯旋街道,,330104,0571,330104005000,,,,,,,,,,2,100,1010,1287,2876,22059,,,
22060,7,120.198381,30.255539,采荷街道,,330104,0571,330104006000,,,,,,,,,,2,100,1010,1287,2876,22060,,,
22061,7,120.191093,30.289037,闸弄口街道,,330104,0571,330104007000,,,,,,,,,,2,100,1010,1287,2876,22061,,,
22062,7,120.203109,30.2523,四季青街道,,330104,0571,330104008000,,,,,,,,,,2,100,1010,1287,2876,22062,,,
22063,7,120.35112,30.306501,白杨街道,,330104,0571,330104009000,,,,,,,,,,2,100,1010,1287,2876,22063,,,
22064,7,120.32487,30.302039,下沙街道,,330104,0571,330104010000,,,,,,,,,,2,100,1010,1287,2876,22064,,,
22065,7,120.218777,30.278392,彭埠街道,,330104,0571,330104011000,,,,,,,,,,2,100,1010,1287,2876,22065,,,
22066,7,120.218735,30.315732,笕桥街道,,330104,0571,330104012000,,,,,,,,,,2,100,1010,1287,2876,22066,,,
22067,7,120.218084,30.357987,丁兰街道,,330104,0571,330104013000,,,,,,,,,,2,100,1010,1287,2876,22067,,,
22068,7,120.272351,30.310801,九堡街道,,330104,0571,330104014000,,,,,,,,,,2,100,1010,1287,2876,22068,,,
22069,7,120.150321,30.286473,米市巷街道,,330105,0571,330105001000,,,,,,,,,,2,100,1010,1287,2877,22069,,,
22070,7,120.145267,30.293368,湖墅街道,,330105,0571,330105002000,,,,,,,,,,2,100,1010,1287,2877,22070,,,
22071,7,120.13218,30.305749,小河街道,,330105,0571,330105003000,,,,,,,,,,2,100,1010,1287,2877,22071,,,
22072,7,120.124278,30.30745,和睦街道,,330105,0571,330105004000,,,,,,,,,,2,100,1010,1287,2877,22072,,,
22073,7,120.144759,30.321356,拱宸桥街道,,330105,0571,330105005000,,,,,,,,,,2,100,1010,1287,2877,22073,,,
22074,7,120.156482,30.305445,大关街道,,330105,0571,330105007000,,,,,,,,,,2,100,1010,1287,2877,22074,,,
22075,7,120.156134,30.31296,上塘街道,,330105,0571,330105008000,,,,,,,,,,2,100,1010,1287,2877,22075,,,
22076,7,120.098898,30.325287,祥符街道,,330105,0571,330105009000,,,,,,,,,,2,100,1010,1287,2877,22076,,,
22077,7,120.149161,30.365269,康桥街道,,330105,0571,330105010000,,,,,,,,,,2,100,1010,1287,2877,22077,,,
22078,7,120.181101,30.349789,半山街道,,330105,0571,330105011000,,,,,,,,,,2,100,1010,1287,2877,22078,,,
22079,7,120.144569,30.256066,北山街道,,330106,0571,330106002000,,,,,,,,,,2,100,1010,1287,2878,22079,,,
22080,7,120.149577,30.275251,西溪街道,,330106,0571,330106004000,,,,,,,,,,2,100,1010,1287,2878,22080,,,
22081,7,120.132839,30.274706,翠苑街道,,330106,0571,330106005000,,,,,,,,,,2,100,1010,1287,2878,22081,,,
22082,7,120.118797,30.276899,古荡街道,,330106,0571,330106007000,,,,,,,,,,2,100,1010,1287,2878,22082,,,
22083,7,120.111368,30.245573,西湖街道,,330106,0571,330106008000,,,,,,,,,,2,100,1010,1287,2878,22083,,,
22084,7,120.053062,30.24276,留下街道,,330106,0571,330106009000,,,,,,,,,,2,100,1010,1287,2878,22084,,,
22085,7,120.079309,30.159243,转塘街道,,330106,0571,330106010000,,,,,,,,,,2,100,1010,1287,2878,22085,,,
22086,7,120.064724,30.280581,蒋村街道,,330106,0571,330106011000,,,,,,,,,,2,100,1010,1287,2878,22086,,,
22087,7,120.126663,30.258832,灵隐街道,,330106,0571,330106012000,,,,,,,,,,2,100,1010,1287,2878,22087,,,
22088,7,120.103561,30.276167,文新街道,,330106,0571,330106013000,,,,,,,,,,2,100,1010,1287,2878,22088,,,
22089,7,120.085284,30.321377,三墩镇,,330106,0571,330106109000,,,,,,,,,,2,100,1010,1287,2878,22089,,,
22090,7,120.12183,30.113087,双浦镇,,330106,0571,330106110000,,,,,,,,,,2,100,1010,1287,2878,22090,,,
22091,7,120.222586,30.190793,西兴街道,,330108,0571,330108001000,,,,,,,,,,2,100,1010,1287,2879,22091,,,
22092,7,120.189694,30.178051,长河街道,,330108,0571,330108002000,,,,,,,,,,2,100,1010,1287,2879,22092,,,
22093,7,120.161445,30.165008,浦沿街道,,330108,0571,330108003000,,,,,,,,,,2,100,1010,1287,2879,22093,,,
22094,7,120.273938,30.160663,城厢街道,,330109,0571,330109001000,,,,,,,,,,2,100,1010,1287,2880,22094,,,
22095,7,120.281753,30.17866,北干街道,,330109,0571,330109002000,,,,,,,,,,2,100,1010,1287,2880,22095,,,
22096,7,120.261078,30.124343,蜀山街道,,330109,0571,330109003000,,,,,,,,,,2,100,1010,1287,2880,22096,,,
22097,7,120.309174,30.148297,新塘街道,,330109,0571,330109004000,,,,,,,,,,2,100,1010,1287,2880,22097,,,
22098,7,120.47634,30.229878,靖江街道,,330109,0571,330109005000,,,,,,,,,,2,100,1010,1287,2880,22098,,,
22099,7,120.443812,30.262323,南阳街道,,330109,0571,330109006000,,,,,,,,,,2,100,1010,1287,2880,22099,,,
22100,7,120.491053,30.275353,义蓬街道,,330109,0571,330109007000,,,,,,,,,,2,100,1010,1287,2880,22100,,,
22101,7,120.457651,30.297857,河庄街道,,330109,0571,330109008000,,,,,,,,,,2,100,1010,1287,2880,22101,,,
22102,7,120.546988,30.280324,新湾街道,,330109,0571,330109009000,,,,,,,,,,2,100,1010,1287,2880,22102,,,
22103,7,120.493286,30.28333,临江街道,,330109,0571,330109010000,,,,,,,,,,2,100,1010,1287,2880,22103,,,
22104,7,120.493286,30.28333,前进街道,,330109,0571,330109011000,,,,,,,,,,2,100,1010,1287,2880,22104,,,
22105,7,120.166238,30.149032,闻堰街道,,330108,0571,330109012000,,,,,,,,,,2,100,1010,1287,2880,22105,,,
22106,7,120.280027,30.214927,宁围街道,,330109,0571,330109013000,,,,,,,,,,2,100,1010,1287,2880,22106,,,
22107,7,120.338097,30.191666,新街街道,,330109,0571,330109014000,,,,,,,,,,2,100,1010,1287,2880,22107,,,
22108,7,120.140126,29.91249,楼塔镇,,330109,0571,330109100000,,,,,,,,,,2,100,1010,1287,2880,22108,,,
22109,7,120.173482,29.94888,河上镇,,330109,0571,330109101000,,,,,,,,,,2,100,1010,1287,2880,22109,,,
22110,7,120.190314,30.035354,戴村镇,,330109,0571,330109102000,,,,,,,,,,2,100,1010,1287,2880,22110,,,
22111,7,120.249057,29.980906,浦阳镇,,330109,0571,330109103000,,,,,,,,,,2,100,1010,1287,2880,22111,,,
22112,7,120.293268,30.010571,进化镇,,330109,0571,330109104000,,,,,,,,,,2,100,1010,1287,2880,22112,,,
22113,7,120.248998,30.04546,临浦镇,,330109,0571,330109105000,,,,,,,,,,2,100,1010,1287,2880,22113,,,
22114,7,120.205324,30.067198,义桥镇,,330109,0571,330109106000,,,,,,,,,,2,100,1010,1287,2880,22114,,,
22115,7,120.283235,30.111027,所前镇,,330109,0571,330109107000,,,,,,,,,,2,100,1010,1287,2880,22115,,,
22116,7,120.390403,30.166721,衙前镇,,330109,0571,330109108000,,,,,,,,,,2,100,1010,1287,2880,22116,,,
22117,7,120.458373,30.190322,瓜沥镇,,330109,0571,330109113000,,,,,,,,,,2,100,1010,1287,2880,22117,,,
22118,7,120.592791,30.194386,益农镇,,330109,0571,330109115000,,,,,,,,,,2,100,1010,1287,2880,22118,,,
22119,7,120.549339,30.224737,党湾镇,,330109,0571,330109120000,,,,,,,,,,2,100,1010,1287,2880,22119,,,
22120,7,120.279606,30.19828,萧山经济技术开发区,,330109,0571,330109401000,,,,,,,,,,2,100,1010,1287,2880,22120,,,
22121,7,120.290982,30.172239,萧山商业城,,330109,0571,330109403000,,,,,,,,,,2,100,1010,1287,2880,22121,,,
22122,7,120.62089,30.228769,围垦区,,330109,0571,330109501000,,,,,,,,,,2,100,1010,1287,2880,22122,,,
22123,7,120.385252,30.231359,红山农场,,330109,0571,330109503000,,,,,,,,,,2,100,1010,1287,2880,22123,,,
22124,7,120.243328,30.239274,萧山钱江世纪城,,330109,0571,330109505000,,,,,,,,,,2,100,1010,1287,2880,22124,,,
22125,7,120.303038,30.419659,临平街道,,330110,0571,330110001000,,,,,,,,,,2,100,1010,1287,2881,22125,,,
22126,7,120.30904,30.406045,南苑街道,,330110,0571,330110002000,,,,,,,,,,2,100,1010,1287,2881,22126,,,
22127,7,120.309018,30.440721,东湖街道,,330110,0571,330110003000,,,,,,,,,,2,100,1010,1287,2881,22127,,,
22128,7,120.256941,30.394448,星桥街道,,330110,0571,330110004000,,,,,,,,,,2,100,1010,1287,2881,22128,,,
22129,7,120.031341,30.244638,五常街道,,330110,0571,330110005000,,,,,,,,,,2,100,1010,1287,2881,22129,,,
22130,7,120.286388,30.34937,乔司街道,,330110,0571,330110006000,,,,,,,,,,2,100,1010,1287,2881,22130,,,
22131,7,120.299016,30.462248,运河街道,,330110,0571,330110007000,,,,,,,,,,2,100,1010,1287,2881,22131,,,
22132,7,120.174898,30.387545,崇贤街道,,330110,0571,330110008000,,,,,,,,,,2,100,1010,1287,2881,22132,,,
22133,7,120.089873,30.442758,仁和街道,,330110,0571,330110009000,,,,,,,,,,2,100,1010,1287,2881,22133,,,
22134,7,120.046944,30.380212,良渚街道,,330110,0571,330110010000,,,,,,,,,,2,100,1010,1287,2881,22134,,,
22135,7,120.245433,30.409974,闲林街道,,330110,0571,330110011000,,,,,,,,,,2,100,1010,1287,2881,22135,,,
22136,7,120.009865,30.282983,仓前街道,,330110,0571,330110012000,,,,,,,,,,2,100,1010,1287,2881,22136,,,
22137,7,119.953154,30.257177,余杭街道,,330110,0571,330110013000,,,,,,,,,,2,100,1010,1287,2881,22137,,,
22138,7,119.92853,30.238079,中泰街道,,330110,0571,330110014000,,,,,,,,,,2,100,1010,1287,2881,22138,,,
22139,7,120.18845,30.473465,塘栖镇,,330110,0571,330110102000,,,,,,,,,,2,100,1010,1287,2881,22139,,,
22140,7,119.865257,30.374949,径山镇,,330110,0571,330110109000,,,,,,,,,,2,100,1010,1287,2881,22140,,,
22141,7,119.975543,30.367842,瓶窑镇,,330110,0571,330110110000,,,,,,,,,,2,100,1010,1287,2881,22141,,,
22142,7,119.760419,30.451565,鸬鸟镇,,330110,0571,330110111000,,,,,,,,,,2,100,1010,1287,2881,22142,,,
22143,7,119.730817,30.519998,百丈镇,,330110,0571,330110112000,,,,,,,,,,2,100,1010,1287,2881,22143,,,
22144,7,119.807941,30.448037,黄湖镇,,330110,0571,330110113000,,,,,,,,,,2,100,1010,1287,2881,22144,,,
22145,7,119.959871,30.046606,富春街道,,330111,0571,330111001000,,,,,,,,,,2,100,1010,1287,2882,22145,,,
22146,7,119.983,30.01478,春江街道,,330111,0571,330111002000,,,,,,,,,,2,100,1010,1287,2882,22146,,,
22147,7,119.903403,29.998148,鹿山街道,,330111,0571,330111004000,,,,,,,,,,2,100,1010,1287,2882,22147,,,
22148,7,120.021759,30.072762,东洲街道,,330111,0571,330111005000,,,,,,,,,,2,100,1010,1287,2882,22148,,,
22149,7,119.940964,30.096876,银湖街道,,330111,0571,330111006000,,,,,,,,,,2,100,1010,1287,2882,22149,,,
22150,7,119.57434,30.095097,万市镇,,330111,0571,330111100000,,,,,,,,,,2,100,1010,1287,2882,22150,,,
22151,7,119.589424,30.074028,洞桥镇,,330111,0571,330111101000,,,,,,,,,,2,100,1010,1287,2882,22151,,,
22152,7,119.741976,29.892476,渌渚镇,,330111,0571,330111103000,,,,,,,,,,2,100,1010,1287,2882,22152,,,
22153,7,119.734694,30.03462,永昌镇,,330111,0571,330111105000,,,,,,,,,,2,100,1010,1287,2882,22153,,,
22154,7,120.069198,30.051843,里山镇,,330111,0571,330111108000,,,,,,,,,,2,100,1010,1287,2882,22154,,,
22155,7,120.082109,29.857479,常绿镇,,330111,0571,330111109000,,,,,,,,,,2,100,1010,1287,2882,22155,,,
22156,7,119.869133,29.900998,场口镇,,330111,0571,330111110000,,,,,,,,,,2,100,1010,1287,2882,22156,,,
22157,7,119.900192,29.882963,常安镇,,330111,0571,330111111000,,,,,,,,,,2,100,1010,1287,2882,22157,,,
22158,7,119.944178,29.905877,龙门镇,,330111,0571,330111112000,,,,,,,,,,2,100,1010,1287,2882,22158,,,
22159,7,119.734483,29.967396,新登镇,,330111,0571,330111115000,,,,,,,,,,2,100,1010,1287,2882,22159,,,
22160,7,119.670124,29.983929,胥口镇,,330111,0571,330111116000,,,,,,,,,,2,100,1010,1287,2882,22160,,,
22161,7,120.010554,30.000569,大源镇,,330111,0571,330111117000,,,,,,,,,,2,100,1010,1287,2882,22161,,,
22162,7,120.029428,30.027451,灵桥镇,,330111,0571,330111118000,,,,,,,,,,2,100,1010,1287,2882,22162,,,
22163,7,119.823361,29.912292,新桐乡,,330111,0571,330111200000,,,,,,,,,,2,100,1010,1287,2882,22163,,,
22164,7,120.001364,29.89389,上官乡,,330111,0571,330111201000,,,,,,,,,,2,100,1010,1287,2882,22164,,,
22165,7,119.926987,29.926582,环山乡,,330111,0571,330111204000,,,,,,,,,,2,100,1010,1287,2882,22165,,,
22166,7,119.951214,29.814364,湖源乡,,330111,0571,330111205000,,,,,,,,,,2,100,1010,1287,2882,22166,,,
22167,7,119.829903,30.075236,春建乡,,330111,0571,330111206000,,,,,,,,,,2,100,1010,1287,2882,22167,,,
22168,7,120.09298,30.063646,渔山乡,,330111,0571,330111207000,,,,,,,,,,2,100,1010,1287,2882,22168,,,
22169,7,119.659935,30.187961,玲珑街道,,330185,0571,330112002000,,,,,,,,,,2,100,1010,1287,2883,22169,,,
22170,7,119.701727,30.214742,锦南街道,,330185,0571,330112005000,,,,,,,,,,2,100,1010,1287,2883,22170,,,
22171,7,119.721893,30.237402,锦城街道,,330185,0571,330112006000,,,,,,,,,,2,100,1010,1287,2883,22171,,,
22172,7,119.71669,30.24144,锦北街道,,330185,0571,330112007000,,,,,,,,,,2,100,1010,1287,2883,22172,,,
22173,7,119.815168,30.248511,青山湖街道,,330185,0571,330112008000,,,,,,,,,,2,100,1010,1287,2883,22173,,,
22174,7,119.725587,30.318685,高虹镇,,330185,0571,330112102000,,,,,,,,,,2,100,1010,1287,2883,22174,,,
22175,7,119.597413,30.26639,太湖源镇,,330185,0571,330112103000,,,,,,,,,,2,100,1010,1287,2883,22175,,,
22176,7,119.392879,30.187146,於潜镇,,330185,0571,330112104000,,,,,,,,,,2,100,1010,1287,2883,22176,,,
22177,7,119.300717,30.182699,太阳镇,,330185,0571,330112106000,,,,,,,,,,2,100,1010,1287,2883,22177,,,
22178,7,119.399593,30.091727,潜川镇,,330185,0571,330112107000,,,,,,,,,,2,100,1010,1287,2883,22178,,,
22179,7,119.217779,30.163362,昌化镇,,330185,0571,330112108000,,,,,,,,,,2,100,1010,1287,2883,22179,,,
22180,7,119.244005,30.10672,河桥镇,,330185,0571,330112109000,,,,,,,,,,2,100,1010,1287,2883,22180,,,
22181,7,119.163779,30.039407,湍口镇,,330185,0571,330112111000,,,,,,,,,,2,100,1010,1287,2883,22181,,,
22182,7,118.939532,30.056072,清凉峰镇,,330185,0571,330112112000,,,,,,,,,,2,100,1010,1287,2883,22182,,,
22183,7,118.950257,30.290062,岛石镇,,330185,0571,330112113000,,,,,,,,,,2,100,1010,1287,2883,22183,,,
22184,7,119.783582,30.161538,板桥镇,,330185,0571,330112115000,,,,,,,,,,2,100,1010,1287,2883,22184,,,
22185,7,119.490766,30.200053,天目山镇,,330185,0571,330112116000,,,,,,,,,,2,100,1010,1287,2883,22185,,,
22186,7,119.135219,30.161288,龙岗镇,,330185,0571,330112117000,,,,,,,,,,2,100,1010,1287,2883,22186,,,
22187,7,119.691434,29.793535,旧县街道,,330122,0571,330122002000,,,,,,,,,,2,100,1010,1287,2884,22187,,,
22188,7,119.674904,29.807195,桐君街道,,330122,0571,330122003000,,,,,,,,,,2,100,1010,1287,2884,22188,,,
22189,7,119.68689,29.77908,城南街道,,330122,0571,330122004000,,,,,,,,,,2,100,1010,1287,2884,22189,,,
22190,7,119.781131,29.809115,凤川街道,,330122,0571,330122005000,,,,,,,,,,2,100,1010,1287,2884,22190,,,
22191,7,119.650137,29.708845,富春江镇,,330122,0571,330122101000,,,,,,,,,,2,100,1010,1287,2884,22191,,,
22192,7,119.614312,29.84259,横村镇,,330122,0571,330122102000,,,,,,,,,,2,100,1010,1287,2884,22192,,,
22193,7,119.445721,29.927669,分水镇,,330122,0571,330122109000,,,,,,,,,,2,100,1010,1287,2884,22193,,,
22194,7,119.539128,29.896527,瑶琳镇,,330122,0571,330122110000,,,,,,,,,,2,100,1010,1287,2884,22194,,,
22195,7,119.357932,29.848544,百江镇,,330122,0571,330122112000,,,,,,,,,,2,100,1010,1287,2884,22195,,,
22196,7,119.777209,29.855477,江南镇,,330122,0571,330122113000,,,,,,,,,,2,100,1010,1287,2884,22196,,,
22197,7,119.575128,29.79591,莪山畲族乡,,330122,0571,330122201000,,,,,,,,,,2,100,1010,1287,2884,22197,,,
22198,7,119.53194,29.765513,钟山乡,,330122,0571,330122202000,,,,,,,,,,2,100,1010,1287,2884,22198,,,
22199,7,119.909035,29.692,新合乡,,330122,0571,330122204000,,,,,,,,,,2,100,1010,1287,2884,22199,,,
22200,7,119.312451,29.934082,合村乡,,330122,0571,330122210000,,,,,,,,,,2,100,1010,1287,2884,22200,,,
22201,7,119.078201,29.606841,千岛湖镇,,330127,0571,330127100000,,,,,,,,,,2,100,1010,1287,2885,22201,,,
22202,7,119.205467,29.775261,文昌镇,,330127,0571,330127101000,,,,,,,,,,2,100,1010,1287,2885,22202,,,
22203,7,119.090579,29.469705,石林镇,,330127,0571,330127102000,,,,,,,,,,2,100,1010,1287,2885,22203,,,
22204,7,119.120263,29.847571,临岐镇,,330127,0571,330127103000,,,,,,,,,,2,100,1010,1287,2885,22204,,,
22205,7,118.795694,29.725313,威坪镇,,330127,0571,330127104000,,,,,,,,,,2,100,1010,1287,2885,22205,,,
22206,7,118.664924,29.471265,姜家镇,,330127,0571,330127106000,,,,,,,,,,2,100,1010,1287,2885,22206,,,
22207,7,118.763103,29.605679,梓桐镇,,330127,0571,330127107000,,,,,,,,,,2,100,1010,1287,2885,22207,,,
22208,7,118.558513,29.427834,汾口镇,,330127,0571,330127108000,,,,,,,,,,2,100,1010,1287,2885,22208,,,
22209,7,118.487093,29.438411,中洲镇,,330127,0571,330127109000,,,,,,,,,,2,100,1010,1287,2885,22209,,,
22210,7,118.738778,29.400623,大墅镇,,330127,0571,330127110000,,,,,,,,,,2,100,1010,1287,2885,22210,,,
22211,7,118.70954,29.367901,枫树岭镇,,330127,0571,330127111000,,,,,,,,,,2,100,1010,1287,2885,22211,,,
22212,7,119.001499,29.489775,里商乡,,330127,0571,330127200000,,,,,,,,,,2,100,1010,1287,2885,22212,,,
22213,7,118.91769,29.677469,金峰乡,,330127,0571,330127201000,,,,,,,,,,2,100,1010,1287,2885,22213,,,
22214,7,119.215732,29.646934,富文乡,,330127,0571,330127202000,,,,,,,,,,2,100,1010,1287,2885,22214,,,
22215,7,119.076105,29.697623,左口乡,,330127,0571,330127203000,,,,,,,,,,2,100,1010,1287,2885,22215,,,
22216,7,119.039021,29.864862,屏门乡,,330127,0571,330127205000,,,,,,,,,,2,100,1010,1287,2885,22216,,,
22217,7,119.075353,29.961357,瑶山乡,,330127,0571,330127206000,,,,,,,,,,2,100,1010,1287,2885,22217,,,
22218,7,118.918451,29.835635,王阜乡,,330127,0571,330127208000,,,,,,,,,,2,100,1010,1287,2885,22218,,,
22219,7,118.862156,29.683967,宋村乡,,330127,0571,330127210000,,,,,,,,,,2,100,1010,1287,2885,22219,,,
22220,7,118.774226,29.670341,鸠坑乡,,330127,0571,330127211000,,,,,,,,,,2,100,1010,1287,2885,22220,,,
22221,7,118.604556,29.492402,浪川乡,,330127,0571,330127212000,,,,,,,,,,2,100,1010,1287,2885,22221,,,
22222,7,118.794646,29.544071,界首乡,,330127,0571,330127214000,,,,,,,,,,2,100,1010,1287,2885,22222,,,
22223,7,118.831529,29.420655,安阳乡,,330127,0571,330127216000,,,,,,,,,,2,100,1010,1287,2885,22223,,,
22224,7,119.285155,29.477898,新安江街道,,330182,0571,330182001000,,,,,,,,,,2,100,1010,1287,2886,22224,,,
22225,7,119.340213,29.516068,洋溪街道,,330182,0571,330182002000,,,,,,,,,,2,100,1010,1287,2886,22225,,,
22226,7,119.263202,29.43057,更楼街道,,330182,0571,330182003000,,,,,,,,,,2,100,1010,1287,2886,22226,,,
22227,7,119.309234,29.566648,莲花镇,,330182,0571,330182101000,,,,,,,,,,2,100,1010,1287,2886,22227,,,
22228,7,119.545515,29.616646,乾潭镇,,330182,0571,330182102000,,,,,,,,,,2,100,1010,1287,2886,22228,,,
22229,7,119.504091,29.541242,梅城镇,,330182,0571,330182104000,,,,,,,,,,2,100,1010,1287,2886,22229,,,
22230,7,119.43582,29.565403,杨村桥镇,,330182,0571,330182105000,,,,,,,,,,2,100,1010,1287,2886,22230,,,
22231,7,119.375656,29.535193,下涯镇,,330182,0571,330182106000,,,,,,,,,,2,100,1010,1287,2886,22231,,,
22232,7,119.51223,29.440083,大洋镇,,330182,0571,330182107000,,,,,,,,,,2,100,1010,1287,2886,22232,,,
22233,7,119.57365,29.536845,三都镇,,330182,0571,330182108000,,,,,,,,,,2,100,1010,1287,2886,22233,,,
22234,7,119.222125,29.358983,寿昌镇,,330182,0571,330182109000,,,,,,,,,,2,100,1010,1287,2886,22234,,,
22235,7,119.184747,29.332261,航头镇,,330182,0571,330182110000,,,,,,,,,,2,100,1010,1287,2886,22235,,,
22236,7,119.297948,29.288597,大慈岩镇,,330182,0571,330182111000,,,,,,,,,,2,100,1010,1287,2886,22236,,,
22237,7,119.099448,29.306793,大同镇,,330182,0571,330182112000,,,,,,,,,,2,100,1010,1287,2886,22237,,,
22238,7,119.039773,29.32305,李家镇,,330182,0571,330182113000,,,,,,,,,,2,100,1010,1287,2886,22238,,,
22239,7,119.567421,29.712816,钦堂乡,,330182,0571,330182202000,,,,,,,,,,2,100,1010,1287,2886,22239,,,
22240,7,121.533156,29.870883,南门街道,,330203,0574,330203001000,,,,,,,,,,2,100,1010,1288,2887,22240,,,
22241,7,121.559374,29.8757,江厦街道,,330205,0574,330203002000,,,,,,,,,,2,100,1010,1288,2887,22241,,,
22242,7,121.533094,29.882776,西门街道,,330203,0574,330203003000,,,,,,,,,,2,100,1010,1288,2887,22242,,,
22243,7,121.547094,29.861199,月湖街道,,330203,0574,330203004000,,,,,,,,,,2,100,1010,1288,2887,22243,,,
22244,7,121.542142,29.876523,鼓楼街道,,330203,0574,330203005000,,,,,,,,,,2,100,1010,1288,2887,22244,,,
22245,7,121.519212,29.870109,白云街道,,330203,0574,330203006000,,,,,,,,,,2,100,1010,1288,2887,22245,,,
22246,7,121.522311,29.837333,段塘街道,,330203,0574,330203007000,,,,,,,,,,2,100,1010,1288,2887,22246,,,
22247,7,121.521574,29.891154,望春街道,,330203,0574,330203008000,,,,,,,,,,2,100,1010,1288,2887,22247,,,
22248,7,121.50668,29.828435,石碶街道,,330203,0574,330203009000,,,,,,,,,,2,100,1010,1288,2887,22248,,,
22249,7,121.461535,29.904863,高桥镇,,330203,0574,330203100000,,,,,,,,,,2,100,1010,1288,2887,22249,,,
22250,7,121.399322,29.854169,横街镇,,330203,0574,330203101000,,,,,,,,,,2,100,1010,1288,2887,22250,,,
22251,7,121.445158,29.861745,集士港镇,,330203,0574,330203102000,,,,,,,,,,2,100,1010,1288,2887,22251,,,
22252,7,121.435704,29.83524,古林镇,,330203,0574,330203103000,,,,,,,,,,2,100,1010,1288,2887,22252,,,
22253,7,121.411468,29.780431,洞桥镇,,330203,0574,330203104000,,,,,,,,,,2,100,1010,1288,2887,22253,,,
22254,7,121.369052,29.780701,鄞江镇,,330203,0574,330203105000,,,,,,,,,,2,100,1010,1288,2887,22254,,,
22255,7,121.300551,29.815139,章水镇,,330203,0574,330203106000,,,,,,,,,,2,100,1010,1288,2887,22255,,,
22256,7,121.313379,29.766406,龙观乡,,330203,0574,330203200000,,,,,,,,,,2,100,1010,1288,2887,22256,,,
22257,7,121.553396,29.889183,中马街道,,330205,0574,330205001000,,,,,,,,,,2,100,1010,1288,2888,22257,,,
22258,7,121.567397,29.887874,白沙街道,,330205,0574,330205002000,,,,,,,,,,2,100,1010,1288,2888,22258,,,
22259,7,121.587845,29.901849,孔浦街道,,330205,0574,330205003000,,,,,,,,,,2,100,1010,1288,2888,22259,,,
22260,7,121.543493,29.898346,文教街道,,330205,0574,330205004000,,,,,,,,,,2,100,1010,1288,2888,22260,,,
22261,7,121.578188,29.900803,甬江街道,,330205,0574,330205005000,,,,,,,,,,2,100,1010,1288,2888,22261,,,
22262,7,121.547385,29.923577,庄桥街道,,330205,0574,330205006000,,,,,,,,,,2,100,1010,1288,2888,22262,,,
22263,7,121.508652,29.944271,洪塘街道,,330205,0574,330205007000,,,,,,,,,,2,100,1010,1288,2888,22263,,,
22264,7,121.449972,29.978387,慈城镇,,330205,0574,330205103000,,,,,,,,,,2,100,1010,1288,2888,22264,,,
22265,7,121.961415,29.905741,大榭街道,,330206,0574,330206001000,,,,,,,,,,2,100,1010,1288,2889,22265,,,
22266,7,121.839277,29.912326,新碶街道,,330206,0574,330206002000,,,,,,,,,,2,100,1010,1288,2889,22266,,,
22267,7,121.728519,29.902815,小港街道,,330206,0574,330206003000,,,,,,,,,,2,100,1010,1288,2889,22267,,,
22268,7,121.802392,29.894701,大碶街道,,330206,0574,330206004000,,,,,,,,,,2,100,1010,1288,2889,22268,,,
22269,7,121.859765,29.885202,霞浦街道,,330206,0574,330206005000,,,,,,,,,,2,100,1010,1288,2889,22269,,,
22270,7,121.922968,29.875298,柴桥街道,,330206,0574,330206006000,,,,,,,,,,2,100,1010,1288,2889,22270,,,
22271,7,121.740916,29.9522,戚家山街道,,330206,0574,330206007000,,,,,,,,,,2,100,1010,1288,2889,22271,,,
22272,7,121.904359,29.760884,春晓街道,,330206,0574,330206008000,,,,,,,,,,2,100,1010,1288,2889,22272,,,
22273,7,121.993954,29.795535,梅山街道,,330206,0574,330206009000,,,,,,,,,,2,100,1010,1288,2889,22273,,,
22274,7,122.024784,29.854027,郭巨街道,,330206,0574,330206010000,,,,,,,,,,2,100,1010,1288,2889,22274,,,
22275,7,121.996497,29.882104,白峰街道,,330206,0574,330206011000,,,,,,,,,,2,100,1010,1288,2889,22275,,,
22276,7,121.844618,29.899044,保税区,,330206,0574,330206401000,,,,,,,,,,2,100,1010,1288,2889,22276,,,
22277,7,121.716758,29.950818,招宝山街道,,330211,0574,330211001000,,,,,,,,,,2,100,1010,1288,2890,22277,,,
22278,7,121.680372,29.941195,蛟川街道,,330211,0574,330211002000,,,,,,,,,,2,100,1010,1288,2890,22278,,,
22279,7,121.582373,29.979627,骆驼街道,,330211,0574,330211003000,,,,,,,,,,2,100,1010,1288,2890,22279,,,
22280,7,121.620617,29.920057,庄市街道,,330211,0574,330211004000,,,,,,,,,,2,100,1010,1288,2890,22280,,,
22281,7,121.607974,29.98068,贵驷街道,,330211,0574,330211005000,,,,,,,,,,2,100,1010,1288,2890,22281,,,
22282,7,121.6011,30.031197,澥浦镇,,330211,0574,330211100000,,,,,,,,,,2,100,1010,1288,2890,22282,,,
22283,7,121.552312,30.032855,九龙湖镇,,330211,0574,330211101000,,,,,,,,,,2,100,1010,1288,2890,22283,,,
22284,7,121.576502,29.801137,下应街道,,330212,0574,330212001000,,,,,,,,,,2,100,1010,1288,2891,22284,,,
22285,7,121.538226,29.815963,钟公庙街道,,330212,0574,330212002000,,,,,,,,,,2,100,1010,1288,2891,22285,,,
22286,7,121.657756,29.896558,梅墟街道,,330212,0574,330212004000,,,,,,,,,,2,100,1010,1288,2891,22286,,,
22287,7,121.582607,29.824765,中河街道,,330212,0574,330212005000,,,,,,,,,,2,100,1010,1288,2891,22287,,,
22288,7,121.546527,29.798152,首南街道,,330212,0574,330212006000,,,,,,,,,,2,100,1010,1288,2891,22288,,,
22289,7,121.605537,29.827617,潘火街道,,330212,0574,330212007000,,,,,,,,,,2,100,1010,1288,2891,22289,,,
22290,7,121.57175,29.864688,百丈街道,,330212,0574,330212008000,,,,,,,,,,2,100,1010,1288,2891,22290,,,
22291,7,121.546603,29.816511,东胜街道,,330212,0574,330212009000,,,,,,,,,,2,100,1010,1288,2891,22291,,,
22292,7,121.576527,29.882357,明楼街道,,330212,0574,330212010000,,,,,,,,,,2,100,1010,1288,2891,22292,,,
22293,7,121.568783,29.85624,白鹤街道,,330212,0574,330212011000,,,,,,,,,,2,100,1010,1288,2891,22293,,,
22294,7,121.585336,29.857021,东柳街道,,330212,0574,330212012000,,,,,,,,,,2,100,1010,1288,2891,22294,,,
22295,7,121.578277,29.868499,东郊街道,,330212,0574,330212013000,,,,,,,,,,2,100,1010,1288,2891,22295,,,
22296,7,121.546603,29.816511,福明街道,,330212,0574,330212014000,,,,,,,,,,2,100,1010,1288,2891,22296,,,
22297,7,121.612392,29.893166,新明街道,,330212,0574,330212015000,,,,,,,,,,2,100,1010,1288,2891,22297,,,
22298,7,121.546603,29.816511,聚贤街道,,330212,0574,330212016000,,,,,,,,,,2,100,1010,1288,2891,22298,,,
22299,7,121.826651,29.729714,瞻岐镇,,330212,0574,330212100000,,,,,,,,,,2,100,1010,1288,2891,22299,,,
22300,7,121.774957,29.686702,咸祥镇,,330212,0574,330212101000,,,,,,,,,,2,100,1010,1288,2891,22300,,,
22301,7,121.714228,29.661773,塘溪镇,,330212,0574,330212102000,,,,,,,,,,2,100,1010,1288,2891,22301,,,
22302,7,121.630543,29.782777,东钱湖镇,,330212,0574,330212103000,,,,,,,,,,2,100,1010,1288,2891,22302,,,
22303,7,121.741396,29.816793,东吴镇,,330212,0574,330212104000,,,,,,,,,,2,100,1010,1288,2891,22303,,,
22304,7,121.695374,29.845586,五乡镇,,330212,0574,330212105000,,,,,,,,,,2,100,1010,1288,2891,22304,,,
22305,7,121.639846,29.845997,邱隘镇,,330212,0574,330212106000,,,,,,,,,,2,100,1010,1288,2891,22305,,,
22306,7,121.600537,29.773274,云龙镇,,330212,0574,330212108000,,,,,,,,,,2,100,1010,1288,2891,22306,,,
22307,7,121.595434,29.729209,横溪镇,,330212,0574,330212109000,,,,,,,,,,2,100,1010,1288,2891,22307,,,
22308,7,121.529375,29.770883,姜山镇,,330212,0574,330212110000,,,,,,,,,,2,100,1010,1288,2891,22308,,,
22309,7,121.410111,29.67554,锦屏街道,,330213,0574,330213001000,,,,,,,,,,2,100,1010,1288,2892,22309,,,
22310,7,121.440219,29.66027,岳林街道,,330213,0574,330213002000,,,,,,,,,,2,100,1010,1288,2892,22310,,,
22311,7,121.408249,29.725519,江口街道,,330213,0574,330213003000,,,,,,,,,,2,100,1010,1288,2892,22311,,,
22312,7,121.493284,29.681394,西坞街道,,330213,0574,330213004000,,,,,,,,,,2,100,1010,1288,2892,22312,,,
22313,7,121.358073,29.702353,萧王庙街道,,330213,0574,330213005000,,,,,,,,,,2,100,1010,1288,2892,22313,,,
22314,7,121.517574,29.569578,方桥街道,,330213,0574,330213006000,,,,,,,,,,2,100,1010,1288,2892,22314,,,
22315,7,121.517574,29.569578,尚田街道,,330213,0574,330213007000,,,,,,,,,,2,100,1010,1288,2892,22315,,,
22316,7,121.517574,29.569578,莼湖街道,,330213,0574,330213008000,,,,,,,,,,2,100,1010,1288,2892,22316,,,
22317,7,121.28259,29.689847,溪口镇,,330213,0574,330213100000,,,,,,,,,,2,100,1010,1288,2892,22317,,,
22318,7,121.621158,29.601621,裘村镇,,330213,0574,330213106000,,,,,,,,,,2,100,1010,1288,2892,22318,,,
22319,7,121.307504,29.504835,大堰镇,,330213,0574,330213107000,,,,,,,,,,2,100,1010,1288,2892,22319,,,
22320,7,121.685484,29.60095,松岙镇,,330213,0574,330213108000,,,,,,,,,,2,100,1010,1288,2892,22320,,,
22321,7,121.874696,29.472038,丹东街道,,330225,0574,330225001000,,,,,,,,,,2,100,1010,1288,2893,22321,,,
22322,7,121.872302,29.447872,丹西街道,,330225,0574,330225002000,,,,,,,,,,2,100,1010,1288,2893,22322,,,
22323,7,121.948692,29.471039,爵溪街道,,330225,0574,330225003000,,,,,,,,,,2,100,1010,1288,2893,22323,,,
22324,7,121.931399,29.203205,石浦镇,,330225,0574,330225101000,,,,,,,,,,2,100,1010,1288,2893,22324,,,
22325,7,121.675465,29.480776,西周镇,,330225,0574,330225102000,,,,,,,,,,2,100,1010,1288,2893,22325,,,
22326,7,121.898362,29.149335,鹤浦镇,,330225,0574,330225103000,,,,,,,,,,2,100,1010,1288,2893,22326,,,
22327,7,121.846227,29.589414,贤庠镇,,330225,0574,330225104000,,,,,,,,,,2,100,1010,1288,2893,22327,,,
22328,7,121.78197,29.462911,墙头镇,,330225,0574,330225105000,,,,,,,,,,2,100,1010,1288,2893,22328,,,
22329,7,121.77302,29.371884,泗洲头镇,,330225,0574,330225106000,,,,,,,,,,2,100,1010,1288,2893,22329,,,
22330,7,121.844738,29.229464,定塘镇,,330225,0574,330225107000,,,,,,,,,,2,100,1010,1288,2893,22330,,,
22331,7,121.939273,29.560681,涂茨镇,,330225,0574,330225108000,,,,,,,,,,2,100,1010,1288,2893,22331,,,
22332,7,121.883883,29.523447,大徐镇,,330225,0574,330225109000,,,,,,,,,,2,100,1010,1288,2893,22332,,,
22333,7,121.867986,29.314254,新桥镇,,330225,0574,330225110000,,,,,,,,,,2,100,1010,1288,2893,22333,,,
22334,7,121.889002,29.393061,东陈乡,,330225,0574,330225200000,,,,,,,,,,2,100,1010,1288,2893,22334,,,
22335,7,121.858883,29.206271,晓塘乡,,330225,0574,330225201000,,,,,,,,,,2,100,1010,1288,2893,22335,,,
22336,7,121.795937,29.573445,黄避岙乡,,330225,0574,330225202000,,,,,,,,,,2,100,1010,1288,2893,22336,,,
22337,7,121.830566,29.393019,茅洋乡,,330225,0574,330225203000,,,,,,,,,,2,100,1010,1288,2893,22337,,,
22338,7,121.838915,29.115387,高塘岛乡,,330225,0574,330225204000,,,,,,,,,,2,100,1010,1288,2893,22338,,,
22339,7,121.433809,29.295021,跃龙街道,,330226,0574,330226001000,,,,,,,,,,2,100,1010,1288,2894,22339,,,
22340,7,121.451635,29.340003,桃源街道,,330226,0574,330226002000,,,,,,,,,,2,100,1010,1288,2894,22340,,,
22341,7,121.443191,29.377045,梅林街道,,330226,0574,330226003000,,,,,,,,,,2,100,1010,1288,2894,22341,,,
22342,7,121.508278,29.384364,桥头胡街道,,330226,0574,330226004000,,,,,,,,,,2,100,1010,1288,2894,22342,,,
22343,7,121.71332,29.247962,长街镇,,330226,0574,330226101000,,,,,,,,,,2,100,1010,1288,2894,22343,,,
22344,7,121.621778,29.304051,力洋镇,,330226,0574,330226102000,,,,,,,,,,2,100,1010,1288,2894,22344,,,
22345,7,121.479031,29.200325,一市镇,,330226,0574,330226104000,,,,,,,,,,2,100,1010,1288,2894,22345,,,
22346,7,121.3149,29.201947,岔路镇,,330226,0574,330226105000,,,,,,,,,,2,100,1010,1288,2894,22346,,,
22347,7,121.348279,29.228459,前童镇,,330226,0574,330226106000,,,,,,,,,,2,100,1010,1288,2894,22347,,,
22348,7,121.317886,29.154067,桑洲镇,,330226,0574,330226107000,,,,,,,,,,2,100,1010,1288,2894,22348,,,
22349,7,121.367684,29.29088,黄坛镇,,330226,0574,330226108000,,,,,,,,,,2,100,1010,1288,2894,22349,,,
22350,7,121.555374,29.425274,大佳何镇,,330226,0574,330226109000,,,,,,,,,,2,100,1010,1288,2894,22350,,,
22351,7,121.530994,29.457588,强蛟镇,,330226,0574,330226110000,,,,,,,,,,2,100,1010,1288,2894,22351,,,
22352,7,121.436382,29.480243,西店镇,,330226,0574,330226111000,,,,,,,,,,2,100,1010,1288,2894,22352,,,
22353,7,121.34848,29.415275,深甽镇,,330226,0574,330226112000,,,,,,,,,,2,100,1010,1288,2894,22353,,,
22354,7,121.677306,29.32541,胡陈乡,,330226,0574,330226200000,,,,,,,,,,2,100,1010,1288,2894,22354,,,
22355,7,121.572844,29.314967,茶院乡,,330226,0574,330226201000,,,,,,,,,,2,100,1010,1288,2894,22355,,,
22356,7,121.521511,29.265116,越溪乡,,330226,0574,330226202000,,,,,,,,,,2,100,1010,1288,2894,22356,,,
22357,7,121.154594,30.037858,梨洲街道,,330281,0574,330281001000,,,,,,,,,,2,100,1010,1288,2895,22357,,,
22358,7,121.182353,30.067116,凤山街道,,330281,0574,330281002000,,,,,,,,,,2,100,1010,1288,2895,22358,,,
22359,7,121.115438,30.021243,兰江街道,,330281,0574,330281003000,,,,,,,,,,2,100,1010,1288,2895,22359,,,
22360,7,121.140396,30.043869,阳明街道,,330281,0574,330281004000,,,,,,,,,,2,100,1010,1288,2895,22360,,,
22361,7,121.15352,30.162458,低塘街道,,330281,0574,330281005000,,,,,,,,,,2,100,1010,1288,2895,22361,,,
22362,7,121.138676,30.141714,朗霞街道,,330281,0574,330281006000,,,,,,,,,,2,100,1010,1288,2895,22362,,,
22363,7,120.988632,30.154519,临山镇,,330281,0574,330281100000,,,,,,,,,,2,100,1010,1288,2895,22363,,,
22364,7,120.965215,30.126539,黄家埠镇,,330281,0574,330281101000,,,,,,,,,,2,100,1010,1288,2895,22364,,,
22365,7,121.074011,30.217208,小曹娥镇,,330281,0574,330281102000,,,,,,,,,,2,100,1010,1288,2895,22365,,,
22366,7,121.041786,30.159656,泗门镇,,330281,0574,330281103000,,,,,,,,,,2,100,1010,1288,2895,22366,,,
22367,7,121.050167,30.072087,马渚镇,,330281,0574,330281106000,,,,,,,,,,2,100,1010,1288,2895,22367,,,
22368,7,121.000454,30.07457,牟山镇,,330281,0574,330281108000,,,,,,,,,,2,100,1010,1288,2895,22368,,,
22369,7,121.281625,30.029634,丈亭镇,,330281,0574,330281109000,,,,,,,,,,2,100,1010,1288,2895,22369,,,
22370,7,121.343044,30.025435,三七市镇,,330281,0574,330281110000,,,,,,,,,,2,100,1010,1288,2895,22370,,,
22371,7,121.315391,29.988968,河姆渡镇,,330281,0574,330281111000,,,,,,,,,,2,100,1010,1288,2895,22371,,,
22372,7,121.374809,29.941297,大隐镇,,330281,0574,330281112000,,,,,,,,,,2,100,1010,1288,2895,22372,,,
22373,7,121.247157,29.993572,陆埠镇,,330281,0574,330281113000,,,,,,,,,,2,100,1010,1288,2895,22373,,,
22374,7,121.085806,29.919418,梁弄镇,,330281,0574,330281114000,,,,,,,,,,2,100,1010,1288,2895,22374,,,
22375,7,121.1304,29.821409,大岚镇,,330281,0574,330281115000,,,,,,,,,,2,100,1010,1288,2895,22375,,,
22376,7,121.119473,29.736238,四明山镇,,330281,0574,330281116000,,,,,,,,,,2,100,1010,1288,2895,22376,,,
22377,7,121.20487,29.876799,鹿亭乡,,330281,0574,330281201000,,,,,,,,,,2,100,1010,1288,2895,22377,,,
22378,7,121.227922,30.184916,宗汉街道,,330282,0574,330282002000,,,,,,,,,,2,100,1010,1288,2896,22378,,,
22379,7,121.260127,30.225303,坎墩街道,,330282,0574,330282003000,,,,,,,,,,2,100,1010,1288,2896,22379,,,
22380,7,121.238287,30.165808,浒山街道,,330282,0574,330282004000,,,,,,,,,,2,100,1010,1288,2896,22380,,,
22381,7,121.272317,30.166328,白沙路街道,,330282,0574,330282005000,,,,,,,,,,2,100,1010,1288,2896,22381,,,
22382,7,121.266579,30.169665,古塘街道,,330282,0574,330282006000,,,,,,,,,,2,100,1010,1288,2896,22382,,,
22383,7,121.455864,30.11684,掌起镇,,330282,0574,330282104000,,,,,,,,,,2,100,1010,1288,2896,22383,,,
22384,7,121.406644,30.167591,观海卫镇,,330282,0574,330282107000,,,,,,,,,,2,100,1010,1288,2896,22384,,,
22385,7,121.399164,30.221809,附海镇,,330282,0574,330282108000,,,,,,,,,,2,100,1010,1288,2896,22385,,,
22386,7,121.358225,30.159619,桥头镇,,330282,0574,330282109000,,,,,,,,,,2,100,1010,1288,2896,22386,,,
22387,7,121.304905,30.156434,匡堰镇,,330282,0574,330282110000,,,,,,,,,,2,100,1010,1288,2896,22387,,,
22388,7,121.322261,30.17513,逍林镇,,330282,0574,330282111000,,,,,,,,,,2,100,1010,1288,2896,22388,,,
22389,7,121.36796,30.246632,新浦镇,,330282,0574,330282112000,,,,,,,,,,2,100,1010,1288,2896,22389,,,
22390,7,121.329905,30.233738,胜山镇,,330282,0574,330282113000,,,,,,,,,,2,100,1010,1288,2896,22390,,,
22391,7,121.242141,30.131234,横河镇,,330282,0574,330282114000,,,,,,,,,,2,100,1010,1288,2896,22391,,,
22392,7,121.271595,30.269677,崇寿镇,,330282,0574,330282116000,,,,,,,,,,2,100,1010,1288,2896,22392,,,
22393,7,121.219028,30.268825,庵东镇,,330282,0574,330282118000,,,,,,,,,,2,100,1010,1288,2896,22393,,,
22394,7,121.180689,30.224828,长河镇,,330282,0574,330282120000,,,,,,,,,,2,100,1010,1288,2896,22394,,,
22395,7,121.135691,30.186197,周巷镇,,330282,0574,330282121000,,,,,,,,,,2,100,1010,1288,2896,22395,,,
22396,7,121.481933,30.102658,龙山镇,,330282,0574,330282123000,,,,,,,,,,2,100,1010,1288,2896,22396,,,
22397,7,121.120689,30.269798,慈溪市农垦场,,330282,0574,330282400000,,,,,,,,,,2,100,1010,1288,2896,22397,,,
22398,7,121.221207,30.326191,慈溪市林场,,330282,0574,330282401000,,,,,,,,,,2,100,1010,1288,2896,22398,,,
22399,7,121.561336,30.126877,慈东工业区,,330282,0574,330282402000,,,,,,,,,,2,100,1010,1288,2896,22399,,,
22400,7,120.659336,28.012207,五马街道,,330302,0577,330302006000,,,,,,,,,,2,100,1010,1289,2897,22400,,,
22401,7,120.767675,28.001363,七都街道,,330302,0577,330302023000,,,,,,,,,,2,100,1010,1289,2897,22401,,,
22402,7,120.691383,28.004268,滨江街道,,330302,0577,330302024000,,,,,,,,,,2,100,1010,1289,2897,22402,,,
22403,7,120.651642,27.991158,南汇街道,,330302,0577,330302025000,,,,,,,,,,2,100,1010,1289,2897,22403,,,
22404,7,120.643699,28.004051,松台街道,,330302,0577,330302026000,,,,,,,,,,2,100,1010,1289,2897,22404,,,
22405,7,120.603107,28.018121,双屿街道,,330302,0577,330302027000,,,,,,,,,,2,100,1010,1289,2897,22405,,,
22406,7,120.593887,28.079045,仰义街道,,330302,0577,330302028000,,,,,,,,,,2,100,1010,1289,2897,22406,,,
22407,7,120.660585,28.006039,大南街道,,330302,0577,330302029000,,,,,,,,,,2,100,1010,1289,2897,22407,,,
22408,7,120.691374,28.004272,蒲鞋市街道,,330302,0577,330302030000,,,,,,,,,,2,100,1010,1289,2897,22408,,,
22409,7,120.663746,27.981756,南郊街道,,330302,0577,330302031000,,,,,,,,,,2,100,1010,1289,2897,22409,,,
22410,7,120.632683,28.009504,广化街道,,330302,0577,330302032000,,,,,,,,,,2,100,1010,1289,2897,22410,,,
22411,7,120.579654,28.039818,丰门街道,,330302,0577,330302033000,,,,,,,,,,2,100,1010,1289,2897,22411,,,
22412,7,120.505707,28.064642,藤桥镇,,330302,0577,330302102000,,,,,,,,,,2,100,1010,1289,2897,22412,,,
22413,7,120.490454,28.132627,山福镇,,330302,0577,330302105000,,,,,,,,,,2,100,1010,1289,2897,22413,,,
22414,7,120.830781,27.913089,永中街道,,330303,0577,330303001000,,,,,,,,,,2,100,1010,1289,2898,22414,,,
22415,7,120.724235,27.998001,蒲州街道,,330302,0577,330303002000,,,,,,,,,,2,100,1010,1289,2898,22415,,,
22416,7,120.83838,27.912252,海滨街道,,330303,0577,330303003000,,,,,,,,,,2,100,1010,1289,2898,22416,,,
22417,7,120.824879,27.901707,永兴街道,,330303,0577,330303004000,,,,,,,,,,2,100,1010,1289,2898,22417,,,
22418,7,120.766023,27.969884,状元街道,,330303,0577,330303006000,,,,,,,,,,2,100,1010,1289,2898,22418,,,
22419,7,120.77963,27.94495,瑶溪街道,,330303,0577,330303007000,,,,,,,,,,2,100,1010,1289,2898,22419,,,
22420,7,120.636094,28.005603,景山街道,,330304,0577,330304001000,,,,,,,,,,2,100,1010,1289,2899,22420,,,
22421,7,120.682932,27.973227,梧田街道,,330304,0577,330304002000,,,,,,,,,,2,100,1010,1289,2899,22421,,,
22422,7,120.685055,27.92604,南白象街道,,330304,0577,330304003000,,,,,,,,,,2,100,1010,1289,2899,22422,,,
22423,7,120.709509,27.909494,茶山街道,,330304,0577,330304004000,,,,,,,,,,2,100,1010,1289,2899,22423,,,
22424,7,120.614408,27.954449,娄桥街道,,330304,0577,330304005000,,,,,,,,,,2,100,1010,1289,2899,22424,,,
22425,7,120.628081,27.984575,新桥街道,,330304,0577,330304006000,,,,,,,,,,2,100,1010,1289,2899,22425,,,
22426,7,120.71976,27.98009,三垟街道,,330304,0577,330304007000,,,,,,,,,,2,100,1010,1289,2899,22426,,,
22427,7,120.530234,27.994542,瞿溪街道,,330304,0577,330304008000,,,,,,,,,,2,100,1010,1289,2899,22427,,,
22428,7,120.57367,27.991375,郭溪街道,,330304,0577,330304009000,,,,,,,,,,2,100,1010,1289,2899,22428,,,
22429,7,120.585007,27.956866,潘桥街道,,330304,0577,330304010000,,,,,,,,,,2,100,1010,1289,2899,22429,,,
22430,7,120.638508,27.894878,丽岙街道,,330304,0577,330304011000,,,,,,,,,,2,100,1010,1289,2899,22430,,,
22431,7,120.687183,27.886826,仙岩街道,,330304,0577,330304012000,,,,,,,,,,2,100,1010,1289,2899,22431,,,
22432,7,120.48394,28.029494,泽雅镇,,330304,0577,330304108000,,,,,,,,,,2,100,1010,1289,2899,22432,,,
22433,7,121.152151,27.835916,北岙街道,,330305,0577,330305001000,,,,,,,,,,2,100,1010,1289,2900,22433,,,
22434,7,120.888452,27.96357,灵昆街道,,330305,0577,330305002000,,,,,,,,,,2,100,1010,1289,2900,22434,,,
22435,7,121.157887,27.825782,东屏街道,,330305,0577,330305003000,,,,,,,,,,2,100,1010,1289,2900,22435,,,
22436,7,121.128246,27.888031,元觉街道,,330305,0577,330305004000,,,,,,,,,,2,100,1010,1289,2900,22436,,,
22437,7,121.062349,27.856105,霓屿街道,,330305,0577,330305005000,,,,,,,,,,2,100,1010,1289,2900,22437,,,
22438,7,121.09213,27.96144,大门镇,,330305,0577,330305101000,,,,,,,,,,2,100,1010,1289,2900,22438,,,
22439,7,121.182656,27.978974,鹿西乡,,330305,0577,330305202000,,,,,,,,,,2,100,1010,1289,2900,22439,,,
22440,7,120.682144,28.150591,东城街道,,330324,0577,330324001000,,,,,,,,,,2,100,1010,1289,2901,22440,,,
22441,7,120.690332,28.154637,北城街道,,330324,0577,330324002000,,,,,,,,,,2,100,1010,1289,2901,22441,,,
22442,7,120.68343,28.14923,南城街道,,330324,0577,330324003000,,,,,,,,,,2,100,1010,1289,2901,22442,,,
22443,7,120.687403,28.0467,三江街道,,330324,0577,330324006000,,,,,,,,,,2,100,1010,1289,2901,22443,,,
22444,7,120.691213,28.081861,黄田街道,,330324,0577,330324007000,,,,,,,,,,2,100,1010,1289,2901,22444,,,
22445,7,120.796498,28.033831,乌牛街道,,330324,0577,330324008000,,,,,,,,,,2,100,1010,1289,2901,22445,,,
22446,7,120.658831,28.04048,瓯北街道,,330324,0577,330324009000,,,,,,,,,,2,100,1010,1289,2901,22446,,,
22447,7,120.482198,28.168408,桥头镇,,330324,0577,330324102000,,,,,,,,,,2,100,1010,1289,2901,22447,,,
22448,7,120.556831,28.161355,桥下镇,,330324,0577,330324104000,,,,,,,,,,2,100,1010,1289,2901,22448,,,
22449,7,120.637951,28.280451,大若岩镇,,330324,0577,330324105000,,,,,,,,,,2,100,1010,1289,2901,22449,,,
22450,7,120.562011,28.311573,碧莲镇,,330324,0577,330324106000,,,,,,,,,,2,100,1010,1289,2901,22450,,,
22451,7,120.489052,28.343432,巽宅镇,,330324,0577,330324107000,,,,,,,,,,2,100,1010,1289,2901,22451,,,
22452,7,120.73556,28.338988,岩头镇,,330324,0577,330324108000,,,,,,,,,,2,100,1010,1289,2901,22452,,,
22453,7,120.771192,28.315506,枫林镇,,330324,0577,330324109000,,,,,,,,,,2,100,1010,1289,2901,22453,,,
22454,7,120.731229,28.446183,岩坦镇,,330324,0577,330324110000,,,,,,,,,,2,100,1010,1289,2901,22454,,,
22455,7,120.764262,28.195742,沙头镇,,330324,0577,330324111000,,,,,,,,,,2,100,1010,1289,2901,22455,,,
22456,7,120.834886,28.374656,鹤盛镇,,330324,0577,330324112000,,,,,,,,,,2,100,1010,1289,2901,22456,,,
22457,7,120.522045,28.213955,金溪镇,,330324,0577,330324113000,,,,,,,,,,2,100,1010,1289,2901,22457,,,
22458,7,120.682144,28.150591,云岭乡,,330324,0577,330324226000,,,,,,,,,,2,100,1010,1289,2901,22458,,,
22459,7,120.528466,28.280688,茗岙乡,,330324,0577,330324227000,,,,,,,,,,2,100,1010,1289,2901,22459,,,
22460,7,120.682144,28.150591,溪下乡,,330324,0577,330324228000,,,,,,,,,,2,100,1010,1289,2901,22460,,,
22461,7,120.682144,28.150591,界坑乡,,330324,0577,330324229000,,,,,,,,,,2,100,1010,1289,2901,22461,,,
22462,7,120.682144,28.150591,县特产场场区,,330324,0577,330324400000,,,,,,,,,,2,100,1010,1289,2901,22462,,,
22463,7,120.682144,28.150591,四海山林场,,330324,0577,330324401000,,,,,,,,,,2,100,1010,1289,2901,22463,,,
22464,7,120.858674,28.276059,正江山林场,,330324,0577,330324402000,,,,,,,,,,2,100,1010,1289,2901,22464,,,
22465,7,120.558056,27.668686,昆阳镇,,330326,0577,330326100000,,,,,,,,,,2,100,1010,1289,2902,22465,,,
22466,7,120.559037,27.591027,鳌江镇,,330326,0577,330326101000,,,,,,,,,,2,100,1010,1289,2902,22466,,,
22467,7,120.323356,27.631266,水头镇,,330326,0577,330326102000,,,,,,,,,,2,100,1010,1289,2902,22467,,,
22468,7,120.476296,27.569777,萧江镇,,330326,0577,330326103000,,,,,,,,,,2,100,1010,1289,2902,22468,,,
22469,7,120.331277,27.679276,腾蛟镇,,330326,0577,330326105000,,,,,,,,,,2,100,1010,1289,2902,22469,,,
22470,7,120.241077,27.63361,山门镇,,330326,0577,330326107000,,,,,,,,,,2,100,1010,1289,2902,22470,,,
22471,7,120.198455,27.562554,顺溪镇,,330326,0577,330326108000,,,,,,,,,,2,100,1010,1289,2902,22471,,,
22472,7,120.255653,27.614106,南雁镇,,330326,0577,330326109000,,,,,,,,,,2,100,1010,1289,2902,22472,,,
22473,7,120.60605,27.721514,万全镇,,330326,0577,330326117000,,,,,,,,,,2,100,1010,1289,2902,22473,,,
22474,7,120.666043,27.667396,海西镇,,330326,0577,330326118000,,,,,,,,,,2,100,1010,1289,2902,22474,,,
22475,7,121.083856,27.462385,南麂镇,,330326,0577,330326119000,,,,,,,,,,2,100,1010,1289,2902,22475,,,
22476,7,120.42604,27.590404,麻步镇,,330326,0577,330326120000,,,,,,,,,,2,100,1010,1289,2902,22476,,,
22477,7,120.565793,27.661918,凤卧镇,,330326,0577,330326121000,,,,,,,,,,2,100,1010,1289,2902,22477,,,
22478,7,120.196266,27.652676,怀溪镇,,330326,0577,330326122000,,,,,,,,,,2,100,1010,1289,2902,22478,,,
22479,7,120.227312,27.548477,青街畲族乡,,330326,0577,330326214000,,,,,,,,,,2,100,1010,1289,2902,22479,,,
22480,7,120.30345,27.563944,闹村乡,,330326,0577,330326217000,,,,,,,,,,2,100,1010,1289,2902,22480,,,
22481,7,120.667625,27.776375,滨海新区,,330381,0577,330326401000,,,,,,,,,,2,100,1010,1289,2902,22481,,,
22482,7,120.401691,27.500554,灵溪镇,,330327,0577,330327100000,,,,,,,,,,2,100,1010,1289,2903,22482,,,
22483,7,120.54496,27.513499,宜山镇,,330327,0577,330327103000,,,,,,,,,,2,100,1010,1289,2903,22483,,,
22484,7,120.571449,27.479525,钱库镇,,330327,0577,330327104000,,,,,,,,,,2,100,1010,1289,2903,22484,,,
22485,7,120.602889,27.429853,金乡镇,,330327,0577,330327107000,,,,,,,,,,2,100,1010,1289,2903,22485,,,
22486,7,120.450152,27.459814,藻溪镇,,330327,0577,330327112000,,,,,,,,,,2,100,1010,1289,2903,22486,,,
22487,7,120.309992,27.460025,桥墩镇,,330327,0577,330327113000,,,,,,,,,,2,100,1010,1289,2903,22487,,,
22488,7,120.406772,27.341943,矾山镇,,330327,0577,330327116000,,,,,,,,,,2,100,1010,1289,2903,22488,,,
22489,7,120.512351,27.334933,赤溪镇,,330327,0577,330327117000,,,,,,,,,,2,100,1010,1289,2903,22489,,,
22490,7,120.463168,27.264076,马站镇,,330327,0577,330327118000,,,,,,,,,,2,100,1010,1289,2903,22490,,,
22491,7,120.526901,27.47282,望里镇,,330327,0577,330327122000,,,,,,,,,,2,100,1010,1289,2903,22491,,,
22492,7,120.652419,27.449645,炎亭镇,,330327,0577,330327123000,,,,,,,,,,2,100,1010,1289,2903,22492,,,
22493,7,120.603686,27.388606,大渔镇,,330327,0577,330327124000,,,,,,,,,,2,100,1010,1289,2903,22493,,,
22494,7,120.194816,27.501705,莒溪镇,,330327,0577,330327125000,,,,,,,,,,2,100,1010,1289,2903,22494,,,
22495,7,120.425766,27.51828,南宋镇,,330327,0577,330327126000,,,,,,,,,,2,100,1010,1289,2903,22495,,,
22496,7,120.470936,27.170995,霞关镇,,330327,0577,330327127000,,,,,,,,,,2,100,1010,1289,2903,22496,,,
22497,7,120.460272,27.228363,沿浦镇,,330327,0577,330327128000,,,,,,,,,,2,100,1010,1289,2903,22497,,,
22498,7,120.452778,27.336807,凤阳畲族乡,,330327,0577,330327216000,,,,,,,,,,2,100,1010,1289,2903,22498,,,
22499,7,120.432643,27.27488,岱岭畲族乡,,330327,0577,330327218000,,,,,,,,,,2,100,1010,1289,2903,22499,,,
22500,7,120.088613,27.78965,大峃镇,,330328,0577,330328100000,,,,,,,,,,2,100,1010,1289,2904,22500,,,
22501,7,120.006294,27.831956,百丈漈镇,,330328,0577,330328101000,,,,,,,,,,2,100,1010,1289,2904,22501,,,
22502,7,119.96351,27.91748,南田镇,,330328,0577,330328102000,,,,,,,,,,2,100,1010,1289,2904,22502,,,
22503,7,119.933894,27.841684,西坑畲族镇,,330328,0577,330328103000,,,,,,,,,,2,100,1010,1289,2904,22503,,,
22504,7,119.995629,27.758087,黄坦镇,,330328,0577,330328104000,,,,,,,,,,2,100,1010,1289,2904,22504,,,
22505,7,120.056754,27.665187,珊溪镇,,330328,0577,330328105000,,,,,,,,,,2,100,1010,1289,2904,22505,,,
22506,7,120.088565,27.69386,巨屿镇,,330328,0577,330328106000,,,,,,,,,,2,100,1010,1289,2904,22506,,,
22507,7,120.145444,27.875277,玉壶镇,,330328,0577,330328107000,,,,,,,,,,2,100,1010,1289,2904,22507,,,
22508,7,120.152439,27.751281,峃口镇,,330328,0577,330328108000,,,,,,,,,,2,100,1010,1289,2904,22508,,,
22509,7,120.135043,27.827084,周壤镇,,330328,0577,330328109000,,,,,,,,,,2,100,1010,1289,2904,22509,,,
22510,7,119.858857,27.850812,铜铃山镇,,330328,0577,330328110000,,,,,,,,,,2,100,1010,1289,2904,22510,,,
22511,7,120.021052,27.875397,二源镇,,330328,0577,330328111000,,,,,,,,,,2,100,1010,1289,2904,22511,,,
22512,7,120.16772,27.722286,周山畲族乡,,330328,0577,330328217000,,,,,,,,,,2,100,1010,1289,2904,22512,,,
22513,7,120.080888,27.587835,桂山乡,,330328,0577,330328225000,,,,,,,,,,2,100,1010,1289,2904,22513,,,
22514,7,120.156961,27.707632,双桂乡,,330328,0577,330328226000,,,,,,,,,,2,100,1010,1289,2904,22514,,,
22515,7,120.219494,27.744282,平和乡,,330328,0577,330328227000,,,,,,,,,,2,100,1010,1289,2904,22515,,,
22516,7,120.197565,27.717716,公阳乡,,330328,0577,330328228000,,,,,,,,,,2,100,1010,1289,2904,22516,,,
22517,7,119.712574,27.556388,罗阳镇,,330329,0577,330329100000,,,,,,,,,,2,100,1010,1289,2905,22517,,,
22518,7,119.784861,27.666772,司前畲族镇,,330329,0577,330329101000,,,,,,,,,,2,100,1010,1289,2905,22518,,,
22519,7,119.863432,27.647086,百丈镇,,330329,0577,330329102000,,,,,,,,,,2,100,1010,1289,2905,22519,,,
22520,7,119.913368,27.559044,筱村镇,,330329,0577,330329103000,,,,,,,,,,2,100,1010,1289,2905,22520,,,
22521,7,120.004139,27.468579,泗溪镇,,330329,0577,330329104000,,,,,,,,,,2,100,1010,1289,2905,22521,,,
22522,7,120.142559,27.433818,彭溪镇,,330329,0577,330329105000,,,,,,,,,,2,100,1010,1289,2905,22522,,,
22523,7,120.045682,27.386667,雅阳镇,,330329,0577,330329106000,,,,,,,,,,2,100,1010,1289,2905,22523,,,
22524,7,119.904604,27.361593,仕阳镇,,330329,0577,330329107000,,,,,,,,,,2,100,1010,1289,2905,22524,,,
22525,7,119.914876,27.424293,三魁镇,,330329,0577,330329109000,,,,,,,,,,2,100,1010,1289,2905,22525,,,
22526,7,119.938444,27.62039,南浦溪镇,,330329,0577,330329111000,,,,,,,,,,2,100,1010,1289,2905,22526,,,
22527,7,119.81026,27.321715,龟湖镇,,330329,0577,330329112000,,,,,,,,,,2,100,1010,1289,2905,22527,,,
22528,7,119.883449,27.43565,西旸镇,,330329,0577,330329113000,,,,,,,,,,2,100,1010,1289,2905,22528,,,
22529,7,119.772394,27.700544,竹里畲族乡,,330329,0577,330329204000,,,,,,,,,,2,100,1010,1289,2905,22529,,,
22530,7,119.945554,27.662211,包垟乡,,330329,0577,330329225000,,,,,,,,,,2,100,1010,1289,2905,22530,,,
22531,7,119.989205,27.508321,凤垟乡,,330329,0577,330329226000,,,,,,,,,,2,100,1010,1289,2905,22531,,,
22532,7,119.717649,27.556884,东溪乡,,330329,0577,330329227000,,,,,,,,,,2,100,1010,1289,2905,22532,,,
22533,7,119.999819,27.38513,柳峰乡,,330329,0577,330329228000,,,,,,,,,,2,100,1010,1289,2905,22533,,,
22534,7,119.717649,27.556884,雪溪乡,,330329,0577,330329229000,,,,,,,,,,2,100,1010,1289,2905,22534,,,
22535,7,119.88777,27.453697,大安乡,,330329,0577,330329230000,,,,,,,,,,2,100,1010,1289,2905,22535,,,
22536,7,119.717649,27.556884,乌岩岭自然保护区,,330329,0577,330329400000,,,,,,,,,,2,100,1010,1289,2905,22536,,,
22537,7,120.818233,27.874078,海城街道,,330303,0577,330371005000,,,,,,,,,,2,100,1010,1289,2906,22537,,,
22538,7,120.806301,27.874674,沙城街道,,330303,0577,330371008000,,,,,,,,,,2,100,1010,1289,2906,22538,,,
22539,7,120.792798,27.86334,天河街道,,330303,0577,330371009000,,,,,,,,,,2,100,1010,1289,2906,22539,,,
22540,7,120.8182,27.86208,星海街道,,330303,0577,330371011000,,,,,,,,,,2,100,1010,1289,2906,22540,,,
22541,7,120.639656,27.776828,安阳街道,,330381,0577,330381001000,,,,,,,,,,2,100,1010,1289,2907,22541,,,
22542,7,120.638095,27.782358,玉海街道,,330381,0577,330381002000,,,,,,,,,,2,100,1010,1289,2907,22542,,,
22543,7,120.634699,27.787451,锦湖街道,,330381,0577,330381003000,,,,,,,,,,2,100,1010,1289,2907,22543,,,
22544,7,120.645545,27.760196,东山街道,,330381,0577,330381004000,,,,,,,,,,2,100,1010,1289,2907,22544,,,
22545,7,120.673913,27.765258,上望街道,,330381,0577,330381005000,,,,,,,,,,2,100,1010,1289,2907,22545,,,
22546,7,120.679161,27.779203,莘塍街道,,330381,0577,330381007000,,,,,,,,,,2,100,1010,1289,2907,22546,,,
22547,7,120.694995,27.797091,汀田街道,,330381,0577,330381008000,,,,,,,,,,2,100,1010,1289,2907,22547,,,
22548,7,120.618819,27.760156,飞云街道,,330381,0577,330381009000,,,,,,,,,,2,100,1010,1289,2907,22548,,,
22549,7,120.550394,27.783207,仙降街道,,330381,0577,330381010000,,,,,,,,,,2,100,1010,1289,2907,22549,,,
22550,7,120.653267,27.717802,南滨街道,,330381,0577,330381011000,,,,,,,,,,2,100,1010,1289,2907,22550,,,
22551,7,120.590766,27.836593,潘岱街道,,330381,0577,330381012000,,,,,,,,,,2,100,1010,1289,2907,22551,,,
22552,7,120.655148,27.778657,云周街道,,330381,0577,330381013000,,,,,,,,,,2,100,1010,1289,2907,22552,,,
22553,7,120.693828,27.821201,塘下镇,,330381,0577,330381101000,,,,,,,,,,2,100,1010,1289,2907,22553,,,
22554,7,120.457523,27.77594,马屿镇,,330381,0577,330381116000,,,,,,,,,,2,100,1010,1289,2907,22554,,,
22555,7,120.498024,27.841534,陶山镇,,330381,0577,330381120000,,,,,,,,,,2,100,1010,1289,2907,22555,,,
22556,7,120.397753,27.90406,湖岭镇,,330381,0577,330381122000,,,,,,,,,,2,100,1010,1289,2907,22556,,,
22557,7,120.287601,27.764298,高楼镇,,330381,0577,330381125000,,,,,,,,,,2,100,1010,1289,2907,22557,,,
22558,7,120.560074,27.849578,桐浦镇,,330381,0577,330381126000,,,,,,,,,,2,100,1010,1289,2907,22558,,,
22559,7,120.655148,27.778657,林川镇,,330381,0577,330381127000,,,,,,,,,,2,100,1010,1289,2907,22559,,,
22560,7,120.460817,27.708347,曹村镇,,330381,0577,330381128000,,,,,,,,,,2,100,1010,1289,2907,22560,,,
22561,7,120.655148,27.778657,平阳坑镇,,330381,0577,330381129000,,,,,,,,,,2,100,1010,1289,2907,22561,,,
22562,7,120.384655,27.921606,芳庄乡,,330381,0577,330381221000,,,,,,,,,,2,100,1010,1289,2907,22562,,,
22563,7,120.655148,27.778657,北麂乡,,330381,0577,330381222000,,,,,,,,,,2,100,1010,1289,2907,22563,,,
22564,7,120.98603,28.122671,城东街道,,330382,0577,330382001000,,,,,,,,,,2,100,1010,1289,2908,22564,,,
22565,7,120.965949,28.110603,乐成街道,,330382,0577,330382002000,,,,,,,,,,2,100,1010,1289,2908,22565,,,
22566,7,120.96428,28.10127,城南街道,,330382,0577,330382003000,,,,,,,,,,2,100,1010,1289,2908,22566,,,
22567,7,120.967147,28.116083,盐盆街道,,330382,0577,330382004000,,,,,,,,,,2,100,1010,1289,2908,22567,,,
22568,7,120.974641,28.023841,翁垟街道,,330382,0577,330382005000,,,,,,,,,,2,100,1010,1289,2908,22568,,,
22569,7,120.864809,28.087197,白石街道,,330382,0577,330382006000,,,,,,,,,,2,100,1010,1289,2908,22569,,,
22570,7,121.021996,28.189268,石帆街道,,330382,0577,330382007000,,,,,,,,,,2,100,1010,1289,2908,22570,,,
22571,7,121.033441,28.166772,天成街道,,330382,0577,330382008000,,,,,,,,,,2,100,1010,1289,2908,22571,,,
22572,7,121.158018,28.408696,大荆镇,,330382,0577,330382101000,,,,,,,,,,2,100,1010,1289,2908,22572,,,
22573,7,121.072903,28.414616,仙溪镇,,330382,0577,330382102000,,,,,,,,,,2,100,1010,1289,2908,22573,,,
22574,7,121.143873,28.357764,雁荡镇,,330382,0577,330382104000,,,,,,,,,,2,100,1010,1289,2908,22574,,,
22575,7,121.03158,28.296856,芙蓉镇,,330382,0577,330382105000,,,,,,,,,,2,100,1010,1289,2908,22575,,,
22576,7,121.105935,28.272245,清江镇,,330382,0577,330382106000,,,,,,,,,,2,100,1010,1289,2908,22576,,,
22577,7,121.038129,28.220406,虹桥镇,,330382,0577,330382108000,,,,,,,,,,2,100,1010,1289,2908,22577,,,
22578,7,120.997332,28.229271,淡溪镇,,330382,0577,330382111000,,,,,,,,,,2,100,1010,1289,2908,22578,,,
22579,7,120.892196,28.038249,柳市镇,,330382,0577,330382114000,,,,,,,,,,2,100,1010,1289,2908,22579,,,
22580,7,120.86089,28.033998,北白象镇,,330382,0577,330382115000,,,,,,,,,,2,100,1010,1289,2908,22580,,,
22581,7,121.205618,28.393803,湖雾镇,,330382,0577,330382121000,,,,,,,,,,2,100,1010,1289,2908,22581,,,
22582,7,120.967147,28.116083,南塘镇,,330382,0577,330382122000,,,,,,,,,,2,100,1010,1289,2908,22582,,,
22583,7,121.088121,28.183787,南岳镇,,330382,0577,330382123000,,,,,,,,,,2,100,1010,1289,2908,22583,,,
22584,7,121.061448,28.169483,蒲岐镇,,330382,0577,330382124000,,,,,,,,,,2,100,1010,1289,2908,22584,,,
22585,7,120.831536,27.996046,磐石镇,,330382,0577,330382125000,,,,,,,,,,2,100,1010,1289,2908,22585,,,
22586,7,121.122268,28.488642,智仁乡,,330382,0577,330382210000,,,,,,,,,,2,100,1010,1289,2908,22586,,,
22587,7,120.967147,28.116083,龙西乡,,330382,0577,330382211000,,,,,,,,,,2,100,1010,1289,2908,22587,,,
22588,7,120.967147,28.116083,岭底乡,,330382,0577,330382212000,,,,,,,,,,2,100,1010,1289,2908,22588,,,
22589,7,120.537832,27.561541,龙港县直辖村级区划,,330327,0577,330383198000,,,,,,,,,,2,100,1010,1289,2909,22589,,,
22590,7,120.755558,30.761821,建设街道,,330402,0573,330402007000,,,,,,,,,,2,100,1010,1290,2910,22590,,,
22591,7,120.768341,30.776047,解放街道,,330402,0573,330402008000,,,,,,,,,,2,100,1010,1290,2910,22591,,,
22592,7,120.743804,30.771653,新嘉街道,,330402,0573,330402009000,,,,,,,,,,2,100,1010,1290,2910,22592,,,
22593,7,120.766952,30.742596,南湖街道,,330402,0573,330402010000,,,,,,,,,,2,100,1010,1290,2910,22593,,,
22594,7,120.732048,30.756328,新兴街道,,330402,0573,330402011000,,,,,,,,,,2,100,1010,1290,2910,22594,,,
22595,7,120.783025,30.747842,城南街道,,330402,0573,330402012000,,,,,,,,,,2,100,1010,1290,2910,22595,,,
22596,7,120.774767,30.737493,东栅街道,,330402,0573,330402013000,,,,,,,,,,2,100,1010,1290,2910,22596,,,
22597,7,120.757442,30.727767,长水街道,,330402,0573,330402014000,,,,,,,,,,2,100,1010,1290,2910,22597,,,
22598,7,120.832974,30.811398,七星街道,,330402,0573,330402015000,,,,,,,,,,2,100,1010,1290,2910,22598,,,
22599,7,120.861032,30.659286,凤桥镇,,330402,0573,330402100000,,,,,,,,,,2,100,1010,1290,2910,22599,,,
22600,7,120.809324,30.672285,余新镇,,330402,0573,330402101000,,,,,,,,,,2,100,1010,1290,2910,22600,,,
22601,7,120.922342,30.705342,新丰镇,,330402,0573,330402103000,,,,,,,,,,2,100,1010,1290,2910,22601,,,
22602,7,120.860602,30.742575,大桥镇,,330402,0573,330402105000,,,,,,,,,,2,100,1010,1290,2910,22602,,,
22603,7,120.714993,30.761587,新城街道,,330411,0573,330411002000,,,,,,,,,,2,100,1010,1290,2911,22603,,,
22604,7,120.724708,30.775949,嘉北街道,,330411,0573,330411003000,,,,,,,,,,2,100,1010,1290,2911,22604,,,
22605,7,120.709018,30.765168,塘汇街道,,330411,0573,330411004000,,,,,,,,,,2,100,1010,1290,2911,22605,,,
22606,7,120.671414,30.755809,高照街道,,330411,0573,330411005000,,,,,,,,,,2,100,1010,1290,2911,22606,,,
22607,7,120.73326,30.895703,王江泾镇,,330411,0573,330411101000,,,,,,,,,,2,100,1010,1290,2911,22607,,,
22608,7,120.752796,30.826719,油车港镇,,330411,0573,330411103000,,,,,,,,,,2,100,1010,1290,2911,22608,,,
22609,7,120.623177,30.797007,新塍镇,,330411,0573,330411104000,,,,,,,,,,2,100,1010,1290,2911,22609,,,
22610,7,120.714371,30.627662,王店镇,,330411,0573,330411105000,,,,,,,,,,2,100,1010,1290,2911,22610,,,
22611,7,120.666755,30.682269,洪合镇,,330411,0573,330411106000,,,,,,,,,,2,100,1010,1290,2911,22611,,,
22612,7,120.91602,30.84779,魏塘街道,,330421,0573,330421001000,,,,,,,,,,2,100,1010,1290,2912,22612,,,
22613,7,120.920574,30.834592,罗星街道,,330421,0573,330421002000,,,,,,,,,,2,100,1010,1290,2912,22613,,,
22614,7,120.974563,30.836839,惠民街道,,330421,0573,330421003000,,,,,,,,,,2,100,1010,1290,2912,22614,,,
22615,7,120.949592,30.78296,大云镇,,330421,0573,330421102000,,,,,,,,,,2,100,1010,1290,2912,22615,,,
22616,7,120.891293,30.938787,西塘镇,,330421,0573,330421103000,,,,,,,,,,2,100,1010,1290,2912,22616,,,
22617,7,120.89927,30.886745,干窑镇,,330421,0573,330421105000,,,,,,,,,,2,100,1010,1290,2912,22617,,,
22618,7,120.814795,30.96635,陶庄镇,,330421,0573,330421107000,,,,,,,,,,2,100,1010,1290,2912,22618,,,
22619,7,120.961381,30.909807,姚庄镇,,330421,0573,330421111000,,,,,,,,,,2,100,1010,1290,2912,22619,,,
22620,7,120.820413,30.889757,天凝镇,,330421,0573,330421112000,,,,,,,,,,2,100,1010,1290,2912,22620,,,
22621,7,120.943169,30.525564,武原街道,,330424,0573,330424001000,,,,,,,,,,2,100,1010,1290,2913,22621,,,
22622,7,121.004475,30.590279,西塘桥街道,,330424,0573,330424002000,,,,,,,,,,2,100,1010,1290,2913,22622,,,
22623,7,120.917166,30.431776,秦山街道,,330424,0573,330424004000,,,,,,,,,,2,100,1010,1290,2913,22623,,,
22624,7,120.946263,30.526436,望海街道,,330424,0573,330424005000,,,,,,,,,,2,100,1010,1290,2913,22624,,,
22625,7,120.823166,30.57612,沈荡镇,,330424,0573,330424101000,,,,,,,,,,2,100,1010,1290,2913,22625,,,
22626,7,120.782038,30.53917,百步镇,,330424,0573,330424102000,,,,,,,,,,2,100,1010,1290,2913,22626,,,
22627,7,120.857803,30.529857,于城镇,,330424,0573,330424103000,,,,,,,,,,2,100,1010,1290,2913,22627,,,
22628,7,120.880134,30.384594,澉浦镇,,330424,0573,330424105000,,,,,,,,,,2,100,1010,1290,2913,22628,,,
22629,7,120.844187,30.451308,通元镇,,330424,0573,330424106000,,,,,,,,,,2,100,1010,1290,2913,22629,,,
22630,7,120.707999,30.51529,硖石街道,,330481,0573,330481001000,,,,,,,,,,2,100,1010,1290,2914,22630,,,
22631,7,120.682817,30.513707,海洲街道,,330481,0573,330481002000,,,,,,,,,,2,100,1010,1290,2914,22631,,,
22632,7,120.700197,30.539913,海昌街道,,330481,0573,330481003000,,,,,,,,,,2,100,1010,1290,2914,22632,,,
22633,7,120.703082,30.461818,马桥街道,,330481,0573,330481004000,,,,,,,,,,2,100,1010,1290,2914,22633,,,
22634,7,120.361175,30.423884,许村镇,,330481,0573,330481101000,,,,,,,,,,2,100,1010,1290,2914,22634,,,
22635,7,120.447881,30.452988,长安镇,,330481,0573,330481103000,,,,,,,,,,2,100,1010,1290,2914,22635,,,
22636,7,120.50938,30.459494,周王庙镇,,330481,0573,330481105000,,,,,,,,,,2,100,1010,1290,2914,22636,,,
22637,7,120.642151,30.421584,丁桥镇,,330481,0573,330481106000,,,,,,,,,,2,100,1010,1290,2914,22637,,,
22638,7,120.613553,30.494313,斜桥镇,,330481,0573,330481107000,,,,,,,,,,2,100,1010,1290,2914,22638,,,
22639,7,120.793765,30.335052,黄湾镇,,330481,0573,330481108000,,,,,,,,,,2,100,1010,1290,2914,22639,,,
22640,7,120.558247,30.451674,盐官镇,,330481,0573,330481110000,,,,,,,,,,2,100,1010,1290,2914,22640,,,
22641,7,120.781114,30.411076,袁花镇,,330481,0573,330481112000,,,,,,,,,,2,100,1010,1290,2914,22641,,,
22642,7,121.036612,30.690761,当湖街道,,330482,0573,330482001000,,,,,,,,,,2,100,1010,1290,2915,22642,,,
22643,7,121.017026,30.726223,钟埭街道,,330482,0573,330482002000,,,,,,,,,,2,100,1010,1290,2915,22643,,,
22644,7,120.973398,30.66844,曹桥街道,,330482,0573,330482003000,,,,,,,,,,2,100,1010,1290,2915,22644,,,
22645,7,121.09557,30.603767,乍浦镇,,330482,0573,330482101000,,,,,,,,,,2,100,1010,1290,2915,22645,,,
22646,7,121.08105,30.819696,新埭镇,,330482,0573,330482102000,,,,,,,,,,2,100,1010,1290,2915,22646,,,
22647,7,121.190498,30.722256,新仓镇,,330482,0573,330482103000,,,,,,,,,,2,100,1010,1290,2915,22647,,,
22648,7,121.134569,30.750211,广陈镇,,330482,0573,330482106000,,,,,,,,,,2,100,1010,1290,2915,22648,,,
22649,7,121.098397,30.652788,林埭镇,,330482,0573,330482107000,,,,,,,,,,2,100,1010,1290,2915,22649,,,
22650,7,121.228599,30.678844,独山港镇,,330482,0573,330482108000,,,,,,,,,,2,100,1010,1290,2915,22650,,,
22651,7,120.568178,30.648651,梧桐街道,,330483,0573,330483001000,,,,,,,,,,2,100,1010,1290,2916,22651,,,
22652,7,120.46859,30.573323,凤鸣街道,,330483,0573,330483003000,,,,,,,,,,2,100,1010,1290,2916,22652,,,
22653,7,120.565099,30.630173,高桥街道,,330483,0573,330483004000,,,,,,,,,,2,100,1010,1290,2916,22653,,,
22654,7,120.487635,30.742671,乌镇镇,,330483,0573,330483100000,,,,,,,,,,2,100,1010,1290,2916,22654,,,
22655,7,120.618585,30.67705,濮院镇,,330483,0573,330483101000,,,,,,,,,,2,100,1010,1290,2916,22655,,,
22656,7,120.621399,30.574317,屠甸镇,,330483,0573,330483102000,,,,,,,,,,2,100,1010,1290,2916,22656,,,
22657,7,120.445551,30.624193,石门镇,,330483,0573,330483103000,,,,,,,,,,2,100,1010,1290,2916,22657,,,
22658,7,120.368302,30.632278,河山镇,,330483,0573,330483104000,,,,,,,,,,2,100,1010,1290,2916,22658,,,
22659,7,120.355862,30.574956,洲泉镇,,330483,0573,330483105000,,,,,,,,,,2,100,1010,1290,2916,22659,,,
22660,7,120.345864,30.49855,大麻镇,,330483,0573,330483106000,,,,,,,,,,2,100,1010,1290,2916,22660,,,
22661,7,120.44058,30.535419,崇福镇,,330483,0573,330483107000,,,,,,,,,,2,100,1010,1290,2916,22661,,,
22662,7,120.105078,30.860808,月河街道,,330502,0572,330502001000,,,,,,,,,,2,100,1010,1291,2917,22662,,,
22663,7,120.09807,30.86027,朝阳街道,,330502,0572,330502002000,,,,,,,,,,2,100,1010,1291,2917,22663,,,
22664,7,120.100456,30.866155,爱山街道,,330502,0572,330502003000,,,,,,,,,,2,100,1010,1291,2917,22664,,,
22665,7,120.107111,30.870882,飞英街道,,330502,0572,330502004000,,,,,,,,,,2,100,1010,1291,2917,22665,,,
22666,7,120.119248,30.877647,龙泉街道,,330502,0572,330502005000,,,,,,,,,,2,100,1010,1291,2917,22666,,,
22667,7,120.091555,30.878904,凤凰街道,,330502,0572,330502006000,,,,,,,,,,2,100,1010,1291,2917,22667,,,
22668,7,120.07488,30.859332,康山街道,,330502,0572,330502007000,,,,,,,,,,2,100,1010,1291,2917,22668,,,
22669,7,120.087385,30.905253,仁皇山街道,,330502,0572,330502008000,,,,,,,,,,2,100,1010,1291,2917,22669,,,
22670,7,120.110445,30.938047,滨湖街道,,330502,0572,330502009000,,,,,,,,,,2,100,1010,1291,2917,22670,,,
22671,7,120.077213,30.870339,龙溪街道,,330502,0572,330502010000,,,,,,,,,,2,100,1010,1291,2917,22671,,,
22672,7,120.035836,30.896539,杨家埠街道,,330502,0572,330502011000,,,,,,,,,,2,100,1010,1291,2917,22672,,,
22673,7,120.116844,30.876065,环渚街道,,330502,0572,330502012000,,,,,,,,,,2,100,1010,1291,2917,22673,,,
22674,7,120.185838,30.857151,湖东街道,,330502,0572,330502013000,,,,,,,,,,2,100,1010,1291,2917,22674,,,
22675,7,120.269168,30.86307,织里镇,,330502,0572,330502100000,,,,,,,,,,2,100,1010,1291,2917,22675,,,
22676,7,120.201288,30.861758,八里店镇,,330502,0572,330502101000,,,,,,,,,,2,100,1010,1291,2917,22676,,,
22677,7,120.00922,30.779444,妙西镇,,330502,0572,330502102000,,,,,,,,,,2,100,1010,1291,2917,22677,,,
22678,7,120.013991,30.66044,埭溪镇,,330502,0572,330502104000,,,,,,,,,,2,100,1010,1291,2917,22678,,,
22679,7,120.105056,30.679866,东林镇,,330502,0572,330502105000,,,,,,,,,,2,100,1010,1291,2917,22679,,,
22680,7,120.099812,30.842438,道场乡,,330502,0572,330502200000,,,,,,,,,,2,100,1010,1291,2917,22680,,,
22681,7,120.424891,30.867416,南浔镇,,330503,0572,330503100000,,,,,,,,,,2,100,1010,1291,2918,22681,,,
22682,7,120.330318,30.772513,双林镇,,330503,0572,330503101000,,,,,,,,,,2,100,1010,1291,2918,22682,,,
22683,7,120.42181,30.706989,练市镇,,330503,0572,330503102000,,,,,,,,,,2,100,1010,1291,2918,22683,,,
22684,7,120.317745,30.699747,善琏镇,,330503,0572,330503103000,,,,,,,,,,2,100,1010,1291,2918,22684,,,
22685,7,120.281653,30.835511,旧馆镇,,330503,0572,330503104000,,,,,,,,,,2,100,1010,1291,2918,22685,,,
22686,7,120.184305,30.713898,菱湖镇,,330503,0572,330503105000,,,,,,,,,,2,100,1010,1291,2918,22686,,,
22687,7,120.16291,30.777392,和孚镇,,330503,0572,330503106000,,,,,,,,,,2,100,1010,1291,2918,22687,,,
22688,7,120.241758,30.676043,千金镇,,330503,0572,330503107000,,,,,,,,,,2,100,1010,1291,2918,22688,,,
22689,7,120.26727,30.720497,石淙镇,,330503,0572,330503108000,,,,,,,,,,2,100,1010,1291,2918,22689,,,
22690,7,119.973654,30.534394,武康街道,,330521,0572,330521001000,,,,,,,,,,2,100,1010,1291,2919,22690,,,
22691,7,119.986849,30.527369,舞阳街道,,330521,0572,330521002000,,,,,,,,,,2,100,1010,1291,2919,22691,,,
22692,7,119.977401,30.54251,阜溪街道,,330521,0572,330521003000,,,,,,,,,,2,100,1010,1291,2919,22692,,,
22693,7,120.051424,30.515155,下渚湖街道,,330521,0572,330521004000,,,,,,,,,,2,100,1010,1291,2919,22693,,,
22694,7,120.084509,30.549875,乾元镇,,330521,0572,330521101000,,,,,,,,,,2,100,1010,1291,2919,22694,,,
22695,7,120.277847,30.616035,新市镇,,330521,0572,330521102000,,,,,,,,,,2,100,1010,1291,2919,22695,,,
22696,7,120.083603,30.637523,洛舍镇,,330521,0572,330521103000,,,,,,,,,,2,100,1010,1291,2919,22696,,,
22697,7,120.183168,30.651078,钟管镇,,330521,0572,330521104000,,,,,,,,,,2,100,1010,1291,2919,22697,,,
22698,7,120.145455,30.520748,雷甸镇,,330521,0572,330521110000,,,,,,,,,,2,100,1010,1291,2919,22698,,,
22699,7,120.264062,30.515287,禹越镇,,330521,0572,330521113000,,,,,,,,,,2,100,1010,1291,2919,22699,,,
22700,7,120.21863,30.529065,新安镇,,330521,0572,330521114000,,,,,,,,,,2,100,1010,1291,2919,22700,,,
22701,7,119.901161,30.599482,莫干山镇,,330521,0572,330521115000,,,,,,,,,,2,100,1010,1291,2919,22701,,,
22702,7,119.902443,31.002953,雉城街道,,330522,0572,330522001000,,,,,,,,,,2,100,1010,1291,2920,22702,,,
22703,7,119.910952,31.026666,画溪街道,,330522,0572,330522002000,,,,,,,,,,2,100,1010,1291,2920,22703,,,
22704,7,119.910952,31.026666,太湖街道,,330522,0572,330522003000,,,,,,,,,,2,100,1010,1291,2920,22704,,,
22705,7,119.898296,31.016011,龙山街道,,330522,0572,330522004000,,,,,,,,,,2,100,1010,1291,2920,22705,,,
22706,7,119.981747,30.983016,洪桥镇,,330522,0572,330522101000,,,,,,,,,,2,100,1010,1291,2920,22706,,,
22707,7,119.985814,30.951437,李家巷镇,,330522,0572,330522102000,,,,,,,,,,2,100,1010,1291,2920,22707,,,
22708,7,119.944829,31.097864,夹浦镇,,330522,0572,330522103000,,,,,,,,,,2,100,1010,1291,2920,22708,,,
22709,7,119.783129,30.936359,林城镇,,330522,0572,330522104000,,,,,,,,,,2,100,1010,1291,2920,22709,,,
22710,7,119.871293,30.91943,虹星桥镇,,330522,0572,330522106000,,,,,,,,,,2,100,1010,1291,2920,22710,,,
22711,7,119.83983,31.026599,小浦镇,,330522,0572,330522108000,,,,,,,,,,2,100,1010,1291,2920,22711,,,
22712,7,119.904112,30.832973,和平镇,,330522,0572,330522110000,,,,,,,,,,2,100,1010,1291,2920,22712,,,
22713,7,119.652996,30.904596,泗安镇,,330522,0572,330522111000,,,,,,,,,,2,100,1010,1291,2920,22713,,,
22714,7,119.743023,31.106873,煤山镇,,330522,0572,330522112000,,,,,,,,,,2,100,1010,1291,2920,22714,,,
22715,7,119.870957,31.097744,水口乡,,330522,0572,330522200000,,,,,,,,,,2,100,1010,1291,2920,22715,,,
22716,7,119.927482,30.923836,吕山乡,,330522,0572,330522202000,,,,,,,,,,2,100,1010,1291,2920,22716,,,
22717,7,119.686617,30.631837,递铺街道,,330523,0572,330523001000,,,,,,,,,,2,100,1010,1291,2921,22717,,,
22718,7,119.698264,30.617036,昌硕街道,,330523,0572,330523002000,,,,,,,,,,2,100,1010,1291,2921,22718,,,
22719,7,119.654049,30.599803,灵峰街道,,330523,0572,330523003000,,,,,,,,,,2,100,1010,1291,2921,22719,,,
22720,7,119.56712,30.65592,孝源街道,,330523,0572,330523004000,,,,,,,,,,2,100,1010,1291,2921,22720,,,
22721,7,119.550873,30.776378,鄣吴镇,,330523,0572,330523103000,,,,,,,,,,2,100,1010,1291,2921,22721,,,
22722,7,119.389073,30.575829,杭垓镇,,330523,0572,330523104000,,,,,,,,,,2,100,1010,1291,2921,22722,,,
22723,7,119.564798,30.588625,孝丰镇,,330523,0572,330523105000,,,,,,,,,,2,100,1010,1291,2921,22723,,,
22724,7,119.485116,30.51127,报福镇,,330523,0572,330523106000,,,,,,,,,,2,100,1010,1291,2921,22724,,,
22725,7,119.384471,30.461201,章村镇,,330523,0572,330523107000,,,,,,,,,,2,100,1010,1291,2921,22725,,,
22726,7,119.621393,30.519815,天荒坪镇,,330523,0572,330523108000,,,,,,,,,,2,100,1010,1291,2921,22726,,,
22727,7,119.789587,30.77908,梅溪镇,,330523,0572,330523110000,,,,,,,,,,2,100,1010,1291,2921,22727,,,
22728,7,119.63882,30.797533,天子湖镇,,330523,0572,330523111000,,,,,,,,,,2,100,1010,1291,2921,22728,,,
22729,7,119.771275,30.757734,溪龙乡,,330523,0572,330523201000,,,,,,,,,,2,100,1010,1291,2921,22729,,,
22730,7,119.574531,30.546706,上墅乡,,330523,0572,330523205000,,,,,,,,,,2,100,1010,1291,2921,22730,,,
22731,7,119.6803,30.46018,山川乡,,330523,0572,330523206000,,,,,,,,,,2,100,1010,1291,2921,22731,,,
22732,7,120.589179,29.988743,塔山街道,,330602,0575,330602001000,,,,,,,,,,2,100,1010,1292,2922,22732,,,
22733,7,120.557533,29.991699,府山街道,,330602,0575,330602002000,,,,,,,,,,2,100,1010,1292,2922,22733,,,
22734,7,120.562596,30.010393,北海街道,,330602,0575,330602004000,,,,,,,,,,2,100,1010,1292,2922,22734,,,
22735,7,120.57088,29.98347,城南街道,,330602,0575,330602005000,,,,,,,,,,2,100,1010,1292,2922,22735,,,
22736,7,120.618508,29.980762,稽山街道,,330602,0575,330602006000,,,,,,,,,,2,100,1010,1292,2922,22736,,,
22737,7,120.60561,29.995801,迪荡街道,,330602,0575,330602007000,,,,,,,,,,2,100,1010,1292,2922,22737,,,
22738,7,120.609293,30.021123,东湖街道,,330602,0575,330602008000,,,,,,,,,,2,100,1010,1292,2922,22738,,,
22739,7,120.571737,30.032498,灵芝街道,,330602,0575,330602009000,,,,,,,,,,2,100,1010,1292,2922,22739,,,
22740,7,120.528522,30.057105,东浦街道,,330602,0575,330602010000,,,,,,,,,,2,100,1010,1292,2922,22740,,,
22741,7,120.582633,29.988245,鉴湖街道,,330602,0575,330602011000,,,,,,,,,,2,100,1010,1292,2922,22741,,,
22742,7,120.602981,30.08881,斗门街道,,330602,0575,330602012000,,,,,,,,,,2,100,1010,1292,2922,22742,,,
22743,7,120.582633,29.988245,皋埠街道,,330602,0575,330602013000,,,,,,,,,,2,100,1010,1292,2922,22743,,,
22744,7,120.582633,29.988245,马山街道,,330602,0575,330602014000,,,,,,,,,,2,100,1010,1292,2922,22744,,,
22745,7,120.706642,30.066858,孙端街道,,330602,0575,330602015000,,,,,,,,,,2,100,1010,1292,2922,22745,,,
22746,7,120.73317,30.019605,陶堰街道,,330602,0575,330602016000,,,,,,,,,,2,100,1010,1292,2922,22746,,,
22747,7,120.726171,29.952637,富盛镇,,330602,0575,330602108000,,,,,,,,,,2,100,1010,1292,2922,22747,,,
22748,7,120.492515,30.073116,柯桥街道,,330603,0575,330603001000,,,,,,,,,,2,100,1010,1292,2923,22748,,,
22749,7,120.470333,30.062072,柯岩街道,,330603,0575,330603002000,,,,,,,,,,2,100,1010,1292,2923,22749,,,
22750,7,120.488963,30.109259,华舍街道,,330603,0575,330603003000,,,,,,,,,,2,100,1010,1292,2923,22750,,,
22751,7,120.422755,30.067834,湖塘街道,,330603,0575,330603004000,,,,,,,,,,2,100,1010,1292,2923,22751,,,
22752,7,120.518264,30.136764,齐贤街道,,330603,0575,330603005000,,,,,,,,,,2,100,1010,1292,2923,22752,,,
22753,7,120.509697,29.992957,福全街道,,330603,0575,330603006000,,,,,,,,,,2,100,1010,1292,2923,22753,,,
22754,7,120.497596,30.136521,安昌街道,,330603,0575,330603007000,,,,,,,,,,2,100,1010,1292,2923,22754,,,
22755,7,120.523951,29.956548,兰亭街道,,330603,0575,330603008000,,,,,,,,,,2,100,1010,1292,2923,22755,,,
22756,7,120.411116,30.123443,钱清街道,,330603,0575,330603009000,,,,,,,,,,2,100,1010,1292,2923,22756,,,
22757,7,120.369051,30.146551,杨汛桥街道,,330603,0575,330603010000,,,,,,,,,,2,100,1010,1292,2923,22757,,,
22758,7,120.495065,30.081942,马鞍街道,,330603,0575,330603011000,,,,,,,,,,2,100,1010,1292,2923,22758,,,
22759,7,120.639568,29.896571,平水镇,,330603,0575,330603105000,,,,,,,,,,2,100,1010,1292,2923,22759,,,
22760,7,120.677896,29.782121,王坛镇,,330603,0575,330603107000,,,,,,,,,,2,100,1010,1292,2923,22760,,,
22761,7,120.580265,29.771796,稽东镇,,330603,0575,330603109000,,,,,,,,,,2,100,1010,1292,2923,22761,,,
22762,7,120.474921,29.95845,漓渚镇,,330603,0575,330603111000,,,,,,,,,,2,100,1010,1292,2923,22762,,,
22763,7,120.362265,30.060086,夏履镇,,330603,0575,330603114000,,,,,,,,,,2,100,1010,1292,2923,22763,,,
22764,7,120.872311,30.031827,百官街道,,330604,0575,330604001000,,,,,,,,,,2,100,1010,1292,2924,22764,,,
22765,7,120.869307,30.012428,曹娥街道,,330604,0575,330604002000,,,,,,,,,,2,100,1010,1292,2924,22765,,,
22766,7,120.814969,30.009741,东关街道,,330604,0575,330604003000,,,,,,,,,,2,100,1010,1292,2924,22766,,,
22767,7,120.771512,30.044306,道墟街道,,330604,0575,330604004000,,,,,,,,,,2,100,1010,1292,2924,22767,,,
22768,7,120.897694,29.987298,梁湖街道,,330604,0575,330604005000,,,,,,,,,,2,100,1010,1292,2924,22768,,,
22769,7,120.933127,30.071107,小越街道,,330604,0575,330604006000,,,,,,,,,,2,100,1010,1292,2924,22769,,,
22770,7,120.868122,30.033121,崧厦街道,,330604,0575,330604007000,,,,,,,,,,2,100,1010,1292,2924,22770,,,
22771,7,120.868122,30.033121,沥海街道,,330604,0575,330604008000,,,,,,,,,,2,100,1010,1292,2924,22771,,,
22772,7,120.803695,29.949702,长塘镇,,330604,0575,330604101000,,,,,,,,,,2,100,1010,1292,2924,22772,,,
22773,7,120.83634,29.896637,上浦镇,,330604,0575,330604102000,,,,,,,,,,2,100,1010,1292,2924,22773,,,
22774,7,120.787113,29.866259,汤浦镇,,330604,0575,330604103000,,,,,,,,,,2,100,1010,1292,2924,22774,,,
22775,7,120.858807,29.809617,章镇镇,,330604,0575,330604104000,,,,,,,,,,2,100,1010,1292,2924,22775,,,
22776,7,121.032155,29.840198,下管镇,,330604,0575,330604105000,,,,,,,,,,2,100,1010,1292,2924,22776,,,
22777,7,120.979458,29.948255,丰惠镇,,330604,0575,330604106000,,,,,,,,,,2,100,1010,1292,2924,22777,,,
22778,7,121.048696,29.970611,永和镇,,330604,0575,330604107000,,,,,,,,,,2,100,1010,1292,2924,22778,,,
22779,7,120.979552,30.059141,驿亭镇,,330604,0575,330604109000,,,,,,,,,,2,100,1010,1292,2924,22779,,,
22780,7,120.898475,30.112971,谢塘镇,,330604,0575,330604111000,,,,,,,,,,2,100,1010,1292,2924,22780,,,
22781,7,120.892195,30.132798,盖北镇,,330604,0575,330604112000,,,,,,,,,,2,100,1010,1292,2924,22781,,,
22782,7,121.024903,29.780005,岭南乡,,330604,0575,330604200000,,,,,,,,,,2,100,1010,1292,2924,22782,,,
22783,7,121.049539,29.815576,陈溪乡,,330604,0575,330604201000,,,,,,,,,,2,100,1010,1292,2924,22783,,,
22784,7,120.967469,29.870212,丁宅乡,,330604,0575,330604202000,,,,,,,,,,2,100,1010,1292,2924,22784,,,
22785,7,120.921609,29.503394,羽林街道,,330624,0575,330624001000,,,,,,,,,,2,100,1010,1292,2925,22785,,,
22786,7,120.906957,29.497007,南明街道,,330624,0575,330624002000,,,,,,,,,,2,100,1010,1292,2925,22786,,,
22787,7,120.875254,29.511545,七星街道,,330624,0575,330624003000,,,,,,,,,,2,100,1010,1292,2925,22787,,,
22788,7,120.796167,29.444384,澄潭镇,,330624,0575,330624101000,,,,,,,,,,2,100,1010,1292,2925,22788,,,
22789,7,120.811045,29.468745,梅渚镇,,330624,0575,330624102000,,,,,,,,,,2,100,1010,1292,2925,22789,,,
22790,7,120.815784,29.274722,回山镇,,330624,0575,330624104000,,,,,,,,,,2,100,1010,1292,2925,22790,,,
22791,7,121.04024,29.444529,大市聚镇,,330624,0575,330624106000,,,,,,,,,,2,100,1010,1292,2925,22791,,,
22792,7,121.119736,29.378873,小将镇,,330624,0575,330624107000,,,,,,,,,,2,100,1010,1292,2925,22792,,,
22793,7,121.133316,29.514224,沙溪镇,,330624,0575,330624108000,,,,,,,,,,2,100,1010,1292,2925,22793,,,
22794,7,120.786124,29.369458,镜岭镇,,330624,0575,330624109000,,,,,,,,,,2,100,1010,1292,2925,22794,,,
22795,7,120.931621,29.362285,儒岙镇,,330624,0575,330624110000,,,,,,,,,,2,100,1010,1292,2925,22795,,,
22796,7,120.909409,29.464814,城南乡,,330624,0575,330624200000,,,,,,,,,,2,100,1010,1292,2925,22796,,,
22797,7,120.834666,29.421628,东茗乡,,330624,0575,330624201000,,,,,,,,,,2,100,1010,1292,2925,22797,,,
22798,7,120.847298,29.327074,双彩乡,,330624,0575,330624203000,,,,,,,,,,2,100,1010,1292,2925,22798,,,
22799,7,121.033158,29.487815,新林乡,,330624,0575,330624205000,,,,,,,,,,2,100,1010,1292,2925,22799,,,
22800,7,121.203772,29.390188,巧英乡,,330624,0575,330624206000,,,,,,,,,,2,100,1010,1292,2925,22800,,,
22801,7,120.245391,29.71872,暨阳街道,,330681,0575,330681001000,,,,,,,,,,2,100,1010,1292,2926,22801,,,
22802,7,120.278339,29.71421,浣东街道,,330681,0575,330681002000,,,,,,,,,,2,100,1010,1292,2926,22802,,,
22803,7,120.212468,29.733355,陶朱街道,,330681,0575,330681003000,,,,,,,,,,2,100,1010,1292,2926,22803,,,
22804,7,120.246863,29.708692,暨南街道,,330681,0575,330681004000,,,,,,,,,,2,100,1010,1292,2926,22804,,,
22805,7,120.246863,29.708692,大唐街道,,330681,0575,330681005000,,,,,,,,,,2,100,1010,1292,2926,22805,,,
22806,7,120.118029,29.808821,应店街镇,,330681,0575,330681102000,,,,,,,,,,2,100,1010,1292,2926,22806,,,
22807,7,120.159459,29.887703,次坞镇,,330681,0575,330681103000,,,,,,,,,,2,100,1010,1292,2926,22807,,,
22808,7,120.322442,29.924619,店口镇,,330681,0575,330681104000,,,,,,,,,,2,100,1010,1292,2926,22808,,,
22809,7,120.246863,29.708692,姚江镇,,330681,0575,330681106000,,,,,,,,,,2,100,1010,1292,2926,22809,,,
22810,7,120.353629,29.837883,山下湖镇,,330681,0575,330681108000,,,,,,,,,,2,100,1010,1292,2926,22810,,,
22811,7,120.42012,29.798146,枫桥镇,,330681,0575,330681109000,,,,,,,,,,2,100,1010,1292,2926,22811,,,
22812,7,120.459434,29.751269,赵家镇,,330681,0575,330681110000,,,,,,,,,,2,100,1010,1292,2926,22812,,,
22813,7,119.991822,29.724361,马剑镇,,330681,0575,330681111000,,,,,,,,,,2,100,1010,1292,2926,22813,,,
22814,7,120.085291,29.690932,五泄镇,,330681,0575,330681112000,,,,,,,,,,2,100,1010,1292,2926,22814,,,
22815,7,120.152666,29.598275,牌头镇,,330681,0575,330681115000,,,,,,,,,,2,100,1010,1292,2926,22815,,,
22816,7,120.066269,29.580253,同山镇,,330681,0575,330681116000,,,,,,,,,,2,100,1010,1292,2926,22816,,,
22817,7,120.121611,29.551031,安华镇,,330681,0575,330681117000,,,,,,,,,,2,100,1010,1292,2926,22817,,,
22818,7,120.33154,29.570055,璜山镇,,330681,0575,330681119000,,,,,,,,,,2,100,1010,1292,2926,22818,,,
22819,7,120.341835,29.502821,陈宅镇,,330681,0575,330681120000,,,,,,,,,,2,100,1010,1292,2926,22819,,,
22820,7,120.309892,29.400866,岭北镇,,330681,0575,330681121000,,,,,,,,,,2,100,1010,1292,2926,22820,,,
22821,7,120.347352,29.610603,浬浦镇,,330681,0575,330681122000,,,,,,,,,,2,100,1010,1292,2926,22821,,,
22822,7,120.381673,29.578834,东白湖镇,,330681,0575,330681124000,,,,,,,,,,2,100,1010,1292,2926,22822,,,
22823,7,120.429486,29.690579,东和乡,,330681,0575,330681201000,,,,,,,,,,2,100,1010,1292,2926,22823,,,
22824,7,120.831025,29.56141,剡湖街道,,330683,0575,330683001000,,,,,,,,,,2,100,1010,1292,2927,22824,,,
22825,7,120.836149,29.580741,三江街道,,330683,0575,330683002000,,,,,,,,,,2,100,1010,1292,2927,22825,,,
22826,7,120.831025,29.56141,鹿山街道,,330683,0575,330683003000,,,,,,,,,,2,100,1010,1292,2927,22826,,,
22827,7,120.866147,29.631774,嵊州市经济开发区浦口街道,,330683,0575,330683005000,,,,,,,,,,2,100,1010,1292,2927,22827,,,
22828,7,120.725538,29.524935,甘霖镇,,330683,0575,330683100000,,,,,,,,,,2,100,1010,1292,2927,22828,,,
22829,7,120.613693,29.461266,长乐镇,,330683,0575,330683101000,,,,,,,,,,2,100,1010,1292,2927,22829,,,
22830,7,120.708003,29.603485,崇仁镇,,330683,0575,330683102000,,,,,,,,,,2,100,1010,1292,2927,22830,,,
22831,7,120.934384,29.574609,黄泽镇,,330683,0575,330683103000,,,,,,,,,,2,100,1010,1292,2927,22831,,,
22832,7,120.845151,29.756669,三界镇,,330683,0575,330683104000,,,,,,,,,,2,100,1010,1292,2927,22832,,,
22833,7,120.653508,29.538448,石璜镇,,330683,0575,330683105000,,,,,,,,,,2,100,1010,1292,2927,22833,,,
22834,7,120.64381,29.687797,谷来镇,,330683,0575,330683106000,,,,,,,,,,2,100,1010,1292,2927,22834,,,
22835,7,120.817843,29.671979,仙岩镇,,330683,0575,330683107000,,,,,,,,,,2,100,1010,1292,2927,22835,,,
22836,7,121.03582,29.569455,金庭镇,,330683,0575,330683108000,,,,,,,,,,2,100,1010,1292,2927,22836,,,
22837,7,120.93077,29.704343,下王镇,,330683,0575,330683110000,,,,,,,,,,2,100,1010,1292,2927,22837,,,
22838,7,120.608451,29.401968,贵门乡,,330683,0575,330683200000,,,,,,,,,,2,100,1010,1292,2927,22838,,,
22839,7,119.66251,29.109273,城东街道,,330702,0579,330702001000,,,,,,,,,,2,100,1010,1293,2928,22839,,,
22840,7,119.654348,29.107149,城中街道,,330702,0579,330702002000,,,,,,,,,,2,100,1010,1293,2928,22840,,,
22841,7,119.571633,29.086221,城西街道,,330702,0579,330702003000,,,,,,,,,,2,100,1010,1293,2928,22841,,,
22842,7,119.643182,29.115966,城北街道,,330702,0579,330702004000,,,,,,,,,,2,100,1010,1293,2928,22842,,,
22843,7,119.655245,29.09232,江南街道,,330702,0579,330702005000,,,,,,,,,,2,100,1010,1293,2928,22843,,,
22844,7,119.652324,29.07164,三江街道,,330702,0579,330702006000,,,,,,,,,,2,100,1010,1293,2928,22844,,,
22845,7,119.63411,29.078729,西关街道,,330702,0579,330702007000,,,,,,,,,,2,100,1010,1293,2928,22845,,,
22846,7,119.571633,29.086221,秋滨街道,,330702,0579,330702008000,,,,,,,,,,2,100,1010,1293,2928,22846,,,
22847,7,119.571633,29.086221,新狮街道,,330702,0579,330702009000,,,,,,,,,,2,100,1010,1293,2928,22847,,,
22848,7,119.620874,29.157634,罗店镇,,330702,0579,330702100000,,,,,,,,,,2,100,1010,1293,2928,22848,,,
22849,7,119.682679,29.031677,雅畈镇,,330702,0579,330702101000,,,,,,,,,,2,100,1010,1293,2928,22849,,,
22850,7,119.644924,28.97314,安地镇,,330702,0579,330702102000,,,,,,,,,,2,100,1010,1293,2928,22850,,,
22851,7,119.556525,29.073829,白龙桥镇,,330702,0579,330702103000,,,,,,,,,,2,100,1010,1293,2928,22851,,,
22852,7,119.499028,29.004316,琅琊镇,,330702,0579,330702104000,,,,,,,,,,2,100,1010,1293,2928,22852,,,
22853,7,119.461051,29.050905,蒋堂镇,,330702,0579,330702105000,,,,,,,,,,2,100,1010,1293,2928,22853,,,
22854,7,119.399927,29.053006,汤溪镇,,330702,0579,330702106000,,,,,,,,,,2,100,1010,1293,2928,22854,,,
22855,7,119.391416,29.117656,罗埠镇,,330702,0579,330702107000,,,,,,,,,,2,100,1010,1293,2928,22855,,,
22856,7,119.33401,29.093403,洋埠镇,,330702,0579,330702108000,,,,,,,,,,2,100,1010,1293,2928,22856,,,
22857,7,119.61585,29.097035,乾西乡,,330702,0579,330702201000,,,,,,,,,,2,100,1010,1293,2928,22857,,,
22858,7,119.590589,29.137753,竹马乡,,330702,0579,330702202000,,,,,,,,,,2,100,1010,1293,2928,22858,,,
22859,7,119.554668,29.018275,长山乡,,330702,0579,330702203000,,,,,,,,,,2,100,1010,1293,2928,22859,,,
22860,7,119.560932,28.856388,箬阳乡,,330702,0579,330702204000,,,,,,,,,,2,100,1010,1293,2928,22860,,,
22861,7,119.493553,28.878437,沙畈乡,,330702,0579,330702205000,,,,,,,,,,2,100,1010,1293,2928,22861,,,
22862,7,119.409372,28.852972,塔石乡,,330702,0579,330702206000,,,,,,,,,,2,100,1010,1293,2928,22862,,,
22863,7,119.407334,28.934427,岭上乡,,330702,0579,330702207000,,,,,,,,,,2,100,1010,1293,2928,22863,,,
22864,7,119.348823,28.970374,莘畈乡,,330702,0579,330702208000,,,,,,,,,,2,100,1010,1293,2928,22864,,,
22865,7,119.642617,29.029057,苏孟乡,,330702,0579,330702209000,,,,,,,,,,2,100,1010,1293,2928,22865,,,
22866,7,119.6867,29.092663,多湖街道,,330703,0579,330703001000,,,,,,,,,,2,100,1010,1293,2929,22866,,,
22867,7,119.686543,29.112887,东孝街道,,330703,0579,330703002000,,,,,,,,,,2,100,1010,1293,2929,22867,,,
22868,7,119.867791,29.182954,孝顺镇,,330703,0579,330703101000,,,,,,,,,,2,100,1010,1293,2929,22868,,,
22869,7,119.900234,29.236245,傅村镇,,330703,0579,330703102000,,,,,,,,,,2,100,1010,1293,2929,22869,,,
22870,7,119.754386,29.195149,曹宅镇,,330703,0579,330703103000,,,,,,,,,,2,100,1010,1293,2929,22870,,,
22871,7,119.805323,29.108247,澧浦镇,,330703,0579,330703104000,,,,,,,,,,2,100,1010,1293,2929,22871,,,
22872,7,119.759515,29.056536,岭下镇,,330703,0579,330703105000,,,,,,,,,,2,100,1010,1293,2929,22872,,,
22873,7,119.743004,29.047035,江东镇,,330703,0579,330703106000,,,,,,,,,,2,100,1010,1293,2929,22873,,,
22874,7,119.794358,29.159422,塘雅镇,,330703,0579,330703107000,,,,,,,,,,2,100,1010,1293,2929,22874,,,
22875,7,119.697007,29.147486,赤松镇,,330703,0579,330703108000,,,,,,,,,,2,100,1010,1293,2929,22875,,,
22876,7,119.828477,29.271553,源东乡,,330703,0579,330703200000,,,,,,,,,,2,100,1010,1293,2929,22876,,,
22877,7,119.830485,28.926106,白洋街道,,330723,0579,330723001000,,,,,,,,,,2,100,1010,1293,2930,22877,,,
22878,7,119.813896,28.896157,壶山街道,,330723,0579,330723002000,,,,,,,,,,2,100,1010,1293,2930,22878,,,
22879,7,119.816705,28.885543,熟溪街道,,330723,0579,330723003000,,,,,,,,,,2,100,1010,1293,2930,22879,,,
22880,7,119.599213,28.620411,柳城畲族镇,,330723,0579,330723100000,,,,,,,,,,2,100,1010,1293,2930,22880,,,
22881,7,119.798598,28.946649,履坦镇,,330723,0579,330723101000,,,,,,,,,,2,100,1010,1293,2930,22881,,,
22882,7,119.940107,28.873927,桐琴镇,,330723,0579,330723102000,,,,,,,,,,2,100,1010,1293,2930,22882,,,
22883,7,119.879004,28.870223,泉溪镇,,330723,0579,330723103000,,,,,,,,,,2,100,1010,1293,2930,22883,,,
22884,7,119.784843,28.733692,新宅镇,,330723,0579,330723104000,,,,,,,,,,2,100,1010,1293,2930,22884,,,
22885,7,119.695492,28.827863,王宅镇,,330723,0579,330723105000,,,,,,,,,,2,100,1010,1293,2930,22885,,,
22886,7,119.601434,28.714629,桃溪镇,,330723,0579,330723106000,,,,,,,,,,2,100,1010,1293,2930,22886,,,
22887,7,119.887443,28.982933,茭道镇,,330723,0579,330723107000,,,,,,,,,,2,100,1010,1293,2930,22887,,,
22888,7,119.779654,28.789648,大田乡,,330723,0579,330723200000,,,,,,,,,,2,100,1010,1293,2930,22888,,,
22889,7,119.655414,28.830073,白姆乡,,330723,0579,330723201000,,,,,,,,,,2,100,1010,1293,2930,22889,,,
22890,7,119.664236,28.772618,俞源乡,,330723,0579,330723202000,,,,,,,,,,2,100,1010,1293,2930,22890,,,
22891,7,119.652154,28.710368,坦洪乡,,330723,0579,330723203000,,,,,,,,,,2,100,1010,1293,2930,22891,,,
22892,7,119.569017,28.646381,西联乡,,330723,0579,330723204000,,,,,,,,,,2,100,1010,1293,2930,22892,,,
22893,7,119.6414,28.56089,三港乡,,330723,0579,330723205000,,,,,,,,,,2,100,1010,1293,2930,22893,,,
22894,7,119.658633,28.580768,大溪口乡,,330723,0579,330723206000,,,,,,,,,,2,100,1010,1293,2930,22894,,,
22895,7,119.923759,29.431103,浦南街道,,330726,0579,330726001000,,,,,,,,,,2,100,1010,1293,2931,22895,,,
22896,7,119.947578,29.451467,仙华街道,,330726,0579,330726002000,,,,,,,,,,2,100,1010,1293,2931,22896,,,
22897,7,119.896381,29.44711,浦阳街道,,330726,0579,330726003000,,,,,,,,,,2,100,1010,1293,2931,22897,,,
22898,7,119.996847,29.454189,黄宅镇,,330726,0579,330726101000,,,,,,,,,,2,100,1010,1293,2931,22898,,,
22899,7,120.053819,29.502091,白马镇,,330726,0579,330726102000,,,,,,,,,,2,100,1010,1293,2931,22899,,,
22900,7,120.088652,29.495655,郑家坞镇,,330726,0579,330726103000,,,,,,,,,,2,100,1010,1293,2931,22900,,,
22901,7,120.01148,29.484927,郑宅镇,,330726,0579,330726104000,,,,,,,,,,2,100,1010,1293,2931,22901,,,
22902,7,119.960473,29.488733,岩头镇,,330726,0579,330726105000,,,,,,,,,,2,100,1010,1293,2931,22902,,,
22903,7,119.946147,29.625562,檀溪镇,,330726,0579,330726106000,,,,,,,,,,2,100,1010,1293,2931,22903,,,
22904,7,119.854642,29.514887,杭坪镇,,330726,0579,330726107000,,,,,,,,,,2,100,1010,1293,2931,22904,,,
22905,7,119.886543,29.583586,大畈乡,,330726,0579,330726200000,,,,,,,,,,2,100,1010,1293,2931,22905,,,
22906,7,119.994063,29.610681,中余乡,,330726,0579,330726201000,,,,,,,,,,2,100,1010,1293,2931,22906,,,
22907,7,119.82494,29.456654,前吴乡,,330726,0579,330726202000,,,,,,,,,,2,100,1010,1293,2931,22907,,,
22908,7,119.784353,29.430707,花桥乡,,330726,0579,330726203000,,,,,,,,,,2,100,1010,1293,2931,22908,,,
22909,7,119.869273,29.559119,虞宅乡,,330726,0579,330726204000,,,,,,,,,,2,100,1010,1293,2931,22909,,,
22910,7,120.450178,29.054048,安文街道,,330727,0579,330727001000,,,,,,,,,,2,100,1010,1293,2932,22910,,,
22911,7,120.450178,29.054048,新渥街道,,330727,0579,330727002000,,,,,,,,,,2,100,1010,1293,2932,22911,,,
22912,7,120.401459,28.893658,仁川镇,,330727,0579,330727103000,,,,,,,,,,2,100,1010,1293,2932,22912,,,
22913,7,120.568856,29.00091,大盘镇,,330727,0579,330727104000,,,,,,,,,,2,100,1010,1293,2932,22913,,,
22914,7,120.686519,29.045685,方前镇,,330727,0579,330727105000,,,,,,,,,,2,100,1010,1293,2932,22914,,,
22915,7,120.650997,29.236299,玉山镇,,330727,0579,330727106000,,,,,,,,,,2,100,1010,1293,2932,22915,,,
22916,7,120.663248,29.141606,尚湖镇,,330727,0579,330727107000,,,,,,,,,,2,100,1010,1293,2932,22916,,,
22917,7,120.34989,28.899821,冷水镇,,330727,0579,330727108000,,,,,,,,,,2,100,1010,1293,2932,22917,,,
22918,7,120.725273,29.221345,尖山镇,,330727,0579,330727109000,,,,,,,,,,2,100,1010,1293,2932,22918,,,
22919,7,120.462384,28.921295,双峰乡,,330727,0579,330727201000,,,,,,,,,,2,100,1010,1293,2932,22919,,,
22920,7,120.513988,29.122756,双溪乡,,330727,0579,330727203000,,,,,,,,,,2,100,1010,1293,2932,22920,,,
22921,7,120.559267,29.091684,窈川乡,,330727,0579,330727205000,,,,,,,,,,2,100,1010,1293,2932,22921,,,
22922,7,120.611974,29.172838,九和乡,,330727,0579,330727211000,,,,,,,,,,2,100,1010,1293,2932,22922,,,
22923,7,120.547093,28.937737,盘峰乡,,330727,0579,330727212000,,,,,,,,,,2,100,1010,1293,2932,22923,,,
22924,7,119.464827,29.214691,兰江街道,,330781,0579,330781001000,,,,,,,,,,2,100,1010,1293,2933,22924,,,
22925,7,119.479246,29.212788,云山街道,,330781,0579,330781002000,,,,,,,,,,2,100,1010,1293,2933,22925,,,
22926,7,119.355347,29.226367,永昌街道,,330781,0579,330781004000,,,,,,,,,,2,100,1010,1293,2933,22926,,,
22927,7,119.398165,29.193442,赤溪街道,,330781,0579,330781005000,,,,,,,,,,2,100,1010,1293,2933,22927,,,
22928,7,119.465007,29.2604,女埠街道,,330781,0579,330781006000,,,,,,,,,,2,100,1010,1293,2933,22928,,,
22929,7,119.476984,29.19345,上华街道,,330781,0579,330781007000,,,,,,,,,,2,100,1010,1293,2933,22929,,,
22930,7,119.328955,29.11863,游埠镇,,330781,0579,330781102000,,,,,,,,,,2,100,1010,1293,2933,22930,,,
22931,7,119.292804,29.254702,诸葛镇,,330781,0579,330781104000,,,,,,,,,,2,100,1010,1293,2933,22931,,,
22932,7,119.417579,29.300574,黄店镇,,330781,0579,330781106000,,,,,,,,,,2,100,1010,1293,2933,22932,,,
22933,7,119.535683,29.283969,香溪镇,,330781,0579,330781108000,,,,,,,,,,2,100,1010,1293,2933,22933,,,
22934,7,119.60119,29.309565,马涧镇,,330781,0579,330781109000,,,,,,,,,,2,100,1010,1293,2933,22934,,,
22935,7,119.759813,29.346127,梅江镇,,330781,0579,330781111000,,,,,,,,,,2,100,1010,1293,2933,22935,,,
22936,7,119.811082,29.364205,横溪镇,,330781,0579,330781112000,,,,,,,,,,2,100,1010,1293,2933,22936,,,
22937,7,119.507665,29.189901,灵洞乡,,330781,0579,330781200000,,,,,,,,,,2,100,1010,1293,2933,22937,,,
22938,7,119.280496,29.178299,水亭畲族乡,,330781,0579,330781203000,,,,,,,,,,2,100,1010,1293,2933,22938,,,
22939,7,119.653108,29.333997,柏社乡,,330781,0579,330781209000,,,,,,,,,,2,100,1010,1293,2933,22939,,,
22940,7,120.065391,29.29713,稠城街道,,330782,0579,330782001000,,,,,,,,,,2,100,1010,1293,2934,22940,,,
22941,7,120.103064,29.304974,江东街道,,330782,0579,330782002000,,,,,,,,,,2,100,1010,1293,2934,22941,,,
22942,7,120.038841,29.286059,稠江街道,,330782,0579,330782003000,,,,,,,,,,2,100,1010,1293,2934,22942,,,
22943,7,120.054039,29.327013,北苑街道,,330782,0579,330782004000,,,,,,,,,,2,100,1010,1293,2934,22943,,,
22944,7,120.056716,29.370615,后宅街道,,330782,0579,330782005000,,,,,,,,,,2,100,1010,1293,2934,22944,,,
22945,7,119.987429,29.297003,城西街道,,330782,0579,330782006000,,,,,,,,,,2,100,1010,1293,2934,22945,,,
22946,7,120.170699,29.326717,廿三里街道,,330782,0579,330782007000,,,,,,,,,,2,100,1010,1293,2934,22946,,,
22947,7,120.117933,29.370006,福田街道,,330782,0579,330782008000,,,,,,,,,,2,100,1010,1293,2934,22947,,,
22948,7,120.017351,29.196282,佛堂镇,,330782,0579,330782100000,,,,,,,,,,2,100,1010,1293,2934,22948,,,
22949,7,120.015677,29.154221,赤岸镇,,330782,0579,330782101000,,,,,,,,,,2,100,1010,1293,2934,22949,,,
22950,7,119.959973,29.23148,义亭镇,,330782,0579,330782102000,,,,,,,,,,2,100,1010,1293,2934,22950,,,
22951,7,119.940493,29.280688,上溪镇,,330782,0579,330782104000,,,,,,,,,,2,100,1010,1293,2934,22951,,,
22952,7,120.131443,29.40965,苏溪镇,,330782,0579,330782105000,,,,,,,,,,2,100,1010,1293,2934,22952,,,
22953,7,120.129884,29.452642,大陈镇,,330782,0579,330782106000,,,,,,,,,,2,100,1010,1293,2934,22953,,,
22954,7,120.272969,29.266744,吴宁街道,,330783,0579,330783001000,,,,,,,,,,2,100,1010,1293,2935,22954,,,
22955,7,120.234588,29.153978,南市街道,,330783,0579,330783003000,,,,,,,,,,2,100,1010,1293,2935,22955,,,
22956,7,120.220959,29.270415,白云街道,,330783,0579,330783004000,,,,,,,,,,2,100,1010,1293,2935,22956,,,
22957,7,120.251565,29.284082,江北街道,,330783,0579,330783005000,,,,,,,,,,2,100,1010,1293,2935,22957,,,
22958,7,120.309144,29.270766,城东街道,,330783,0579,330783006000,,,,,,,,,,2,100,1010,1293,2935,22958,,,
22959,7,120.325546,29.304774,六石街道,,330783,0579,330783007000,,,,,,,,,,2,100,1010,1293,2935,22959,,,
22960,7,120.435097,29.318493,巍山镇,,330783,0579,330783106000,,,,,,,,,,2,100,1010,1293,2935,22960,,,
22961,7,120.456225,29.366346,虎鹿镇,,330783,0579,330783107000,,,,,,,,,,2,100,1010,1293,2935,22961,,,
22962,7,120.396278,29.275694,歌山镇,,330783,0579,330783108000,,,,,,,,,,2,100,1010,1293,2935,22962,,,
22963,7,120.501167,29.317748,佐村镇,,330783,0579,330783109000,,,,,,,,,,2,100,1010,1293,2935,22963,,,
22964,7,120.440196,29.241514,东阳江镇,,330783,0579,330783110000,,,,,,,,,,2,100,1010,1293,2935,22964,,,
22965,7,120.390925,29.176529,湖溪镇,,330783,0579,330783112000,,,,,,,,,,2,100,1010,1293,2935,22965,,,
22966,7,120.372187,29.086937,马宅镇,,330783,0579,330783114000,,,,,,,,,,2,100,1010,1293,2935,22966,,,
22967,7,120.315116,29.037206,千祥镇,,330783,0579,330783116000,,,,,,,,,,2,100,1010,1293,2935,22967,,,
22968,7,120.221553,29.102764,南马镇,,330783,0579,330783118000,,,,,,,,,,2,100,1010,1293,2935,22968,,,
22969,7,120.143968,29.159928,画水镇,,330783,0579,330783122000,,,,,,,,,,2,100,1010,1293,2935,22969,,,
22970,7,120.287396,29.156073,横店镇,,330783,0579,330783123000,,,,,,,,,,2,100,1010,1293,2935,22970,,,
22971,7,120.636517,29.297103,三单乡,,330783,0579,330783201000,,,,,,,,,,2,100,1010,1293,2935,22971,,,
22972,7,119.647444,29.079059,东城街道,,330700,0579,330784001000,,,,,,,,,,2,100,1010,1293,2936,22972,,,
22973,7,120.028693,28.892307,西城街道,,330784,0579,330784002000,,,,,,,,,,2,100,1010,1293,2936,22973,,,
22974,7,119.647444,29.079059,江南街道,,330700,0579,330784003000,,,,,,,,,,2,100,1010,1293,2936,22974,,,
22975,7,120.09683,28.844725,石柱镇,,330784,0579,330784105000,,,,,,,,,,2,100,1010,1293,2936,22975,,,
22976,7,120.092562,28.800761,前仓镇,,330784,0579,330784106000,,,,,,,,,,2,100,1010,1293,2936,22976,,,
22977,7,120.181763,28.803784,舟山镇,,330784,0579,330784107000,,,,,,,,,,2,100,1010,1293,2936,22977,,,
22978,7,120.14763,28.967444,古山镇,,330784,0579,330784108000,,,,,,,,,,2,100,1010,1293,2936,22978,,,
22979,7,120.167015,28.953029,方岩镇,,330784,0579,330784109000,,,,,,,,,,2,100,1010,1293,2936,22979,,,
22980,7,120.19063,29.022247,龙山镇,,330784,0579,330784110000,,,,,,,,,,2,100,1010,1293,2936,22980,,,
22981,7,120.240156,29.000649,西溪镇,,330784,0579,330784111000,,,,,,,,,,2,100,1010,1293,2936,22981,,,
22982,7,120.083358,28.97602,象珠镇,,330784,0579,330784112000,,,,,,,,,,2,100,1010,1293,2936,22982,,,
22983,7,120.12153,29.030037,唐先镇,,330784,0579,330784113000,,,,,,,,,,2,100,1010,1293,2936,22983,,,
22984,7,119.97305,28.919503,花街镇,,330784,0579,330784114000,,,,,,,,,,2,100,1010,1293,2936,22984,,,
22985,7,120.137853,28.929765,芝英镇,,330784,0579,330784115000,,,,,,,,,,2,100,1010,1293,2936,22985,,,
22986,7,118.895463,28.940518,新新街道,,330802,0570,330802005000,,,,,,,,,,2,100,1010,1294,2937,22986,,,
22987,7,118.871205,28.962115,府山街道,,330802,0570,330802006000,,,,,,,,,,2,100,1010,1294,2937,22987,,,
22988,7,118.867644,28.938009,荷花街道,,330802,0570,330802007000,,,,,,,,,,2,100,1010,1294,2937,22988,,,
22989,7,118.875479,28.965631,信安街道,,330802,0570,330802008000,,,,,,,,,,2,100,1010,1294,2937,22989,,,
22990,7,118.850702,28.969532,白云街道,,330802,0570,330802009000,,,,,,,,,,2,100,1010,1294,2937,22990,,,
22991,7,118.859211,28.939504,双港街道,,330802,0570,330802010000,,,,,,,,,,2,100,1010,1294,2937,22991,,,
22992,7,118.908011,28.901978,衢化街道,,330802,0570,330802012000,,,,,,,,,,2,100,1010,1294,2937,22992,,,
22993,7,118.909884,28.905591,花园街道,,330802,0570,330802013000,,,,,,,,,,2,100,1010,1294,2937,22993,,,
22994,7,118.791576,29.015216,石梁镇,,330802,0570,330802100000,,,,,,,,,,2,100,1010,1294,2937,22994,,,
22995,7,118.779885,28.930008,航埠镇,,330802,0570,330802101000,,,,,,,,,,2,100,1010,1294,2937,22995,,,
22996,7,118.871333,28.968504,黄家乡,,330802,0570,330802205000,,,,,,,,,,2,100,1010,1294,2937,22996,,,
22997,7,118.762195,29.147105,七里乡,,330802,0570,330802209000,,,,,,,,,,2,100,1010,1294,2937,22997,,,
22998,7,118.850158,29.045916,九华乡,,330802,0570,330802210000,,,,,,,,,,2,100,1010,1294,2937,22998,,,
22999,7,118.735,28.951954,沟溪乡,,330802,0570,330802211000,,,,,,,,,,2,100,1010,1294,2937,22999,,,
23000,7,118.735397,28.882754,华墅乡,,330802,0570,330802212000,,,,,,,,,,2,100,1010,1294,2937,23000,,,
23001,7,118.82454,28.970188,姜家山乡,,330802,0570,330802213000,,,,,,,,,,2,100,1010,1294,2937,23001,,,
23002,7,118.860237,28.99644,万田乡,,330802,0570,330802214000,,,,,,,,,,2,100,1010,1294,2937,23002,,,
23003,7,118.906265,28.864078,石室乡,,330802,0570,330802215000,,,,,,,,,,2,100,1010,1294,2937,23003,,,
23004,7,118.946226,28.977494,樟潭街道,,330803,0570,330803001000,,,,,,,,,,2,100,1010,1294,2938,23004,,,
23005,7,118.913097,29.002201,浮石街道,,330803,0570,330803002000,,,,,,,,,,2,100,1010,1294,2938,23005,,,
23006,7,118.920736,29.269289,上方镇,,330803,0570,330803100000,,,,,,,,,,2,100,1010,1294,2938,23006,,,
23007,7,118.997339,29.141783,峡川镇,,330803,0570,330803101000,,,,,,,,,,2,100,1010,1294,2938,23007,,,
23008,7,119.013313,29.071918,莲花镇,,330803,0570,330803103000,,,,,,,,,,2,100,1010,1294,2938,23008,,,
23009,7,119.055239,28.925711,全旺镇,,330803,0570,330803109000,,,,,,,,,,2,100,1010,1294,2938,23009,,,
23010,7,118.985612,28.869454,大洲镇,,330803,0570,330803110000,,,,,,,,,,2,100,1010,1294,2938,23010,,,
23011,7,118.752828,28.832335,后溪镇,,330803,0570,330803111000,,,,,,,,,,2,100,1010,1294,2938,23011,,,
23012,7,118.835419,28.871887,廿里镇,,330803,0570,330803112000,,,,,,,,,,2,100,1010,1294,2938,23012,,,
23013,7,118.836503,28.708931,湖南镇,,330803,0570,330803113000,,,,,,,,,,2,100,1010,1294,2938,23013,,,
23014,7,119.032937,28.999809,高家镇,,330803,0570,330803114000,,,,,,,,,,2,100,1010,1294,2938,23014,,,
23015,7,118.953123,29.121469,杜泽镇,,330803,0570,330803115000,,,,,,,,,,2,100,1010,1294,2938,23015,,,
23016,7,118.857125,29.242399,灰坪乡,,330803,0570,330803200000,,,,,,,,,,2,100,1010,1294,2938,23016,,,
23017,7,118.842345,29.177907,太真乡,,330803,0570,330803202000,,,,,,,,,,2,100,1010,1294,2938,23017,,,
23018,7,118.888343,29.129925,双桥乡,,330803,0570,330803203000,,,,,,,,,,2,100,1010,1294,2938,23018,,,
23019,7,118.907775,29.083044,周家乡,,330803,0570,330803206000,,,,,,,,,,2,100,1010,1294,2938,23019,,,
23020,7,118.945339,29.028513,云溪乡,,330803,0570,330803207000,,,,,,,,,,2,100,1010,1294,2938,23020,,,
23021,7,118.926762,28.669644,举村乡,,330803,0570,330803213000,,,,,,,,,,2,100,1010,1294,2938,23021,,,
23022,7,118.848256,28.631099,岭洋乡,,330803,0570,330803218000,,,,,,,,,,2,100,1010,1294,2938,23022,,,
23023,7,118.905342,28.829239,黄坛口乡,,330803,0570,330803219000,,,,,,,,,,2,100,1010,1294,2938,23023,,,
23024,7,118.510209,28.900849,天马街道,,330822,0570,330822001000,,,,,,,,,,2,100,1010,1294,2939,23024,,,
23025,7,118.522039,28.91188,紫港街道,,330822,0570,330822002000,,,,,,,,,,2,100,1010,1294,2939,23025,,,
23026,7,118.511249,28.901463,金川街道,,330822,0570,330822003000,,,,,,,,,,2,100,1010,1294,2939,23026,,,
23027,7,118.407153,28.819519,白石镇,,330822,0570,330822104000,,,,,,,,,,2,100,1010,1294,2939,23027,,,
23028,7,118.68289,28.933381,招贤镇,,330822,0570,330822108000,,,,,,,,,,2,100,1010,1294,2939,23028,,,
23029,7,118.5945,28.900546,青石镇,,330822,0570,330822109000,,,,,,,,,,2,100,1010,1294,2939,23029,,,
23030,7,118.359766,28.830328,球川镇,,330822,0570,330822111000,,,,,,,,,,2,100,1010,1294,2939,23030,,,
23031,7,118.505504,28.931533,辉埠镇,,330822,0570,330822115000,,,,,,,,,,2,100,1010,1294,2939,23031,,,
23032,7,118.613349,29.049564,芳村镇,,330822,0570,330822116000,,,,,,,,,,2,100,1010,1294,2939,23032,,,
23033,7,118.43594,28.943906,何家乡,,330822,0570,330822200000,,,,,,,,,,2,100,1010,1294,2939,23033,,,
23034,7,118.428974,28.895544,同弓乡,,330822,0570,330822211000,,,,,,,,,,2,100,1010,1294,2939,23034,,,
23035,7,118.630701,28.968035,大桥头乡,,330822,0570,330822213000,,,,,,,,,,2,100,1010,1294,2939,23035,,,
23036,7,118.597354,29.068043,新昌乡,,330822,0570,330822219000,,,,,,,,,,2,100,1010,1294,2939,23036,,,
23037,7,118.664106,28.980491,东案乡,,330822,0570,330822221000,,,,,,,,,,2,100,1010,1294,2939,23037,,,
23038,7,118.254548,29.005505,桐村镇,,330824,0570,330824106000,,,,,,,,,,2,100,1010,1294,2940,23038,,,
23039,7,118.147874,29.055663,杨林镇,,330824,0570,330824107000,,,,,,,,,,2,100,1010,1294,2940,23039,,,
23040,7,118.124803,29.174139,苏庄镇,,330824,0570,330824108000,,,,,,,,,,2,100,1010,1294,2940,23040,,,
23041,7,118.319924,29.427346,齐溪镇,,330824,0570,330824109000,,,,,,,,,,2,100,1010,1294,2940,23041,,,
23042,7,118.47219,29.264188,村头镇,,330824,0570,330824113000,,,,,,,,,,2,100,1010,1294,2940,23042,,,
23043,7,118.359492,29.007694,华埠镇,,330824,0570,330824115000,,,,,,,,,,2,100,1010,1294,2940,23043,,,
23044,7,118.416986,29.298954,马金镇,,330824,0570,330824116000,,,,,,,,,,2,100,1010,1294,2940,23044,,,
23045,7,118.30628,29.080265,池淮镇,,330824,0570,330824117000,,,,,,,,,,2,100,1010,1294,2940,23045,,,
23046,7,118.340244,29.214471,中村乡,,330824,0570,330824202000,,,,,,,,,,2,100,1010,1294,2940,23046,,,
23047,7,118.230409,29.233536,长虹乡,,330824,0570,330824205000,,,,,,,,,,2,100,1010,1294,2940,23047,,,
23048,7,118.316633,29.328953,何田乡,,330824,0570,330824208000,,,,,,,,,,2,100,1010,1294,2940,23048,,,
23049,7,118.509893,29.140452,林山乡,,330824,0570,330824216000,,,,,,,,,,2,100,1010,1294,2940,23049,,,
23050,7,118.404116,29.196878,音坑乡,,330824,0570,330824217000,,,,,,,,,,2,100,1010,1294,2940,23050,,,
23051,7,118.546191,29.298219,大溪边乡,,330824,0570,330824218000,,,,,,,,,,2,100,1010,1294,2940,23051,,,
23052,7,119.179754,29.030751,龙洲街道,,330825,0570,330825001000,,,,,,,,,,2,100,1010,1294,2941,23052,,,
23053,7,119.204862,29.019659,东华街道,,330825,0570,330825002000,,,,,,,,,,2,100,1010,1294,2941,23053,,,
23054,7,119.295611,29.06113,湖镇镇,,330825,0570,330825101000,,,,,,,,,,2,100,1010,1294,2941,23054,,,
23055,7,119.169835,29.052466,小南海镇,,330825,0570,330825102000,,,,,,,,,,2,100,1010,1294,2941,23055,,,
23056,7,119.13369,29.008423,詹家镇,,330825,0570,330825106000,,,,,,,,,,2,100,1010,1294,2941,23056,,,
23057,7,119.179855,28.84137,溪口镇,,330825,0570,330825109000,,,,,,,,,,2,100,1010,1294,2941,23057,,,
23058,7,119.21083,29.174404,横山镇,,330825,0570,330825110000,,,,,,,,,,2,100,1010,1294,2941,23058,,,
23059,7,119.159416,29.131058,塔石镇,,330825,0570,330825111000,,,,,,,,,,2,100,1010,1294,2941,23059,,,
