dataid,levelid,longitude,latitude,chinese_name,english_name,code1,code2,code3,code4,code5,alias1,alias2,alias3,alias4,alias5,area,population,continentid,countryid,provinceid,cityid,countyid,townid,villageid,buildingid,comments
44520,7,106.701026,26.551774,后巢乡,,520102,0851,520102200000,,,,,,,,,,2,100,1023,1459,4333,44520,,,
44521,7,106.725975,26.561126,云关乡,,520102,0851,520102201000,,,,,,,,,,2,100,1023,1459,4333,44521,,,
44522,7,106.791194,26.535375,小碧布依族苗族乡,,520102,0851,520102202000,,,,,,,,,,2,100,1023,1459,4333,44522,,,
44523,7,106.874229,26.59799,永乐乡,,520102,0851,520102203000,,,,,,,,,,2,100,1023,1459,4333,44523,,,
44524,7,106.719305,26.565477,新华社区服务中心,,520102,0851,520102400000,,,,,,,,,,2,100,1023,1459,4333,44524,,,
44525,7,106.72328,26.571113,西湖社区服务中心,,520102,0851,520102401000,,,,,,,,,,2,100,1023,1459,4333,44525,,,
44526,7,106.741424,26.574422,水口寺社区服务中心,,520102,0851,520102402000,,,,,,,,,,2,100,1023,1459,4333,44526,,,
44527,7,106.71721,26.577462,大南社区服务中心,,520102,0851,520102403000,,,,,,,,,,2,100,1023,1459,4333,44527,,,
44528,7,106.713691,26.57632,中南社区服务中心,,520102,0851,520102404000,,,,,,,,,,2,100,1023,1459,4333,44528,,,
44529,7,106.706729,26.574585,市府社区服务中心,,520102,0851,520102405000,,,,,,,,,,2,100,1023,1459,4333,44529,,,
44530,7,106.706918,26.571107,河滨社区服务中心,,520102,0851,520102406000,,,,,,,,,,2,100,1023,1459,4333,44530,,,
44531,7,106.691047,26.568677,遵义社区服务中心,,520102,0851,520102407000,,,,,,,,,,2,100,1023,1459,4333,44531,,,
44532,7,106.714036,26.563043,兴关社区服务中心,,520102,0851,520102408000,,,,,,,,,,2,100,1023,1459,4333,44532,,,
44533,7,106.717123,26.5777,沙冲社区服务中心,,520102,0851,520102409000,,,,,,,,,,2,100,1023,1459,4333,44533,,,
44534,7,106.69901,26.538609,沙南社区服务中心,,520102,0851,520102410000,,,,,,,,,,2,100,1023,1459,4333,44534,,,
44535,7,106.688436,26.555025,太慈社区服务中心,,520102,0851,520102411000,,,,,,,,,,2,100,1023,1459,4333,44535,,,
44536,7,106.693057,26.564431,湘雅社区服务中心,,520102,0851,520102412000,,,,,,,,,,2,100,1023,1459,4333,44536,,,
44537,7,106.725658,26.563588,油榨社区服务中心,,520102,0851,520102413000,,,,,,,,,,2,100,1023,1459,4333,44537,,,
44538,7,106.687501,26.548282,中曹司社区服务中心,,520102,0851,520102414000,,,,,,,,,,2,100,1023,1459,4333,44538,,,
44539,7,106.70558,26.54672,二戈寨社区服务中心,,520102,0851,520102415000,,,,,,,,,,2,100,1023,1459,4333,44539,,,
44540,7,106.776116,26.557213,见龙社区服务中心,,520102,0851,520102416000,,,,,,,,,,2,100,1023,1459,4333,44540,,,
44541,7,106.779909,26.550702,龙洞社区服务中心,,520102,0851,520102417000,,,,,,,,,,2,100,1023,1459,4333,44541,,,
44542,7,106.688077,26.56412,花果园社区服务中心,,520102,0851,520102418000,,,,,,,,,,2,100,1023,1459,4333,44542,,,
44543,7,106.67794,26.540524,小车河社区服务中心,,520102,0851,520102419000,,,,,,,,,,2,100,1023,1459,4333,44543,,,
44544,7,106.72841,26.612821,黔灵镇,,520103,0851,520103100000,,,,,,,,,,2,100,1023,1459,4334,44544,,,
44545,7,106.715461,26.580978,中华社区服务中心,,520103,0851,520103400000,,,,,,,,,,2,100,1023,1459,4334,44545,,,
44546,7,106.706345,26.590685,中环社区服务中心,,520103,0851,520103401000,,,,,,,,,,2,100,1023,1459,4334,44546,,,
44547,7,106.716721,26.578787,中东社区服务中心,,520103,0851,520103402000,,,,,,,,,,2,100,1023,1459,4334,44547,,,
44548,7,106.732054,26.582215,东山社区服务中心,,520103,0851,520103403000,,,,,,,,,,2,100,1023,1459,4334,44548,,,
44549,7,106.709274,26.585354,延中社区服务中心,,520103,0851,520103404000,,,,,,,,,,2,100,1023,1459,4334,44549,,,
44550,7,106.7036,26.582357,市西社区服务中心,,520103,0851,520103405000,,,,,,,,,,2,100,1023,1459,4334,44550,,,
44551,7,106.704101,26.584417,威清社区服务中心,,520103,0851,520103406000,,,,,,,,,,2,100,1023,1459,4334,44551,,,
44552,7,106.713366,26.588248,普陀社区服务中心,,520103,0851,520103407000,,,,,,,,,,2,100,1023,1459,4334,44552,,,
44553,7,106.704231,26.598419,北京路社区服务中心,,520103,0851,520103408000,,,,,,,,,,2,100,1023,1459,4334,44553,,,
44554,7,106.725394,26.586048,栖霞社区服务中心,,520103,0851,520103409000,,,,,,,,,,2,100,1023,1459,4334,44554,,,
44555,7,106.717104,26.586676,黔东社区服务中心,,520103,0851,520103410000,,,,,,,,,,2,100,1023,1459,4334,44555,,,
44556,7,106.71138,26.601003,宅吉社区服务中心,,520103,0851,520103411000,,,,,,,,,,2,100,1023,1459,4334,44556,,,
44557,7,106.700497,26.611188,省府社区服务中心,,520103,0851,520103412000,,,,,,,,,,2,100,1023,1459,4334,44557,,,
44558,7,106.728939,26.59363,金狮社区服务中心,,520103,0851,520103413000,,,,,,,,,,2,100,1023,1459,4334,44558,,,
44559,7,106.730132,26.613854,中天社区服务中心,,520103,0851,520103414000,,,,,,,,,,2,100,1023,1459,4334,44559,,,
44560,7,106.718711,26.597379,贵乌社区服务中心,,520103,0851,520103415000,,,,,,,,,,2,100,1023,1459,4334,44560,,,
44561,7,106.690268,26.583002,头桥社区服务中心,,520103,0851,520103416000,,,,,,,,,,2,100,1023,1459,4334,44561,,,
44562,7,106.689258,26.571523,金龙社区服务中心,,520103,0851,520103417000,,,,,,,,,,2,100,1023,1459,4334,44562,,,
44563,7,106.714378,26.588734,圣泉社区服务中心,,520103,0851,520103418000,,,,,,,,,,2,100,1023,1459,4334,44563,,,
44564,7,106.667465,26.58152,三桥社区服务中心,,520103,0851,520103419000,,,,,,,,,,2,100,1023,1459,4334,44564,,,
44565,7,106.644805,26.57336,金关社区服务中心,,520103,0851,520103420000,,,,,,,,,,2,100,1023,1459,4334,44565,,,
44566,7,106.663084,26.559927,蔡关社区服务中心,,520103,0851,520103421000,,,,,,,,,,2,100,1023,1459,4334,44566,,,
44567,7,106.656202,26.596271,荷塘社区服务中心,,520103,0851,520103422000,,,,,,,,,,2,100,1023,1459,4334,44567,,,
44568,7,106.631766,26.59084,普天社区服务中心,,520103,0851,520103423000,,,,,,,,,,2,100,1023,1459,4334,44568,,,
44569,7,106.649905,26.580186,金鸭社区服务中心,,520103,0851,520103424000,,,,,,,,,,2,100,1023,1459,4334,44569,,,
44570,7,106.60867,26.593556,金惠社区服务中心,,520103,0851,520103425000,,,,,,,,,,2,100,1023,1459,4334,44570,,,
44571,7,106.759749,26.603631,水东社区服务中心,,520103,0851,520103426000,,,,,,,,,,2,100,1023,1459,4334,44571,,,
44572,7,106.691183,26.33405,青岩镇,,520111,0851,520111101000,,,,,,,,,,2,100,1023,1459,4335,44572,,,
44573,7,106.60075,26.457311,石板镇,,520111,0851,520111102000,,,,,,,,,,2,100,1023,1459,4335,44573,,,
44574,7,106.597031,26.384494,党武镇,,520111,0851,520111103000,,,,,,,,,,2,100,1023,1459,4335,44574,,,
44575,7,106.544325,26.482785,麦坪镇,,520111,0851,520111104000,,,,,,,,,,2,100,1023,1459,4335,44575,,,
44576,7,106.619227,26.322845,燕楼镇,,520111,0851,520111105000,,,,,,,,,,2,100,1023,1459,4335,44576,,,
44577,7,106.749009,26.410916,孟关苗族布依族乡,,520111,0851,520111201000,,,,,,,,,,2,100,1023,1459,4335,44577,,,
44578,7,106.53018,26.445707,湖潮苗族布依族乡,,520111,0851,520111204000,,,,,,,,,,2,100,1023,1459,4335,44578,,,
44579,7,106.59097,26.516835,久安乡,,520111,0851,520111205000,,,,,,,,,,2,100,1023,1459,4335,44579,,,
44580,7,106.813089,26.295554,高坡苗族乡,,520111,0851,520111207000,,,,,,,,,,2,100,1023,1459,4335,44580,,,
44581,7,106.743931,26.340658,黔陶布依族苗族乡,,520111,0851,520111208000,,,,,,,,,,2,100,1023,1459,4335,44581,,,
44582,7,106.586543,26.27436,马铃布依族苗族乡,,520111,0851,520111209000,,,,,,,,,,2,100,1023,1459,4335,44582,,,
44583,7,106.517431,26.382325,羊艾农场,,520111,0851,520111400000,,,,,,,,,,2,100,1023,1459,4335,44583,,,
44584,7,106.67904,26.42098,阳光社区服务中心,,520111,0851,520111401000,,,,,,,,,,2,100,1023,1459,4335,44584,,,
44585,7,106.672429,26.429377,贵筑社区服务中心,,520111,0851,520111402000,,,,,,,,,,2,100,1023,1459,4335,44585,,,
44586,7,106.635243,26.39537,溪北社区服务中心,,520111,0851,520111403000,,,,,,,,,,2,100,1023,1459,4335,44586,,,
44587,7,106.677217,26.437275,清溪社区服务中心,,520111,0851,520111404000,,,,,,,,,,2,100,1023,1459,4335,44587,,,
44588,7,106.666727,26.434373,明珠社区服务中心,,520111,0851,520111405000,,,,,,,,,,2,100,1023,1459,4335,44588,,,
44589,7,106.694481,26.510228,兴隆社区服务中心,,520111,0851,520111406000,,,,,,,,,,2,100,1023,1459,4335,44589,,,
44590,7,106.709855,26.512605,瑞华社区服务中心,,520111,0851,520111407000,,,,,,,,,,2,100,1023,1459,4335,44590,,,
44591,7,106.709443,26.513478,清浦社区服务中心,,520111,0851,520111408000,,,,,,,,,,2,100,1023,1459,4335,44591,,,
44592,7,106.694481,26.510228,黔江社区服务中心,,520111,0851,520111409000,,,,,,,,,,2,100,1023,1459,4335,44592,,,
44593,7,106.676585,26.504076,平桥社区服务中心,,520111,0851,520111410000,,,,,,,,,,2,100,1023,1459,4335,44593,,,
44594,7,106.697051,26.506386,航天社区服务中心,,520111,0851,520111411000,,,,,,,,,,2,100,1023,1459,4335,44594,,,
44595,7,106.715516,26.495908,航空社区服务中心,,520111,0851,520111412000,,,,,,,,,,2,100,1023,1459,4335,44595,,,
44596,7,106.654425,26.491733,金欣社区服务中心,,520111,0851,520111413000,,,,,,,,,,2,100,1023,1459,4335,44596,,,
44597,7,106.709543,26.527358,黄河社区服务中心,,520111,0851,520111414000,,,,,,,,,,2,100,1023,1459,4335,44597,,,
44598,7,106.696628,26.504204,三江社区服务中心,,520111,0851,520111415000,,,,,,,,,,2,100,1023,1459,4335,44598,,,
44599,7,106.697374,26.476468,小孟社区服务中心,,520111,0851,520111416000,,,,,,,,,,2,100,1023,1459,4335,44599,,,
44600,7,106.653833,26.492302,金竹社区服务中心,,520111,0851,520111417000,,,,,,,,,,2,100,1023,1459,4335,44600,,,
44601,7,106.694421,26.438894,花孟社区服务中心,,520111,0851,520111418000,,,,,,,,,,2,100,1023,1459,4335,44601,,,
44602,7,106.816665,26.640715,东风镇,,520112,0851,520112101000,,,,,,,,,,2,100,1023,1459,4336,44602,,,
44603,7,106.82059,26.746219,水田镇,,520112,0851,520112102000,,,,,,,,,,2,100,1023,1459,4336,44603,,,
44604,7,106.886953,26.830948,羊昌镇,,520112,0851,520112103000,,,,,,,,,,2,100,1023,1459,4336,44604,,,
44605,7,106.927216,26.719316,下坝镇,,520112,0851,520112105000,,,,,,,,,,2,100,1023,1459,4336,44605,,,
44606,7,106.750625,26.630845,新场镇,,520112,0851,520112106000,,,,,,,,,,2,100,1023,1459,4336,44606,,,
44607,7,106.979371,26.830123,百宜镇,,520112,0851,520112107000,,,,,,,,,,2,100,1023,1459,4336,44607,,,
44608,7,106.86228,26.790275,新堡布依族乡,,520112,0851,520112203000,,,,,,,,,,2,100,1023,1459,4336,44608,,,
44609,7,106.927615,26.652571,偏坡布依族乡,,520112,0851,520112206000,,,,,,,,,,2,100,1023,1459,4336,44609,,,
44610,7,106.760726,26.634038,顺新社区服务中心,,520112,0851,520112401000,,,,,,,,,,2,100,1023,1459,4336,44610,,,
44611,7,106.76019,26.62477,新天社区服务中心,,520112,0851,520112402000,,,,,,,,,,2,100,1023,1459,4336,44611,,,
44612,7,106.772574,26.629457,创新社区服务中心,,520112,0851,520112403000,,,,,,,,,,2,100,1023,1459,4336,44612,,,
44613,7,106.777201,26.643805,振新社区服务中心,,520112,0851,520112404000,,,,,,,,,,2,100,1023,1459,4336,44613,,,
44614,7,106.771785,26.631412,高新社区服务中心,,520112,0851,520112405000,,,,,,,,,,2,100,1023,1459,4336,44614,,,
44615,7,106.610427,26.669699,艳山红镇,,520113,0851,520113100000,,,,,,,,,,2,100,1023,1459,4337,44615,,,
44616,7,106.622842,26.712169,麦架镇,,520113,0851,520113101000,,,,,,,,,,2,100,1023,1459,4337,44616,,,
44617,7,106.696726,26.731748,沙文镇,,520113,0851,520113102000,,,,,,,,,,2,100,1023,1459,4337,44617,,,
44618,7,106.721863,26.688245,都拉布依族乡,,520113,0851,520113200000,,,,,,,,,,2,100,1023,1459,4337,44618,,,
44619,7,106.744383,26.750578,牛场布依族乡,,520113,0851,520113201000,,,,,,,,,,2,100,1023,1459,4337,44619,,,
44620,7,106.63171,26.679814,红云社区服务中心,,520113,0851,520113400000,,,,,,,,,,2,100,1023,1459,4337,44620,,,
44621,7,106.626902,26.684253,大山洞社区服务中心,,520113,0851,520113401000,,,,,,,,,,2,100,1023,1459,4337,44621,,,
44622,7,106.645019,26.672703,艳山红社区服务中心,,520113,0851,520113402000,,,,,,,,,,2,100,1023,1459,4337,44622,,,
44623,7,106.65739,26.682635,铝兴社区服务中心,,520113,0851,520113403000,,,,,,,,,,2,100,1023,1459,4337,44623,,,
44624,7,106.649825,26.687175,白沙关社区服务中心,,520113,0851,520113404000,,,,,,,,,,2,100,1023,1459,4337,44624,,,
44625,7,106.732841,26.681881,都新社区服务中心,,520113,0851,520113405000,,,,,,,,,,2,100,1023,1459,4337,44625,,,
44626,7,106.623007,26.678562,贵阳市白云区泉湖社区服务中心,,520113,0851,520113406000,,,,,,,,,,2,100,1023,1459,4337,44626,,,
44627,7,106.565524,26.567419,金华镇,,520115,0851,520115100000,,,,,,,,,,2,100,1023,1459,4338,44627,,,
44628,7,106.549847,26.656837,朱昌镇,,520115,0851,520115101000,,,,,,,,,,2,100,1023,1459,4338,44628,,,
44629,7,106.525111,26.682648,百花湖镇,,520115,0851,520115102000,,,,,,,,,,2,100,1023,1459,4338,44629,,,
44630,7,106.662489,26.613231,世纪城社区服务中心,,520115,0851,520115400000,,,,,,,,,,2,100,1023,1459,4338,44630,,,
44631,7,106.630404,26.603555,金源社区服务中心,,520115,0851,520115401000,,,,,,,,,,2,100,1023,1459,4338,44631,,,
44632,7,106.61987,26.609488,逸景社区服务中心,,520115,0851,520115402000,,,,,,,,,,2,100,1023,1459,4338,44632,,,
44633,7,106.61995,26.62569,碧海社区服务中心,,520115,0851,520115403000,,,,,,,,,,2,100,1023,1459,4338,44633,,,
44634,7,106.60872,26.652241,金麦社区服务中心,,520115,0851,520115404000,,,,,,,,,,2,100,1023,1459,4338,44634,,,
44635,7,106.616164,26.653676,新世界社区服务中心,,520115,0851,520115405000,,,,,,,,,,2,100,1023,1459,4338,44635,,,
44636,7,106.634501,26.607847,金华园社区服务中心,,520115,0851,520115406000,,,,,,,,,,2,100,1023,1459,4338,44636,,,
44637,7,106.665112,26.642403,金岭社区服务中心,,520115,0851,520115407000,,,,,,,,,,2,100,1023,1459,4338,44637,,,
44638,7,106.644085,26.638288,会展社区服务中心,,520115,0851,520115408000,,,,,,,,,,2,100,1023,1459,4338,44638,,,
44639,7,106.635659,26.616766,观山社区服务中心,,520115,0851,520115409000,,,,,,,,,,2,100,1023,1459,4338,44639,,,
44640,7,106.976944,27.054007,城关镇,,520121,0851,520121100000,,,,,,,,,,2,100,1023,1459,4339,44640,,,
44641,7,106.853973,27.054217,双流镇,,520121,0851,520121101000,,,,,,,,,,2,100,1023,1459,4339,44641,,,
44642,7,106.852109,27.115249,金中镇,,520121,0851,520121102000,,,,,,,,,,2,100,1023,1459,4339,44642,,,
44643,7,107.007724,27.1775,冯三镇,,520121,0851,520121103000,,,,,,,,,,2,100,1023,1459,4339,44643,,,
44644,7,107.00343,27.287215,楠木渡镇,,520121,0851,520121104000,,,,,,,,,,2,100,1023,1459,4339,44644,,,
44645,7,107.097023,26.881511,龙岗镇,,520121,0851,520121105000,,,,,,,,,,2,100,1023,1459,4339,44645,,,
44646,7,106.96509,27.057764,永温镇,,520121,0851,520121106000,,,,,,,,,,2,100,1023,1459,4339,44646,,,
44647,7,107.157757,27.149496,花梨镇,,520121,0851,520121107000,,,,,,,,,,2,100,1023,1459,4339,44647,,,
44648,7,107.0951,27.00747,南龙乡,,520121,0851,520121200000,,,,,,,,,,2,100,1023,1459,4339,44648,,,
44649,7,107.12917,27.29241,宅吉乡,,520121,0851,520121202000,,,,,,,,,,2,100,1023,1459,4339,44649,,,
44650,7,107.22438,27.23164,龙水乡,,520121,0851,520121204000,,,,,,,,,,2,100,1023,1459,4339,44650,,,
44651,7,107.124357,27.206486,米坪乡,,520121,0851,520121205000,,,,,,,,,,2,100,1023,1459,4339,44651,,,
44652,7,106.895395,26.972246,禾丰布依族苗族乡,,520121,0851,520121206000,,,,,,,,,,2,100,1023,1459,4339,44652,,,
44653,7,106.97355,26.896821,南江布依族苗族乡,,520121,0851,520121207000,,,,,,,,,,2,100,1023,1459,4339,44653,,,
44654,7,107.20659,26.853574,高寨苗族布依族乡,,520121,0851,520121208000,,,,,,,,,,2,100,1023,1459,4339,44654,,,
44655,7,107.16812,26.977899,毛云乡,,520121,0851,520121209000,,,,,,,,,,2,100,1023,1459,4339,44655,,,
44656,7,106.970546,27.049671,紫兴社区服务中心,,520121,0851,520121401000,,,,,,,,,,2,100,1023,1459,4339,44656,,,
44657,7,106.968904,27.048827,南山社区服务中心,,520121,0851,520121402000,,,,,,,,,,2,100,1023,1459,4339,44657,,,
44658,7,106.737024,27.098226,永靖镇,,520122,0851,520122100000,,,,,,,,,,2,100,1023,1459,4340,44658,,,
44659,7,106.843491,27.206546,温泉镇,,520122,0851,520122101000,,,,,,,,,,2,100,1023,1459,4340,44659,,,
44660,7,106.521957,27.12708,九庄镇,,520122,0851,520122102000,,,,,,,,,,2,100,1023,1459,4340,44660,,,
44661,7,106.73246,27.161981,小寨坝镇,,520122,0851,520122103000,,,,,,,,,,2,100,1023,1459,4340,44661,,,
44662,7,106.697189,27.085091,西山镇,,520122,0851,520122104000,,,,,,,,,,2,100,1023,1459,4340,44662,,,
44663,7,106.78502,27.239714,养龙司镇,,520122,0851,520122105000,,,,,,,,,,2,100,1023,1459,4340,44663,,,
44664,7,106.583205,27.042061,石硐镇,,520122,0851,520122106000,,,,,,,,,,2,100,1023,1459,4340,44664,,,
44665,7,106.59316,27.16478,鹿窝镇,,520122,0851,520122107000,,,,,,,,,,2,100,1023,1459,4340,44665,,,
44666,7,106.63445,27.223168,流长镇,,520122,0851,520122108000,,,,,,,,,,2,100,1023,1459,4340,44666,,,
44667,7,106.654572,27.039521,青山苗族乡,,520122,0851,520122200000,,,,,,,,,,2,100,1023,1459,4340,44667,,,
44668,7,106.73835,27.087658,新华社区服务中心,,520122,0851,520122400000,,,,,,,,,,2,100,1023,1459,4340,44668,,,
44669,7,106.594824,26.838347,龙场镇,,520123,0851,520123100000,,,,,,,,,,2,100,1023,1459,4341,44669,,,
44670,7,106.716456,26.84892,扎佐镇,,520123,0851,520123101000,,,,,,,,,,2,100,1023,1459,4341,44670,,,
44671,7,106.698247,26.934533,久长镇,,520123,0851,520123102000,,,,,,,,,,2,100,1023,1459,4341,44671,,,
44672,7,106.432096,26.993348,六广镇,,520123,0851,520123103000,,,,,,,,,,2,100,1023,1459,4341,44672,,,
44673,7,106.836734,26.965334,六屯镇,,520123,0851,520123104000,,,,,,,,,,2,100,1023,1459,4341,44673,,,
44674,7,106.476373,26.926395,洒坪镇,,520123,0851,520123105000,,,,,,,,,,2,100,1023,1459,4341,44674,,,
44675,7,106.454601,27.091358,六桶镇,,520123,0851,520123106000,,,,,,,,,,2,100,1023,1459,4341,44675,,,
44676,7,106.524766,26.852156,谷堡镇,,520123,0851,520123107000,,,,,,,,,,2,100,1023,1459,4341,44676,,,
44677,7,106.533722,26.934012,小箐镇,,520123,0851,520123108000,,,,,,,,,,2,100,1023,1459,4341,44677,,,
44678,7,106.46088,27.023138,大石布依族乡,,520123,0851,520123204000,,,,,,,,,,2,100,1023,1459,4341,44678,,,
44679,7,106.59542,26.836592,龙岗社区服务中心,,520123,0851,520123400000,,,,,,,,,,2,100,1023,1459,4341,44679,,,
44680,7,106.71953,26.848081,珍珠河社区服务中心,,520123,0851,520123401000,,,,,,,,,,2,100,1023,1459,4341,44680,,,
44681,7,106.46551,26.549734,红枫湖镇,,520181,0851,520181100000,,,,,,,,,,2,100,1023,1459,4342,44681,,,
44682,7,106.361041,26.633976,站街镇,,520181,0851,520181101000,,,,,,,,,,2,100,1023,1459,4342,44682,,,
44683,7,106.34951,26.761003,卫城镇,,520181,0851,520181102000,,,,,,,,,,2,100,1023,1459,4342,44683,,,
44684,7,106.17317,26.853004,新店镇,,520181,0851,520181103000,,,,,,,,,,2,100,1023,1459,4342,44684,,,
44685,7,106.359688,26.809807,暗流镇,,520181,0851,520181104000,,,,,,,,,,2,100,1023,1459,4342,44685,,,
44686,7,106.29229,26.632258,犁倭镇,,520181,0851,520181105000,,,,,,,,,,2,100,1023,1459,4342,44686,,,
44687,7,106.464085,26.704274,麦格苗族布依族乡,,520181,0851,520181201000,,,,,,,,,,2,100,1023,1459,4342,44687,,,
44688,7,106.293565,26.778208,王庄布依族苗族乡,,520181,0851,520181203000,,,,,,,,,,2,100,1023,1459,4342,44688,,,
44689,7,106.222074,26.668733,流长苗族乡,,520181,0851,520181204000,,,,,,,,,,2,100,1023,1459,4342,44689,,,
44690,7,106.462114,26.549953,新岭社区服务中心,,520181,0851,520181400000,,,,,,,,,,2,100,1023,1459,4342,44690,,,
44691,7,106.469122,26.558204,红塔社区服务中心,,520181,0851,520181401000,,,,,,,,,,2,100,1023,1459,4342,44691,,,
44692,7,106.505204,26.529076,巢凤社区服务中心,,520181,0851,520181402000,,,,,,,,,,2,100,1023,1459,4342,44692,,,
44693,7,106.471796,26.56699,百花社区服务中心,,520181,0851,520181403000,,,,,,,,,,2,100,1023,1459,4342,44693,,,
44694,7,106.475092,26.554839,红新社区服务中心,,520181,0851,520181405000,,,,,,,,,,2,100,1023,1459,4342,44694,,,
44695,7,104.824622,26.601528,黄土坡街道,,520201,0858,520201011000,,,,,,,,,,2,100,1023,1460,4343,44695,,,
44696,7,104.85156,26.59499,红岩街道,,520201,0858,520201012000,,,,,,,,,,2,100,1023,1460,4343,44696,,,
44697,7,104.8525,26.586191,荷泉街道,,520201,0858,520201013000,,,,,,,,,,2,100,1023,1460,4343,44697,,,
44698,7,104.88561,26.573103,荷城街道,,520201,0858,520201014000,,,,,,,,,,2,100,1023,1460,4343,44698,,,
44699,7,104.843555,26.574979,杨柳街道,,520201,0858,520201015000,,,,,,,,,,2,100,1023,1460,4343,44699,,,
44700,7,104.857406,26.564135,凤凰街道,,520201,0858,520201016000,,,,,,,,,,2,100,1023,1460,4343,44700,,,
44701,7,104.796209,26.610408,德坞街道,,520201,0858,520201017000,,,,,,,,,,2,100,1023,1460,4343,44701,,,
44702,7,104.843555,26.574979,月照街道,,520201,0858,520201018000,,,,,,,,,,2,100,1023,1460,4343,44702,,,
44703,7,104.843555,26.574979,双戛街道,,520201,0858,520201019000,,,,,,,,,,2,100,1023,1460,4343,44703,,,
44704,7,104.84333,26.633599,大河镇,,520201,0858,520201101000,,,,,,,,,,2,100,1023,1460,4343,44704,,,
44705,7,104.805749,26.692447,汪家寨镇,,520201,0858,520201102000,,,,,,,,,,2,100,1023,1460,4343,44705,,,
44706,7,104.641045,26.774006,大湾镇,,520201,0858,520201103000,,,,,,,,,,2,100,1023,1460,4343,44706,,,
44707,7,105.480029,26.201228,九龙街道,,520203,0858,520203001000,,,,,,,,,,2,100,1023,1460,4344,44707,,,
44708,7,105.461483,26.212505,银壶街道,,520203,0858,520203002000,,,,,,,,,,2,100,1023,1460,4344,44708,,,
44709,7,105.438418,26.231534,塔山街道,,520203,0858,520203003000,,,,,,,,,,2,100,1023,1460,4344,44709,,,
44710,7,105.396859,26.339113,岩脚镇,,520203,0858,520203102000,,,,,,,,,,2,100,1023,1460,4344,44710,,,
44711,7,105.67777,26.176949,木岗镇,,520203,0858,520203103000,,,,,,,,,,2,100,1023,1460,4344,44711,,,
44712,7,105.55036,26.184839,大用镇,,520203,0858,520203104000,,,,,,,,,,2,100,1023,1460,4344,44712,,,
44713,7,105.313963,26.265204,关寨镇,,520203,0858,520203105000,,,,,,,,,,2,100,1023,1460,4344,44713,,,
44714,7,105.232208,26.058454,牂牁镇,,520203,0858,520203106000,,,,,,,,,,2,100,1023,1460,4344,44714,,,
44715,7,105.472768,26.385235,新华镇,,520203,0858,520203107000,,,,,,,,,,2,100,1023,1460,4344,44715,,,
44716,7,105.474084,26.32494,龙河镇,,520203,0858,520203108000,,,,,,,,,,2,100,1023,1460,4344,44716,,,
44717,7,105.379132,26.229316,新窑镇,,520203,0858,520203109000,,,,,,,,,,2,100,1023,1460,4344,44717,,,
44718,7,105.348767,26.085924,郎岱镇,,520203,0858,520203110000,,,,,,,,,,2,100,1023,1460,4344,44718,,,
44719,7,105.391292,26.434214,梭戛苗族彝族回族乡,,520203,0858,520203203000,,,,,,,,,,2,100,1023,1460,4344,44719,,,
44720,7,105.30717,26.48885,牛场苗族彝族乡,,520203,0858,520203204000,,,,,,,,,,2,100,1023,1460,4344,44720,,,
44721,7,105.303363,26.409429,新场乡,,520203,0858,520203205000,,,,,,,,,,2,100,1023,1460,4344,44721,,,
44722,7,105.269151,26.148987,中寨苗族彝族布依族乡,,520203,0858,520203208000,,,,,,,,,,2,100,1023,1460,4344,44722,,,
44723,7,105.595801,26.112524,落别布依族彝族乡,,520203,0858,520203213000,,,,,,,,,,2,100,1023,1460,4344,44723,,,
44724,7,105.42649,26.099021,月亮河彝族布依族苗族乡,,520203,0858,520203214000,,,,,,,,,,2,100,1023,1460,4344,44724,,,
44725,7,104.959842,26.537559,双水街道,,520221,0858,520221001000,,,,,,,,,,2,100,1023,1460,4345,44725,,,
44726,7,104.957831,26.547904,尖山街道,,520221,0858,520221002000,,,,,,,,,,2,100,1023,1460,4345,44726,,,
44727,7,105.15347,26.531772,老鹰山街道,,520221,0858,520221003000,,,,,,,,,,2,100,1023,1460,4345,44727,,,
44728,7,105.042336,26.589129,董地街道,,520221,0858,520221004000,,,,,,,,,,2,100,1023,1460,4345,44728,,,
44729,7,104.957831,26.547904,比德镇,,520221,0858,520221102000,,,,,,,,,,2,100,1023,1460,4345,44729,,,
44730,7,105.21668,26.47834,化乐镇,,520221,0858,520221103000,,,,,,,,,,2,100,1023,1460,4345,44730,,,
44731,7,105.114828,26.336908,蟠龙镇,,520221,0858,520221104000,,,,,,,,,,2,100,1023,1460,4345,44731,,,
44732,7,105.046069,26.394593,阿戛镇,,520221,0858,520221105000,,,,,,,,,,2,100,1023,1460,4345,44732,,,
44733,7,104.957831,26.547904,勺米镇,,520221,0858,520221106000,,,,,,,,,,2,100,1023,1460,4345,44733,,,
44734,7,104.7794,26.492229,玉舍镇,,520221,0858,520221107000,,,,,,,,,,2,100,1023,1460,4345,44734,,,
44735,7,104.699829,26.363225,都格镇,,520221,0858,520221108000,,,,,,,,,,2,100,1023,1460,4345,44735,,,
44736,7,104.957831,26.547904,发耳镇,,520221,0858,520221109000,,,,,,,,,,2,100,1023,1460,4345,44736,,,
44737,7,104.957831,26.547904,鸡场镇,,520221,0858,520221110000,,,,,,,,,,2,100,1023,1460,4345,44737,,,
44738,7,104.839579,26.767868,木果镇,,520221,0858,520221111000,,,,,,,,,,2,100,1023,1460,4345,44738,,,
44739,7,104.957831,26.547904,保华镇,,520221,0858,520221112000,,,,,,,,,,2,100,1023,1460,4345,44739,,,
44740,7,105.129014,26.474979,陡箐镇,,520221,0858,520221113000,,,,,,,,,,2,100,1023,1460,4345,44740,,,
44741,7,105.004228,26.378845,米箩镇,,520221,0858,520221114000,,,,,,,,,,2,100,1023,1460,4345,44741,,,
44742,7,105.007528,26.753847,南开苗族彝族乡,,520221,0858,520221204000,,,,,,,,,,2,100,1023,1460,4345,44742,,,
44743,7,105.03207,26.74231,青林苗族彝族乡,,520221,0858,520221205000,,,,,,,,,,2,100,1023,1460,4345,44743,,,
44744,7,104.964298,26.843681,金盆苗族彝族乡,,520221,0858,520221207000,,,,,,,,,,2,100,1023,1460,4345,44744,,,
44745,7,104.665793,26.465063,坪寨彝族乡,,520221,0858,520221214000,,,,,,,,,,2,100,1023,1460,4345,44745,,,
44746,7,104.762859,26.15523,龙场苗族白族彝族乡,,520221,0858,520221218000,,,,,,,,,,2,100,1023,1460,4345,44746,,,
44747,7,104.728392,26.165945,营盘苗族彝族白族乡,,520221,0858,520221219000,,,,,,,,,,2,100,1023,1460,4345,44747,,,
44748,7,104.834981,26.157669,顺场苗族彝族布依族乡,,520221,0858,520221220000,,,,,,,,,,2,100,1023,1460,4345,44748,,,
44749,7,104.928159,26.07397,花戛苗族布依族彝族乡,,520221,0858,520221221000,,,,,,,,,,2,100,1023,1460,4345,44749,,,
44750,7,104.834591,26.293279,杨梅彝族苗族回族乡,,520221,0858,520221222000,,,,,,,,,,2,100,1023,1460,4345,44750,,,
44751,7,104.76022,26.22498,新街彝族苗族布依族乡,,520221,0858,520221223000,,,,,,,,,,2,100,1023,1460,4345,44751,,,
44752,7,104.929609,26.230703,野钟苗族彝族布依族乡,,520221,0858,520221224000,,,,,,,,,,2,100,1023,1460,4345,44752,,,
44753,7,104.989471,26.266263,果布戛彝族苗族布依族乡,,520221,0858,520221225000,,,,,,,,,,2,100,1023,1460,4345,44753,,,
44754,7,105.129242,26.229472,猴场苗族布依族乡,,520221,0858,520221230000,,,,,,,,,,2,100,1023,1460,4345,44754,,,
44755,7,104.830359,26.592666,亦资街道,,520200,0858,520281001000,,,,,,,,,,2,100,1023,1460,4346,44755,,,
44756,7,104.830359,26.592666,翰林街道,,520200,0858,520281002000,,,,,,,,,,2,100,1023,1460,4346,44756,,,
44757,7,104.58753,25.812519,两河街道,,520281,0858,520281003000,,,,,,,,,,2,100,1023,1460,4346,44757,,,
44758,7,104.830359,26.592666,红果街道,,520200,0858,520281004000,,,,,,,,,,2,100,1023,1460,4346,44758,,,
44759,7,104.830359,26.592666,胜境街道,,520200,0858,520281005000,,,,,,,,,,2,100,1023,1460,4346,44759,,,
44760,7,104.674438,25.814494,刘官街道,,520281,0858,520281006000,,,,,,,,,,2,100,1023,1460,4346,44760,,,
44761,7,104.830359,26.592666,民主镇,,520200,0858,520281104000,,,,,,,,,,2,100,1023,1460,4346,44761,,,
44762,7,104.66817,25.53542,大山镇,,520281,0858,520281105000,,,,,,,,,,2,100,1023,1460,4346,44762,,,
44763,7,104.72142,25.408299,保田镇,,520281,0858,520281106000,,,,,,,,,,2,100,1023,1460,4346,44763,,,
44764,7,104.549989,25.59307,石桥镇,,520281,0858,520281109000,,,,,,,,,,2,100,1023,1460,4346,44764,,,
44765,7,104.585674,25.467508,响水镇,,520281,0858,520281111000,,,,,,,,,,2,100,1023,1460,4346,44765,,,
44766,7,104.50506,26.008271,柏果镇,,520281,0858,520281117000,,,,,,,,,,2,100,1023,1460,4346,44766,,,
44767,7,104.846458,25.47689,新民镇,,520281,0858,520281121000,,,,,,,,,,2,100,1023,1460,4346,44767,,,
44768,7,104.483023,25.886057,盘关镇,,520281,0858,520281123000,,,,,,,,,,2,100,1023,1460,4346,44768,,,
44769,7,104.826746,25.613486,竹海镇,,520281,0858,520281124000,,,,,,,,,,2,100,1023,1460,4346,44769,,,
44770,7,104.838524,25.79214,英武镇,,520281,0858,520281125000,,,,,,,,,,2,100,1023,1460,4346,44770,,,
44771,7,104.638832,25.964903,鸡场坪镇,,520281,0858,520281126000,,,,,,,,,,2,100,1023,1460,4346,44771,,,
44772,7,104.649496,25.776561,双凤镇,,520281,0858,520281127000,,,,,,,,,,2,100,1023,1460,4346,44772,,,
44773,7,104.830359,26.592666,丹霞镇,,520200,0858,520281128000,,,,,,,,,,2,100,1023,1460,4346,44773,,,
44774,7,104.579349,26.197448,乌蒙镇,,520281,0858,520281129000,,,,,,,,,,2,100,1023,1460,4346,44774,,,
44775,7,104.830359,26.592666,普田回族乡,,520200,0858,520281202000,,,,,,,,,,2,100,1023,1460,4346,44775,,,
44776,7,104.830359,26.592666,坪地彝族乡,,520200,0858,520281208000,,,,,,,,,,2,100,1023,1460,4346,44776,,,
44777,7,104.757452,25.974428,淤泥彝族乡,,520281,0858,520281210000,,,,,,,,,,2,100,1023,1460,4346,44777,,,
44778,7,104.830359,26.592666,普古彝族苗族乡,,520200,0858,520281211000,,,,,,,,,,2,100,1023,1460,4346,44778,,,
44779,7,104.830359,26.592666,旧营白族彝族苗族乡,,520200,0858,520281212000,,,,,,,,,,2,100,1023,1460,4346,44779,,,
44780,7,104.850745,25.86101,羊场布依族白族苗族乡,,520281,0858,520281213000,,,,,,,,,,2,100,1023,1460,4346,44780,,,
44781,7,104.830359,26.592666,保基苗族彝族乡,,520200,0858,520281214000,,,,,,,,,,2,100,1023,1460,4346,44781,,,
44782,7,106.918811,27.686867,老城街道,,520302,0852,520302001000,,,,,,,,,,2,100,1023,1461,4347,44782,,,
44783,7,106.919625,27.674542,万里路街道,,520302,0852,520302002000,,,,,,,,,,2,100,1023,1461,4347,44783,,,
44784,7,106.931311,27.68619,中华路街道,,520302,0852,520302003000,,,,,,,,,,2,100,1023,1461,4347,44784,,,
44785,7,106.893709,27.644755,迎红街道,,520302,0852,520302004000,,,,,,,,,,2,100,1023,1461,4347,44785,,,
44786,7,106.93684,27.695391,延安路街道,,520302,0852,520302005000,,,,,,,,,,2,100,1023,1461,4347,44786,,,
44787,7,106.927742,27.656978,舟水桥街道,,520302,0852,520302006000,,,,,,,,,,2,100,1023,1461,4347,44787,,,
44788,7,106.92681,27.685047,中山路街道,,520302,0852,520302007000,,,,,,,,,,2,100,1023,1461,4347,44788,,,
44789,7,106.94425,27.701911,北京路街道,,520302,0852,520302008000,,,,,,,,,,2,100,1023,1461,4347,44789,,,
44790,7,106.950005,27.686106,长征街道,,520302,0852,520302009000,,,,,,,,,,2,100,1023,1461,4347,44790,,,
44791,7,106.893709,27.644755,礼仪街道,,520302,0852,520302010000,,,,,,,,,,2,100,1023,1461,4347,44791,,,
44792,7,106.910102,27.657385,南关街道,,520302,0852,520302011000,,,,,,,,,,2,100,1023,1461,4347,44792,,,
44793,7,106.892715,27.647768,忠庄街道,,520302,0852,520302012000,,,,,,,,,,2,100,1023,1461,4347,44793,,,
44794,7,107.02956,27.709571,新蒲街道,,520302,0852,520302013000,,,,,,,,,,2,100,1023,1461,4347,44794,,,
44795,7,107.029283,27.708648,新中街道,,520302,0852,520302014000,,,,,,,,,,2,100,1023,1461,4347,44795,,,
44796,7,106.83554,27.671679,巷口镇,,520302,0852,520302101000,,,,,,,,,,2,100,1023,1461,4347,44796,,,
44797,7,106.87259,27.739965,海龙镇,,520302,0852,520302104000,,,,,,,,,,2,100,1023,1461,4347,44797,,,
44798,7,106.974014,27.59775,深溪镇,,520302,0852,520302105000,,,,,,,,,,2,100,1023,1461,4347,44798,,,
44799,7,106.801003,27.725204,金鼎山镇,,520302,0852,520302106000,,,,,,,,,,2,100,1023,1461,4347,44799,,,
44800,7,107.249969,27.836016,新舟镇,,520302,0852,520302108000,,,,,,,,,,2,100,1023,1461,4347,44800,,,
44801,7,107.187892,27.688057,虾子镇,,520302,0852,520302109000,,,,,,,,,,2,100,1023,1461,4347,44801,,,
44802,7,107.30682,27.682228,三渡镇,,520302,0852,520302110000,,,,,,,,,,2,100,1023,1461,4347,44802,,,
44803,7,107.35077,27.860455,永乐镇,,520302,0852,520302111000,,,,,,,,,,2,100,1023,1461,4347,44803,,,
44804,7,107.110331,27.611779,喇叭镇,,520302,0852,520302112000,,,,,,,,,,2,100,1023,1461,4347,44804,,,
44805,7,106.931107,27.708837,上海路街道,,520303,0852,520303001000,,,,,,,,,,2,100,1023,1461,4348,44805,,,
44806,7,106.914397,27.699536,洗马路街道,,520303,0852,520303002000,,,,,,,,,,2,100,1023,1461,4348,44806,,,
44807,7,106.950628,27.716163,大连路街道,,520303,0852,520303003000,,,,,,,,,,2,100,1023,1461,4348,44807,,,
44808,7,106.907059,27.703382,高桥街道,,520303,0852,520303004000,,,,,,,,,,2,100,1023,1461,4348,44808,,,
44809,7,106.924849,27.764587,董公寺街道,,520303,0852,520303005000,,,,,,,,,,2,100,1023,1461,4348,44809,,,
44810,7,106.908632,27.816725,高坪街道,,520303,0852,520303006000,,,,,,,,,,2,100,1023,1461,4348,44810,,,
44811,7,107.08585,27.805991,团泽镇,,520303,0852,520303102000,,,,,,,,,,2,100,1023,1461,4348,44811,,,
44812,7,106.913793,27.971459,板桥镇,,520303,0852,520303104000,,,,,,,,,,2,100,1023,1461,4348,44812,,,
44813,7,106.93706,27.914205,泗渡镇,,520303,0852,520303105000,,,,,,,,,,2,100,1023,1461,4348,44813,,,
44814,7,106.81613,27.865519,沙湾镇,,520303,0852,520303106000,,,,,,,,,,2,100,1023,1461,4348,44814,,,
44815,7,106.66955,27.929411,山盆镇,,520303,0852,520303107000,,,,,,,,,,2,100,1023,1461,4348,44815,,,
44816,7,106.65685,27.88307,芝麻镇,,520303,0852,520303108000,,,,,,,,,,2,100,1023,1461,4348,44816,,,
44817,7,106.71598,27.72093,松林镇,,520303,0852,520303109000,,,,,,,,,,2,100,1023,1461,4348,44817,,,
44818,7,106.732283,27.81288,毛石镇,,520303,0852,520303110000,,,,,,,,,,2,100,1023,1461,4348,44818,,,
44819,7,106.834534,27.537648,南白街道,,520304,0852,520304001000,,,,,,,,,,2,100,1023,1461,4349,44819,,,
44820,7,106.927389,27.725654,播南街道,,520300,0852,520304002000,,,,,,,,,,2,100,1023,1461,4349,44820,,,
44821,7,106.927389,27.725654,影山湖街道,,520300,0852,520304003000,,,,,,,,,,2,100,1023,1461,4349,44821,,,
44822,7,106.927389,27.725654,桂花桥街道,,520300,0852,520304004000,,,,,,,,,,2,100,1023,1461,4349,44822,,,
44823,7,106.85826,27.585287,龙坑街道,,520304,0852,520304005000,,,,,,,,,,2,100,1023,1461,4349,44823,,,
44824,7,106.907291,27.514995,三岔镇,,520304,0852,520304102000,,,,,,,,,,2,100,1023,1461,4349,44824,,,
44825,7,106.849854,27.467777,苟江镇,,520304,0852,520304103000,,,,,,,,,,2,100,1023,1461,4349,44825,,,
44826,7,106.770947,27.417368,三合镇,,520304,0852,520304104000,,,,,,,,,,2,100,1023,1461,4349,44826,,,
44827,7,106.78934,27.30798,乌江镇,,520304,0852,520304105000,,,,,,,,,,2,100,1023,1461,4349,44827,,,
44828,7,107.033379,27.556394,龙坪镇,,520304,0852,520304106000,,,,,,,,,,2,100,1023,1461,4349,44828,,,
44829,7,107.135894,27.467993,团溪镇,,520304,0852,520304107000,,,,,,,,,,2,100,1023,1461,4349,44829,,,
44830,7,107.214042,27.44402,铁厂镇,,520304,0852,520304108000,,,,,,,,,,2,100,1023,1461,4349,44830,,,
44831,7,107.21992,27.52498,西坪镇,,520304,0852,520304109000,,,,,,,,,,2,100,1023,1461,4349,44831,,,
44832,7,106.967608,27.377924,尚嵇镇,,520304,0852,520304110000,,,,,,,,,,2,100,1023,1461,4349,44832,,,
44833,7,107.026236,27.406155,茅栗镇,,520304,0852,520304111000,,,,,,,,,,2,100,1023,1461,4349,44833,,,
44834,7,106.92226,27.348829,新民镇,,520304,0852,520304112000,,,,,,,,,,2,100,1023,1461,4349,44834,,,
44835,7,106.675127,27.578967,鸭溪镇,,520304,0852,520304113000,,,,,,,,,,2,100,1023,1461,4349,44835,,,
44836,7,106.74604,27.5097,石板镇,,520304,0852,520304114000,,,,,,,,,,2,100,1023,1461,4349,44836,,,
44837,7,106.670237,27.641685,乐山镇,,520304,0852,520304115000,,,,,,,,,,2,100,1023,1461,4349,44837,,,
44838,7,106.535911,27.605186,枫香镇,,520304,0852,520304116000,,,,,,,,,,2,100,1023,1461,4349,44838,,,
44839,7,106.36781,27.519438,泮水镇,,520304,0852,520304117000,,,,,,,,,,2,100,1023,1461,4349,44839,,,
44840,7,106.497355,27.528772,马蹄镇,,520304,0852,520304118000,,,,,,,,,,2,100,1023,1461,4349,44840,,,
44841,7,106.51037,27.682969,平正仡佬族乡,,520304,0852,520304200000,,,,,,,,,,2,100,1023,1461,4349,44841,,,
44842,7,106.33576,27.603886,洪关苗族乡,,520304,0852,520304201000,,,,,,,,,,2,100,1023,1461,4349,44842,,,
44843,7,106.827396,28.134039,海校街道,,520322,0852,520322001000,,,,,,,,,,2,100,1023,1461,4350,44843,,,
44844,7,106.827866,28.115114,娄山关街道,,520322,0852,520322002000,,,,,,,,,,2,100,1023,1461,4350,44844,,,
44845,7,106.843592,28.206346,楚米镇,,520322,0852,520322101000,,,,,,,,,,2,100,1023,1461,4350,44845,,,
44846,7,106.86465,28.381554,新站镇,,520322,0852,520322102000,,,,,,,,,,2,100,1023,1461,4350,44846,,,
44847,7,106.86101,28.53761,松坎镇,,520322,0852,520322103000,,,,,,,,,,2,100,1023,1461,4350,44847,,,
44848,7,106.677409,28.08607,高桥镇,,520322,0852,520322104000,,,,,,,,,,2,100,1023,1461,4350,44848,,,
44849,7,107.07876,28.733401,水坝塘镇,,520322,0852,520322105000,,,,,,,,,,2,100,1023,1461,4350,44849,,,
44850,7,106.730279,28.012911,官仓镇,,520322,0852,520322106000,,,,,,,,,,2,100,1023,1461,4350,44850,,,
44851,7,106.5953,28.112901,花秋镇,,520322,0852,520322107000,,,,,,,,,,2,100,1023,1461,4350,44851,,,
44852,7,106.96992,28.71842,羊磴镇,,520322,0852,520322108000,,,,,,,,,,2,100,1023,1461,4350,44852,,,
44853,7,106.771539,28.198158,九坝镇,,520322,0852,520322109000,,,,,,,,,,2,100,1023,1461,4350,44853,,,
44854,7,106.852057,28.321586,大河镇,,520322,0852,520322110000,,,,,,,,,,2,100,1023,1461,4350,44854,,,
44855,7,106.79015,28.398801,夜郎镇,,520322,0852,520322111000,,,,,,,,,,2,100,1023,1461,4350,44855,,,
44856,7,106.910484,28.642258,木瓜镇,,520322,0852,520322112000,,,,,,,,,,2,100,1023,1461,4350,44856,,,
44857,7,106.843897,28.747754,坡渡镇,,520322,0852,520322113000,,,,,,,,,,2,100,1023,1461,4350,44857,,,
44858,7,106.7967,28.10195,燎原镇,,520322,0852,520322114000,,,,,,,,,,2,100,1023,1461,4350,44858,,,
44859,7,107.121345,28.836615,狮溪镇,,520322,0852,520322115000,,,,,,,,,,2,100,1023,1461,4350,44859,,,
44860,7,106.915475,28.102842,茅石镇,,520322,0852,520322116000,,,,,,,,,,2,100,1023,1461,4350,44860,,,
44861,7,106.799934,28.567345,尧龙山镇,,520322,0852,520322117000,,,,,,,,,,2,100,1023,1461,4350,44861,,,
44862,7,106.526007,28.080828,风水镇,,520322,0852,520322118000,,,,,,,,,,2,100,1023,1461,4350,44862,,,
44863,7,106.50478,28.162364,容光镇,,520322,0852,520322119000,,,,,,,,,,2,100,1023,1461,4350,44863,,,
44864,7,107.196749,28.735934,芭蕉镇,,520322,0852,520322120000,,,,,,,,,,2,100,1023,1461,4350,44864,,,
44865,7,106.903049,28.412771,小水乡,,520322,0852,520322203000,,,,,,,,,,2,100,1023,1461,4350,44865,,,
44866,7,107.016895,28.478268,黄莲乡,,520322,0852,520322205000,,,,,,,,,,2,100,1023,1461,4350,44866,,,
44867,7,106.975413,28.199113,马鬃苗族乡,,520322,0852,520322207000,,,,,,,,,,2,100,1023,1461,4350,44867,,,
44868,7,107.191222,27.946222,洋川街道,,520323,0852,520323001000,,,,,,,,,,2,100,1023,1461,4351,44868,,,
44869,7,107.252912,27.892074,郑场镇,,520323,0852,520323101000,,,,,,,,,,2,100,1023,1461,4351,44869,,,
44870,7,107.269482,28.109576,旺草镇,,520323,0852,520323102000,,,,,,,,,,2,100,1023,1461,4351,44870,,,
44871,7,107.089663,27.898535,蒲场镇,,520323,0852,520323103000,,,,,,,,,,2,100,1023,1461,4351,44871,,,
44872,7,107.109559,27.93157,风华镇,,520323,0852,520323104000,,,,,,,,,,2,100,1023,1461,4351,44872,,,
44873,7,107.169972,28.090445,茅垭镇,,520323,0852,520323105000,,,,,,,,,,2,100,1023,1461,4351,44873,,,
44874,7,107.045891,28.075974,枧坝镇,,520323,0852,520323106000,,,,,,,,,,2,100,1023,1461,4351,44874,,,
44875,7,107.019943,28.239177,宽阔镇,,520323,0852,520323107000,,,,,,,,,,2,100,1023,1461,4351,44875,,,
44876,7,107.079061,28.29153,黄杨镇,,520323,0852,520323108000,,,,,,,,,,2,100,1023,1461,4351,44876,,,
44877,7,107.15618,28.322941,青杠塘镇,,520323,0852,520323109000,,,,,,,,,,2,100,1023,1461,4351,44877,,,
44878,7,107.0926,28.40504,太白镇,,520323,0852,520323110000,,,,,,,,,,2,100,1023,1461,4351,44878,,,
44879,7,107.348462,28.190781,温泉镇,,520323,0852,520323111000,,,,,,,,,,2,100,1023,1461,4351,44879,,,
44880,7,107.470409,28.205624,坪乐镇,,520323,0852,520323112000,,,,,,,,,,2,100,1023,1461,4351,44880,,,
44881,7,107.30385,28.00939,大路槽乡,,520323,0852,520323200000,,,,,,,,,,2,100,1023,1461,4351,44881,,,
44882,7,107.38783,27.931891,小关乡,,520323,0852,520323201000,,,,,,,,,,2,100,1023,1461,4351,44882,,,
44883,7,107.438603,28.533942,凤仪街道,,520324,0852,520324001000,,,,,,,,,,2,100,1023,1461,4352,44883,,,
44884,7,107.453945,28.553285,瑞濠街道,,520324,0852,520324002000,,,,,,,,,,2,100,1023,1461,4352,44884,,,
44885,7,107.355591,28.567189,瑞溪镇,,520324,0852,520324101000,,,,,,,,,,2,100,1023,1461,4352,44885,,,
44886,7,107.442148,28.445365,和溪镇,,520324,0852,520324102000,,,,,,,,,,2,100,1023,1461,4352,44886,,,
44887,7,107.42376,28.630692,安场镇,,520324,0852,520324103000,,,,,,,,,,2,100,1023,1461,4352,44887,,,
44888,7,107.366406,28.260219,土坪镇,,520324,0852,520324104000,,,,,,,,,,2,100,1023,1461,4352,44888,,,
44889,7,107.50873,28.308405,流渡镇,,520324,0852,520324105000,,,,,,,,,,2,100,1023,1461,4352,44889,,,
44890,7,107.522329,28.545261,格林镇,,520324,0852,520324106000,,,,,,,,,,2,100,1023,1461,4352,44890,,,
44891,7,107.35366,28.804439,新州镇,,520324,0852,520324107000,,,,,,,,,,2,100,1023,1461,4352,44891,,,
44892,7,107.17212,28.553529,庙塘镇,,520324,0852,520324108000,,,,,,,,,,2,100,1023,1461,4352,44892,,,
44893,7,107.22321,28.4877,小雅镇,,520324,0852,520324109000,,,,,,,,,,2,100,1023,1461,4352,44893,,,
44894,7,107.60343,28.427759,中观镇,,520324,0852,520324110000,,,,,,,,,,2,100,1023,1461,4352,44894,,,
44895,7,107.47534,28.512466,芙蓉江镇,,520324,0852,520324111000,,,,,,,,,,2,100,1023,1461,4352,44895,,,
44896,7,107.619846,28.57212,班竹镇,,520324,0852,520324112000,,,,,,,,,,2,100,1023,1461,4352,44896,,,
44897,7,107.34445,28.69351,碧峰镇,,520324,0852,520324113000,,,,,,,,,,2,100,1023,1461,4352,44897,,,
44898,7,107.360733,28.402394,乐俭镇,,520324,0852,520324114000,,,,,,,,,,2,100,1023,1461,4352,44898,,,
44899,7,107.390483,28.705647,杨兴镇,,520324,0852,520324115000,,,,,,,,,,2,100,1023,1461,4352,44899,,,
44900,7,107.285986,28.585635,桴焉镇,,520324,0852,520324116000,,,,,,,,,,2,100,1023,1461,4352,44900,,,
44901,7,107.574073,28.208863,谢坝仡佬族苗族乡,,520324,0852,520324202000,,,,,,,,,,2,100,1023,1461,4352,44901,,,
44902,7,107.605376,28.273923,市坪苗族仡佬族乡,,520324,0852,520324203000,,,,,,,,,,2,100,1023,1461,4352,44902,,,
44903,7,107.602032,28.88493,玉溪镇,,520325,0852,520325100000,,,,,,,,,,2,100,1023,1461,4353,44903,,,
44904,7,107.483403,28.676254,三江镇,,520324,0852,520325101000,,,,,,,,,,2,100,1023,1461,4353,44904,,,
44905,7,107.54939,28.6697,隆兴镇,,520325,0852,520325102000,,,,,,,,,,2,100,1023,1461,4353,44905,,,
44906,7,107.683191,28.738831,旧城镇,,520325,0852,520325103000,,,,,,,,,,2,100,1023,1461,4353,44906,,,
44907,7,107.712681,28.933939,忠信镇,,520325,0852,520325104000,,,,,,,,,,2,100,1023,1461,4353,44907,,,
44908,7,107.712372,29.065088,洛龙镇,,520325,0852,520325105000,,,,,,,,,,2,100,1023,1461,4353,44908,,,
44909,7,107.58336,29.077809,阳溪镇,,520325,0852,520325106000,,,,,,,,,,2,100,1023,1461,4353,44909,,,
44910,7,107.50922,29.05712,三桥镇,,520325,0852,520325107000,,,,,,,,,,2,100,1023,1461,4353,44910,,,
44911,7,107.451969,28.973991,大磏镇,,520325,0852,520325108000,,,,,,,,,,2,100,1023,1461,4353,44911,,,
44912,7,107.613133,28.862425,平模镇,,520325,0852,520325109000,,,,,,,,,,2,100,1023,1461,4353,44912,,,
44913,7,107.638,28.97186,河口镇,,520325,0852,520325110000,,,,,,,,,,2,100,1023,1461,4353,44913,,,
44914,7,107.58089,28.82319,上坝土家族乡,,520325,0852,520325200000,,,,,,,,,,2,100,1023,1461,4353,44914,,,
44915,7,107.65832,28.671009,棕坪乡,,520325,0852,520325201000,,,,,,,,,,2,100,1023,1461,4353,44915,,,
44916,7,107.76075,28.87888,桃源乡,,520325,0852,520325202000,,,,,,,,,,2,100,1023,1461,4353,44916,,,
44917,7,107.898957,28.563086,丹砂街道,,520326,0852,520326001000,,,,,,,,,,2,100,1023,1461,4354,44917,,,
44918,7,107.898957,28.563086,都濡街道,,520326,0852,520326002000,,,,,,,,,,2,100,1023,1461,4354,44918,,,
44919,7,107.898957,28.563086,大坪街道,,520326,0852,520326003000,,,,,,,,,,2,100,1023,1461,4354,44919,,,
44920,7,107.854619,28.346095,丰乐镇,,520326,0852,520326101000,,,,,,,,,,2,100,1023,1461,4354,44920,,,
44921,7,107.752,28.400985,黄都镇,,520326,0852,520326102000,,,,,,,,,,2,100,1023,1461,4354,44921,,,
44922,7,107.748022,28.52872,涪洋镇,,520326,0852,520326103000,,,,,,,,,,2,100,1023,1461,4354,44922,,,
44923,7,107.87576,28.69989,镇南镇,,520326,0852,520326104000,,,,,,,,,,2,100,1023,1461,4354,44923,,,
44924,7,107.90014,28.798918,砚山镇,,520326,0852,520326105000,,,,,,,,,,2,100,1023,1461,4354,44924,,,
44925,7,107.905505,28.911476,浞水镇,,520326,0852,520326106000,,,,,,,,,,2,100,1023,1461,4354,44925,,,
44926,7,108.089593,28.941776,茅天镇,,520326,0852,520326107000,,,,,,,,,,2,100,1023,1461,4354,44926,,,
44927,7,107.9357,28.684201,柏村镇,,520326,0852,520326108000,,,,,,,,,,2,100,1023,1461,4354,44927,,,
44928,7,107.81165,28.690179,泥高镇,,520326,0852,520326110000,,,,,,,,,,2,100,1023,1461,4354,44928,,,
44929,7,107.92555,28.870933,分水镇,,520326,0852,520326111000,,,,,,,,,,2,100,1023,1461,4354,44929,,,
44930,7,108.111321,28.810004,蕉坝镇,,520326,0852,520326112000,,,,,,,,,,2,100,1023,1461,4354,44930,,,
44931,7,108.1168,28.719961,红丝乡,,520326,0852,520326203000,,,,,,,,,,2,100,1023,1461,4354,44931,,,
44932,7,108.04396,28.406966,石朝乡,,520326,0852,520326204000,,,,,,,,,,2,100,1023,1461,4354,44932,,,
44933,7,107.71725,27.962402,龙泉镇,,520327,0852,520327100000,,,,,,,,,,2,100,1023,1461,4355,44933,,,
44934,7,107.68478,27.792071,进化镇,,520327,0852,520327101000,,,,,,,,,,2,100,1023,1461,4355,44934,,,
44935,7,107.670371,27.683513,琊川镇,,520327,0852,520327102000,,,,,,,,,,2,100,1023,1461,4355,44935,,,
44936,7,107.815,27.755361,蜂岩镇,,520327,0852,520327103000,,,,,,,,,,2,100,1023,1461,4355,44936,,,
44937,7,107.82707,27.887445,永和镇,,520327,0852,520327104000,,,,,,,,,,2,100,1023,1461,4355,44937,,,
44938,7,107.79269,28.02606,花坪镇,,520327,0852,520327105000,,,,,,,,,,2,100,1023,1461,4355,44938,,,
44939,7,107.74624,28.110981,绥阳镇,,520327,0852,520327106000,,,,,,,,,,2,100,1023,1461,4355,44939,,,
44940,7,107.74878,28.289514,土溪镇,,520327,0852,520327107000,,,,,,,,,,2,100,1023,1461,4355,44940,,,
44941,7,107.587633,28.1112,永安镇,,520327,0852,520327108000,,,,,,,,,,2,100,1023,1461,4355,44941,,,
44942,7,107.71493,27.920886,何坝镇,,520327,0852,520327109000,,,,,,,,,,2,100,1023,1461,4355,44942,,,
44943,7,107.834515,27.618277,天桥镇,,520327,0852,520327110000,,,,,,,,,,2,100,1023,1461,4355,44943,,,
44944,7,107.88655,27.753187,王寨镇,,520327,0852,520327111000,,,,,,,,,,2,100,1023,1461,4355,44944,,,
44945,7,107.67697,28.187761,新建镇,,520327,0852,520327112000,,,,,,,,,,2,100,1023,1461,4355,44945,,,
44946,7,107.716356,27.954695,石径乡,,520327,0852,520327203000,,,,,,,,,,2,100,1023,1461,4355,44946,,,
44947,7,107.476508,27.767358,湄江街道,,520328,0852,520328004000,,,,,,,,,,2,100,1023,1461,4356,44947,,,
44948,7,107.418652,27.735595,黄家坝街道,,520328,0852,520328005000,,,,,,,,,,2,100,1023,1461,4356,44948,,,
44949,7,107.465407,27.749055,鱼泉街道,,520328,0852,520328006000,,,,,,,,,,2,100,1023,1461,4356,44949,,,
44950,7,107.58364,27.869876,永兴镇,,520328,0852,520328101000,,,,,,,,,,2,100,1023,1461,4356,44950,,,
44951,7,107.615213,27.990614,复兴镇,,520328,0852,520328102000,,,,,,,,,,2,100,1023,1461,4356,44951,,,
44952,7,107.582532,28.049277,马山镇,,520328,0852,520328103000,,,,,,,,,,2,100,1023,1461,4356,44952,,,
44953,7,107.38296,27.61414,高台镇,,520328,0852,520328106000,,,,,,,,,,2,100,1023,1461,4356,44953,,,
44954,7,107.39624,27.49544,茅坪镇,,520328,0852,520328107000,,,,,,,,,,2,100,1023,1461,4356,44954,,,
44955,7,107.543893,27.719167,兴隆镇,,520328,0852,520328108000,,,,,,,,,,2,100,1023,1461,4356,44955,,,
44956,7,107.31519,27.534526,新南镇,,520328,0852,520328109000,,,,,,,,,,2,100,1023,1461,4356,44956,,,
44957,7,107.41127,27.422313,石莲镇,,520328,0852,520328110000,,,,,,,,,,2,100,1023,1461,4356,44957,,,
44958,7,107.535324,28.149307,西河镇,,520328,0852,520328111000,,,,,,,,,,2,100,1023,1461,4356,44958,,,
44959,7,107.512337,27.951782,洗马镇,,520328,0852,520328112000,,,,,,,,,,2,100,1023,1461,4356,44959,,,
44960,7,107.561321,27.667423,抄乐镇,,520328,0852,520328113000,,,,,,,,,,2,100,1023,1461,4356,44960,,,
44961,7,107.592454,27.78465,天城镇,,520328,0852,520328114000,,,,,,,,,,2,100,1023,1461,4356,44961,,,
44962,7,107.896148,27.216277,子营街道,,520329,0852,520329001000,,,,,,,,,,2,100,1023,1461,4357,44962,,,
44963,7,107.741521,27.304774,龙溪镇,,520329,0852,520329102000,,,,,,,,,,2,100,1023,1461,4357,44963,,,
44964,7,107.575568,27.328479,构皮滩镇,,520329,0852,520329103000,,,,,,,,,,2,100,1023,1461,4357,44964,,,
44965,7,107.706988,27.39656,大乌江镇,,520329,0852,520329104000,,,,,,,,,,2,100,1023,1461,4357,44965,,,
44966,7,107.617633,27.525524,敖溪镇,,520329,0852,520329105000,,,,,,,,,,2,100,1023,1461,4357,44966,,,
44967,7,107.57955,27.51705,龙家镇,,520329,0852,520329106000,,,,,,,,,,2,100,1023,1461,4357,44967,,,
44968,7,107.621879,27.606061,松烟镇,,520329,0852,520329107000,,,,,,,,,,2,100,1023,1461,4357,44968,,,
44969,7,107.73184,27.57142,关兴镇,,520329,0852,520329108000,,,,,,,,,,2,100,1023,1461,4357,44969,,,
44970,7,107.902909,27.212729,白泥镇,,520329,0852,520329109000,,,,,,,,,,2,100,1023,1461,4357,44970,,,
44971,7,107.51212,27.344181,花山苗族乡,,520329,0852,520329200000,,,,,,,,,,2,100,1023,1461,4357,44971,,,
44972,7,106.224069,28.308796,东皇街道,,520330,0852,520330001000,,,,,,,,,,2,100,1023,1461,4358,44972,,,
44973,7,106.197138,28.33127,九龙街道,,520330,0852,520330002000,,,,,,,,,,2,100,1023,1461,4358,44973,,,
44974,7,106.163484,28.319999,杉王街道,,520330,0852,520330003000,,,,,,,,,,2,100,1023,1461,4358,44974,,,
44975,7,106.197138,28.33127,马临街道,,520330,0852,520330004000,,,,,,,,,,2,100,1023,1461,4358,44975,,,
44976,7,106.005966,28.273252,土城镇,,520330,0852,520330101000,,,,,,,,,,2,100,1023,1461,4358,44976,,,
44977,7,105.99002,28.19746,同民镇,,520330,0852,520330102000,,,,,,,,,,2,100,1023,1461,4358,44977,,,
44978,7,106.020089,28.15467,醒民镇,,520330,0852,520330103000,,,,,,,,,,2,100,1023,1461,4358,44978,,,
44979,7,106.10399,28.22543,隆兴镇,,520330,0852,520330104000,,,,,,,,,,2,100,1023,1461,4358,44979,,,
44980,7,106.162099,28.160365,习酒镇,,520330,0852,520330105000,,,,,,,,,,2,100,1023,1461,4358,44980,,,
44981,7,106.20996,28.185549,回龙镇,,520330,0852,520330106000,,,,,,,,,,2,100,1023,1461,4358,44981,,,
44982,7,106.28957,28.20874,桑木镇,,520330,0852,520330107000,,,,,,,,,,2,100,1023,1461,4358,44982,,,
44983,7,106.417739,28.201271,永安镇,,520330,0852,520330108000,,,,,,,,,,2,100,1023,1461,4358,44983,,,
44984,7,106.404366,28.391155,良村镇,,520330,0852,520330109000,,,,,,,,,,2,100,1023,1461,4358,44984,,,
44985,7,106.537413,28.45443,温水镇,,520330,0852,520330110000,,,,,,,,,,2,100,1023,1461,4358,44985,,,
44986,7,106.65048,28.38955,仙源镇,,520330,0852,520330111000,,,,,,,,,,2,100,1023,1461,4358,44986,,,
44987,7,106.613055,28.292708,官店镇,,520330,0852,520330112000,,,,,,,,,,2,100,1023,1461,4358,44987,,,
44988,7,106.554515,28.60125,寨坝镇,,520330,0852,520330113000,,,,,,,,,,2,100,1023,1461,4358,44988,,,
44989,7,106.09135,28.277069,民化镇,,520330,0852,520330114000,,,,,,,,,,2,100,1023,1461,4358,44989,,,
44990,7,106.346576,28.149031,二郎镇,,520330,0852,520330115000,,,,,,,,,,2,100,1023,1461,4358,44990,,,
44991,7,106.46845,28.19725,二里镇,,520330,0852,520330116000,,,,,,,,,,2,100,1023,1461,4358,44991,,,
44992,7,106.403231,28.439315,三岔河镇,,520330,0852,520330117000,,,,,,,,,,2,100,1023,1461,4358,44992,,,
44993,7,106.541159,28.526301,大坡镇,,520330,0852,520330118000,,,,,,,,,,2,100,1023,1461,4358,44993,,,
44994,7,106.56355,28.200739,桃林镇,,520330,0852,520330119000,,,,,,,,,,2,100,1023,1461,4358,44994,,,
44995,7,106.312861,28.397075,程寨镇,,520330,0852,520330120000,,,,,,,,,,2,100,1023,1461,4358,44995,,,
44996,7,106.567752,28.317263,双龙乡,,520330,0852,520330205000,,,,,,,,,,2,100,1023,1461,4358,44996,,,
44997,7,106.51942,28.756173,坭坝乡,,520330,0852,520330207000,,,,,,,,,,2,100,1023,1461,4358,44997,,,
44998,7,105.695086,28.587909,市中街道,,520381,0852,520381001000,,,,,,,,,,2,100,1023,1461,4359,44998,,,
44999,7,105.703672,28.580596,文华街道,,520381,0852,520381002000,,,,,,,,,,2,100,1023,1461,4359,44999,,,
45000,7,105.726102,28.589737,金华街道,,520381,0852,520381003000,,,,,,,,,,2,100,1023,1461,4359,45000,,,
45001,7,105.755546,28.562292,天台镇,,520381,0852,520381100000,,,,,,,,,,2,100,1023,1461,4359,45001,,,
45002,7,105.74344,28.515439,复兴镇,,520381,0852,520381101000,,,,,,,,,,2,100,1023,1461,4359,45002,,,
45003,7,105.681299,28.504634,大同镇,,520381,0852,520381102000,,,,,,,,,,2,100,1023,1461,4359,45003,,,
45004,7,105.88625,28.517651,旺隆镇,,520381,0852,520381103000,,,,,,,,,,2,100,1023,1461,4359,45004,,,
45005,7,105.9388,28.48026,葫市镇,,520381,0852,520381104000,,,,,,,,,,2,100,1023,1461,4359,45005,,,
45006,7,105.940178,28.363961,元厚镇,,520381,0852,520381105000,,,,,,,,,,2,100,1023,1461,4359,45006,,,
45007,7,106.090812,28.549565,官渡镇,,520381,0852,520381106000,,,,,,,,,,2,100,1023,1461,4359,45007,,,
45008,7,106.05813,28.62522,长期镇,,520381,0852,520381107000,,,,,,,,,,2,100,1023,1461,4359,45008,,,
45009,7,105.99383,28.689071,长沙镇,,520381,0852,520381108000,,,,,,,,,,2,100,1023,1461,4359,45009,,,
45010,7,105.749077,28.380954,两河口镇,,520381,0852,520381109000,,,,,,,,,,2,100,1023,1461,4359,45010,,,
45011,7,105.815568,28.470787,丙安镇,,520381,0852,520381110000,,,,,,,,,,2,100,1023,1461,4359,45011,,,
45012,7,105.66408,28.371739,宝源乡,,520381,0852,520381202000,,,,,,,,,,2,100,1023,1461,4359,45012,,,
45013,7,106.17454,28.495993,石堡乡,,520381,0852,520381203000,,,,,,,,,,2,100,1023,1461,4359,45013,,,
45014,7,105.967313,28.692418,白云乡,,520381,0852,520381204000,,,,,,,,,,2,100,1023,1461,4359,45014,,,
45015,7,106.396427,27.790941,盐津街道,,520382,0852,520382001000,,,,,,,,,,2,100,1023,1461,4360,45015,,,
45016,7,106.400342,27.79165,中枢街道,,520382,0852,520382002000,,,,,,,,,,2,100,1023,1461,4360,45016,,,
45017,7,106.400342,27.79165,苍龙街道,,520382,0852,520382003000,,,,,,,,,,2,100,1023,1461,4360,45017,,,
45018,7,106.407195,27.730532,坛厂街道,,520382,0852,520382004000,,,,,,,,,,2,100,1023,1461,4360,45018,,,
45019,7,106.30698,27.716651,鲁班街道,,520382,0852,520382005000,,,,,,,,,,2,100,1023,1461,4360,45019,,,
45020,7,106.432442,27.665009,长岗镇,,520382,0852,520382102000,,,,,,,,,,2,100,1023,1461,4360,45020,,,
45021,7,106.25726,27.643301,五马镇,,520382,0852,520382104000,,,,,,,,,,2,100,1023,1461,4360,45021,,,
45022,7,106.18805,27.689051,茅坝镇,,520382,0852,520382105000,,,,,,,,,,2,100,1023,1461,4360,45022,,,
45023,7,106.061485,27.694623,九仓镇,,520382,0852,520382106000,,,,,,,,,,2,100,1023,1461,4360,45023,,,
45024,7,106.533356,27.908196,喜头镇,,520382,0852,520382107000,,,,,,,,,,2,100,1023,1461,4360,45024,,,
45025,7,106.417,28.019659,大坝镇,,520382,0852,520382108000,,,,,,,,,,2,100,1023,1461,4360,45025,,,
45026,7,106.353896,28.07456,三合镇,,520382,0852,520382109000,,,,,,,,,,2,100,1023,1461,4360,45026,,,
45027,7,106.32712,28.03437,合马镇,,520382,0852,520382110000,,,,,,,,,,2,100,1023,1461,4360,45027,,,
45028,7,106.402614,28.095151,火石镇,,520382,0852,520382112000,,,,,,,,,,2,100,1023,1461,4360,45028,,,
45029,7,106.54856,27.955224,学孔镇,,520382,0852,520382113000,,,,,,,,,,2,100,1023,1461,4360,45029,,,
45030,7,106.085079,27.73041,龙井镇,,520382,0852,520382114000,,,,,,,,,,2,100,1023,1461,4360,45030,,,
45031,7,106.229355,28.107938,美酒河镇,,520382,0852,520382115000,,,,,,,,,,2,100,1023,1461,4360,45031,,,
45032,7,106.460266,28.007162,高大坪镇,,520382,0852,520382116000,,,,,,,,,,2,100,1023,1461,4360,45032,,,
45033,7,106.375723,27.85194,茅台镇,,520382,0852,520382117000,,,,,,,,,,2,100,1023,1461,4360,45033,,,
45034,7,106.21189,27.597389,后山苗族布依族乡,,520382,0852,520382201000,,,,,,,,,,2,100,1023,1461,4360,45034,,,
45035,7,105.934448,26.243804,南街街道,,520402,0853,520402001000,,,,,,,,,,2,100,1023,1462,4361,45035,,,
45036,7,105.933864,26.24489,东街街道,,520402,0853,520402002000,,,,,,,,,,2,100,1023,1462,4361,45036,,,
45037,7,105.928647,26.239272,西街街道,,520402,0853,520402003000,,,,,,,,,,2,100,1023,1462,4361,45037,,,
45038,7,105.9335,26.248514,北街街道,,520402,0853,520402004000,,,,,,,,,,2,100,1023,1462,4361,45038,,,
45039,7,105.956633,26.254647,东关街道,,520402,0853,520402005000,,,,,,,,,,2,100,1023,1462,4361,45039,,,
45040,7,105.92864,26.242288,华西街道,,520402,0853,520402006000,,,,,,,,,,2,100,1023,1462,4361,45040,,,
45041,7,105.9169,26.24289,西航街道,,520402,0853,520402007000,,,,,,,,,,2,100,1023,1462,4361,45041,,,
45042,7,105.965535,26.245433,新安街道,,520402,0853,520402008000,,,,,,,,,,2,100,1023,1462,4361,45042,,,
45043,7,105.873947,26.233084,宋旗镇,,520402,0853,520402100000,,,,,,,,,,2,100,1023,1462,4361,45043,,,
45044,7,105.852201,26.16642,幺铺镇,,520402,0853,520402101000,,,,,,,,,,2,100,1023,1462,4361,45044,,,
45045,7,105.980237,26.20553,宁谷镇,,520402,0853,520402102000,,,,,,,,,,2,100,1023,1462,4361,45045,,,
45046,7,105.890519,26.097566,龙宫镇,,520402,0853,520402103000,,,,,,,,,,2,100,1023,1462,4361,45046,,,
45047,7,106.184006,26.169111,双堡镇,,520402,0853,520402104000,,,,,,,,,,2,100,1023,1462,4361,45047,,,
45048,7,106.134447,26.336425,大西桥镇,,520402,0853,520402105000,,,,,,,,,,2,100,1023,1462,4361,45048,,,
45049,7,106.069425,26.304256,七眼桥镇,,520402,0853,520402106000,,,,,,,,,,2,100,1023,1462,4361,45049,,,
45050,7,105.98398,26.333609,蔡官镇,,520402,0853,520402107000,,,,,,,,,,2,100,1023,1462,4361,45050,,,
45051,7,105.934587,26.327762,轿子山镇,,520402,0853,520402108000,,,,,,,,,,2,100,1023,1462,4361,45051,,,
45052,7,106.14248,26.25021,旧州镇,,520402,0853,520402109000,,,,,,,,,,2,100,1023,1462,4361,45052,,,
45053,7,105.93188,26.10017,新场布依族苗族乡,,520402,0853,520402200000,,,,,,,,,,2,100,1023,1462,4361,45053,,,
45054,7,105.970251,26.038513,岩腊苗族布依族乡,,520402,0853,520402201000,,,,,,,,,,2,100,1023,1462,4361,45054,,,
45055,7,106.086015,26.043134,鸡场布依族苗族乡,,520402,0853,520402202000,,,,,,,,,,2,100,1023,1462,4361,45055,,,
45056,7,106.186335,26.049035,杨武布依族苗族乡,,520402,0853,520402203000,,,,,,,,,,2,100,1023,1462,4361,45056,,,
45057,7,106.22991,26.20663,东屯乡,,520402,0853,520402204000,,,,,,,,,,2,100,1023,1462,4361,45057,,,
45058,7,106.24126,26.27873,黄腊布依族苗族乡,,520402,0853,520402205000,,,,,,,,,,2,100,1023,1462,4361,45058,,,
45059,7,106.211305,26.264987,刘官乡,,520402,0853,520402206000,,,,,,,,,,2,100,1023,1462,4361,45059,,,
45060,7,106.255557,26.405502,安平街道,,520403,0853,520403001000,,,,,,,,,,2,100,1023,1462,4362,45060,,,
45061,7,106.261465,26.407548,鼓楼街道,,520403,0853,520403002000,,,,,,,,,,2,100,1023,1462,4362,45061,,,
45062,7,106.237716,26.355397,白云镇,,520403,0853,520403101000,,,,,,,,,,2,100,1023,1462,4362,45062,,,
45063,7,106.349405,26.37967,高峰镇,,520403,0853,520403102000,,,,,,,,,,2,100,1023,1462,4362,45063,,,
45064,7,106.167122,26.356781,天龙镇,,520403,0853,520403103000,,,,,,,,,,2,100,1023,1462,4362,45064,,,
45065,7,106.308087,26.454787,夏云镇,,520403,0853,520403104000,,,,,,,,,,2,100,1023,1462,4362,45065,,,
45066,7,106.448711,26.403931,马场镇,,520403,0853,520403105000,,,,,,,,,,2,100,1023,1462,4362,45066,,,
45067,7,106.255557,26.405502,乐平镇,,520403,0853,520403106000,,,,,,,,,,2,100,1023,1462,4362,45067,,,
45068,7,106.181148,26.563347,齐伯镇,,520403,0853,520403107000,,,,,,,,,,2,100,1023,1462,4362,45068,,,
45069,7,106.25912,26.4701,十字回族苗族乡,,520403,0853,520403202000,,,,,,,,,,2,100,1023,1462,4362,45069,,,
45070,7,106.328559,26.339513,羊昌布依族苗族乡,,520403,0853,520403203000,,,,,,,,,,2,100,1023,1462,4362,45070,,,
45071,7,105.743196,26.301446,定南街道,,520422,0853,520422001000,,,,,,,,,,2,100,1023,1462,4363,45071,,,
45072,7,105.743196,26.301446,穿洞街道,,520422,0853,520422002000,,,,,,,,,,2,100,1023,1462,4363,45072,,,
45073,7,105.743196,26.301446,黄桶街道,,520422,0853,520422003000,,,,,,,,,,2,100,1023,1462,4363,45073,,,
45074,7,105.743196,26.301446,玉秀街道,,520422,0853,520422004000,,,,,,,,,,2,100,1023,1462,4363,45074,,,
45075,7,105.75589,26.22043,马官镇,,520422,0853,520422101000,,,,,,,,,,2,100,1023,1462,4363,45075,,,
45076,7,105.638875,26.227353,化处镇,,520422,0853,520422102000,,,,,,,,,,2,100,1023,1462,4363,45076,,,
45077,7,105.54865,26.327039,马场镇,,520422,0853,520422103000,,,,,,,,,,2,100,1023,1462,4363,45077,,,
45078,7,105.85184,26.31299,白岩镇,,520422,0853,520422104000,,,,,,,,,,2,100,1023,1462,4363,45078,,,
45079,7,105.743196,26.301446,坪上镇,,520422,0853,520422105000,,,,,,,,,,2,100,1023,1462,4363,45079,,,
45080,7,105.6397,26.407251,鸡场坡镇,,520422,0853,520422106000,,,,,,,,,,2,100,1023,1462,4363,45080,,,
45081,7,105.84234,26.42672,补郎苗族乡,,520422,0853,520422203000,,,,,,,,,,2,100,1023,1462,4363,45081,,,
45082,7,105.915866,26.456032,猴场苗族仡佬族乡,,520422,0853,520422204000,,,,,,,,,,2,100,1023,1462,4363,45082,,,
45083,7,105.90148,26.38191,猫洞苗族仡佬族乡,,520422,0853,520422205000,,,,,,,,,,2,100,1023,1462,4363,45083,,,
45084,7,105.773073,26.058025,白马湖街道,,520423,0853,520423001000,,,,,,,,,,2,100,1023,1462,4364,45084,,,
45085,7,105.770402,26.057362,环翠街道,,520423,0853,520423002000,,,,,,,,,,2,100,1023,1462,4364,45085,,,
45086,7,105.770402,26.057362,丁旗街道,,520423,0853,520423003000,,,,,,,,,,2,100,1023,1462,4364,45086,,,
45087,7,105.770402,26.057362,双龙山街道,,520423,0853,520423004000,,,,,,,,,,2,100,1023,1462,4364,45087,,,
45088,7,105.770402,26.057362,宁西街道,,520423,0853,520423005000,,,,,,,,,,2,100,1023,1462,4364,45088,,,
45089,7,105.681337,26.013448,黄果树镇,,520423,0853,520423102000,,,,,,,,,,2,100,1023,1462,4364,45089,,,
45090,7,105.744774,25.883705,马厂镇,,520423,0853,520423105000,,,,,,,,,,2,100,1023,1462,4364,45090,,,
45091,7,105.81248,25.58204,良田镇,,520423,0853,520423107000,,,,,,,,,,2,100,1023,1462,4364,45091,,,
45092,7,105.63761,26.036981,扁担山镇,,520423,0853,520423108000,,,,,,,,,,2,100,1023,1462,4364,45092,,,
45093,7,105.788514,25.96097,募役镇,,520423,0853,520423109000,,,,,,,,,,2,100,1023,1462,4364,45093,,,
45094,7,105.881553,25.958083,江龙镇,,520423,0853,520423110000,,,,,,,,,,2,100,1023,1462,4364,45094,,,
45095,7,105.933114,25.873625,本寨镇,,520423,0853,520423111000,,,,,,,,,,2,100,1023,1462,4364,45095,,,
45096,7,105.880966,25.662813,六马镇,,520423,0853,520423112000,,,,,,,,,,2,100,1023,1462,4364,45096,,,
45097,7,105.88831,25.7578,沙子乡,,520423,0853,520423204000,,,,,,,,,,2,100,1023,1462,4364,45097,,,
45098,7,105.9647,25.95437,革利乡,,520423,0853,520423206000,,,,,,,,,,2,100,1023,1462,4364,45098,,,
45099,7,105.900771,25.502036,简嘎乡,,520423,0853,520423210000,,,,,,,,,,2,100,1023,1462,4364,45099,,,
45100,7,105.558646,25.943074,顶云街道,,520424,0853,520424002000,,,,,,,,,,2,100,1023,1462,4365,45100,,,
45101,7,105.618745,25.943856,关索街道,,520424,0853,520424003000,,,,,,,,,,2,100,1023,1462,4365,45101,,,
45102,7,105.618745,25.943856,龙潭街道,,520424,0853,520424004000,,,,,,,,,,2,100,1023,1462,4365,45102,,,
45103,7,105.618745,25.943856,百合街道,,520424,0853,520424007000,,,,,,,,,,2,100,1023,1462,4365,45103,,,
45104,7,105.488987,25.903784,永宁镇,,520424,0853,520424102000,,,,,,,,,,2,100,1023,1462,4365,45104,,,
45105,7,105.34435,25.96154,岗乌镇,,520424,0853,520424103000,,,,,,,,,,2,100,1023,1462,4365,45105,,,
45106,7,105.621571,25.820371,上关镇,,520424,0853,520424104000,,,,,,,,,,2,100,1023,1462,4365,45106,,,
45107,7,105.57277,26.02599,坡贡镇,,520424,0853,520424105000,,,,,,,,,,2,100,1023,1462,4365,45107,,,
45108,7,105.664268,26.005632,白水镇,,520424,0853,520424107000,,,,,,,,,,2,100,1023,1462,4365,45108,,,
45109,7,105.618745,25.943856,新铺镇,,520424,0853,520424108000,,,,,,,,,,2,100,1023,1462,4365,45109,,,
45110,7,105.429573,25.969314,沙营镇,,520424,0853,520424109000,,,,,,,,,,2,100,1023,1462,4365,45110,,,
45111,7,105.60992,25.745936,花江镇,,520424,0853,520424110000,,,,,,,,,,2,100,1023,1462,4365,45111,,,
45112,7,105.645687,25.885933,断桥镇,,520424,0853,520424111000,,,,,,,,,,2,100,1023,1462,4365,45112,,,
45113,7,105.57693,25.74697,普利乡,,520424,0853,520424202000,,,,,,,,,,2,100,1023,1462,4365,45113,,,
45114,7,106.08434,25.751052,松山街道,,520425,0853,520425001000,,,,,,,,,,2,100,1023,1462,4366,45114,,,
45115,7,106.08434,25.751052,五峰街道,,520425,0853,520425002000,,,,,,,,,,2,100,1023,1462,4366,45115,,,
45116,7,106.08434,25.751052,云岭街道,,520425,0853,520425003000,,,,,,,,,,2,100,1023,1462,4366,45116,,,
45117,7,106.148702,25.673383,格凸河镇,,520425,0853,520425101000,,,,,,,,,,2,100,1023,1462,4366,45117,,,
45118,7,106.255699,25.50344,猴场镇,,520425,0853,520425102000,,,,,,,,,,2,100,1023,1462,4366,45118,,,
45119,7,106.092622,25.953038,猫营镇,,520425,0853,520425103000,,,,,,,,,,2,100,1023,1462,4366,45119,,,
45120,7,106.23088,25.87545,板当镇,,520425,0853,520425104000,,,,,,,,,,2,100,1023,1462,4366,45120,,,
45121,7,106.320941,25.587285,宗地镇,,520425,0853,520425105000,,,,,,,,,,2,100,1023,1462,4366,45121,,,
45122,7,106.31184,25.477871,大营镇,,520425,0853,520425106000,,,,,,,,,,2,100,1023,1462,4366,45122,,,
45123,7,106.332314,25.55528,坝羊镇,,520425,0853,520425107000,,,,,,,,,,2,100,1023,1462,4366,45123,,,
45124,7,106.05558,25.69178,火花镇,,520425,0853,520425108000,,,,,,,,,,2,100,1023,1462,4366,45124,,,
45125,7,105.94806,25.815391,白石岩乡,,520425,0853,520425200000,,,,,,,,,,2,100,1023,1462,4366,45125,,,
45126,7,106.17032,25.58133,四大寨乡,,520425,0853,520425203000,,,,,,,,,,2,100,1023,1462,4366,45126,,,
45127,7,105.287247,27.309091,市西街道,,520502,0857,520502001000,,,,,,,,,,2,100,1023,1463,4367,45127,,,
45128,7,105.297816,27.316132,市东街道,,520502,0857,520502002000,,,,,,,,,,2,100,1023,1463,4367,45128,,,
45129,7,105.265008,27.293862,三板桥街道,,520502,0857,520502003000,,,,,,,,,,2,100,1023,1463,4367,45129,,,
45130,7,105.27672,27.322479,大新桥街道,,520502,0857,520502005000,,,,,,,,,,2,100,1023,1463,4367,45130,,,
45131,7,105.310541,27.324326,观音桥街道,,520502,0857,520502006000,,,,,,,,,,2,100,1023,1463,4367,45131,,,
45132,7,105.305138,27.298494,洪山街道,,520502,0857,520502007000,,,,,,,,,,2,100,1023,1463,4367,45132,,,
45133,7,105.31021,27.288299,麻园街道,,520502,0857,520502008000,,,,,,,,,,2,100,1023,1463,4367,45133,,,
45134,7,105.305138,27.298494,碧阳街道,,520502,0857,520502009000,,,,,,,,,,2,100,1023,1463,4367,45134,,,
45135,7,105.305138,27.298494,德溪街道,,520502,0857,520502010000,,,,,,,,,,2,100,1023,1463,4367,45135,,,
45136,7,105.403123,27.355873,碧海街道,,520502,0857,520502011000,,,,,,,,,,2,100,1023,1463,4367,45136,,,
45137,7,105.305138,27.298494,青龙街道,,520502,0857,520502012000,,,,,,,,,,2,100,1023,1463,4367,45137,,,
45138,7,105.385751,27.357242,柏杨林街道,,520502,0857,520502013000,,,,,,,,,,2,100,1023,1463,4367,45138,,,
45139,7,105.356975,27.26851,鸭池镇,,520502,0857,520502100000,,,,,,,,,,2,100,1023,1463,4367,45139,,,
45140,7,105.409738,27.255804,梨树镇,,520502,0857,520502101000,,,,,,,,,,2,100,1023,1463,4367,45140,,,
45141,7,105.379106,27.168775,岔河镇,,520502,0857,520502102000,,,,,,,,,,2,100,1023,1463,4367,45141,,,
45142,7,105.305779,27.182639,朱昌镇,,520502,0857,520502103000,,,,,,,,,,2,100,1023,1463,4367,45142,,,
45143,7,105.20129,27.09555,田坝镇,,520502,0857,520502104000,,,,,,,,,,2,100,1023,1463,4367,45143,,,
45144,7,105.187213,27.235109,长春堡镇,,520502,0857,520502105000,,,,,,,,,,2,100,1023,1463,4367,45144,,,
45145,7,105.04155,27.196636,撒拉溪镇,,520502,0857,520502106000,,,,,,,,,,2,100,1023,1463,4367,45145,,,
45146,7,104.97333,27.17397,杨家湾镇,,520502,0857,520502107000,,,,,,,,,,2,100,1023,1463,4367,45146,,,
45147,7,104.946798,27.243033,放珠镇,,520502,0857,520502108000,,,,,,,,,,2,100,1023,1463,4367,45147,,,
45148,7,105.024176,27.346781,青场镇,,520502,0857,520502109000,,,,,,,,,,2,100,1023,1463,4367,45148,,,
45149,7,105.156463,27.352995,水箐镇,,520502,0857,520502110000,,,,,,,,,,2,100,1023,1463,4367,45149,,,
45150,7,105.263288,27.379542,何官屯镇,,520502,0857,520502111000,,,,,,,,,,2,100,1023,1463,4367,45150,,,
45151,7,105.311481,27.481859,对坡镇,,520502,0857,520502112000,,,,,,,,,,2,100,1023,1463,4367,45151,,,
45152,7,105.30785,27.56066,大银镇,,520502,0857,520502113000,,,,,,,,,,2,100,1023,1463,4367,45152,,,
45153,7,105.36209,27.6612,林口镇,,520502,0857,520502114000,,,,,,,,,,2,100,1023,1463,4367,45153,,,
45154,7,105.48337,27.71847,生机镇,,520502,0857,520502115000,,,,,,,,,,2,100,1023,1463,4367,45154,,,
45155,7,105.55528,27.66309,清水铺镇,,520502,0857,520502116000,,,,,,,,,,2,100,1023,1463,4367,45155,,,
45156,7,105.48346,27.63206,亮岩镇,,520502,0857,520502117000,,,,,,,,,,2,100,1023,1463,4367,45156,,,
45157,7,105.425484,27.587928,燕子口镇,,520502,0857,520502118000,,,,,,,,,,2,100,1023,1463,4367,45157,,,
45158,7,105.375119,27.412358,八寨镇,,520502,0857,520502119000,,,,,,,,,,2,100,1023,1463,4367,45158,,,
45159,7,105.323801,27.361849,田坝桥镇,,520502,0857,520502120000,,,,,,,,,,2,100,1023,1463,4367,45159,,,
45160,7,105.387858,27.366693,海子街镇,,520502,0857,520502121000,,,,,,,,,,2,100,1023,1463,4367,45160,,,
45161,7,105.497444,27.334029,小坝镇,,520502,0857,520502122000,,,,,,,,,,2,100,1023,1463,4367,45161,,,
45162,7,105.462305,27.475511,层台镇,,520502,0857,520502123000,,,,,,,,,,2,100,1023,1463,4367,45162,,,
45163,7,105.518443,27.509967,小吉场镇,,520502,0857,520502124000,,,,,,,,,,2,100,1023,1463,4367,45163,,,
45164,7,105.670573,27.604517,普宜镇,,520502,0857,520502125000,,,,,,,,,,2,100,1023,1463,4367,45164,,,
45165,7,105.79138,27.660458,龙场营镇,,520502,0857,520502126000,,,,,,,,,,2,100,1023,1463,4367,45165,,,
45166,7,105.305138,27.298494,千溪彝族苗族白族乡,,520502,0857,520502200000,,,,,,,,,,2,100,1023,1463,4367,45166,,,
45167,7,105.305138,27.298494,阴底彝族苗族白族乡,,520502,0857,520502201000,,,,,,,,,,2,100,1023,1463,4367,45167,,,
45168,7,105.05443,27.309811,野角乡,,520502,0857,520502202000,,,,,,,,,,2,100,1023,1463,4367,45168,,,
45169,7,104.918174,27.278191,大河乡,,520502,0857,520502203000,,,,,,,,,,2,100,1023,1463,4367,45169,,,
45170,7,105.370839,27.708723,团结彝族苗族乡,,520502,0857,520502204000,,,,,,,,,,2,100,1023,1463,4367,45170,,,
45171,7,105.6083,27.575869,阿市苗族彝族乡,,520502,0857,520502205000,,,,,,,,,,2,100,1023,1463,4367,45171,,,
45172,7,105.74628,27.65984,大屯彝族乡,,520502,0857,520502206000,,,,,,,,,,2,100,1023,1463,4367,45172,,,
45173,7,105.855264,27.694732,田坎彝族乡,,520502,0857,520502207000,,,,,,,,,,2,100,1023,1463,4367,45173,,,
45174,7,105.611656,27.137097,红旗街道,,520521,0857,520521001000,,,,,,,,,,2,100,1023,1463,4368,45174,,,
45175,7,105.611656,27.137097,顺德街道,,520521,0857,520521002000,,,,,,,,,,2,100,1023,1463,4368,45175,,,
45176,7,105.611656,27.137097,慕俄格古城街道,,520521,0857,520521003000,,,,,,,,,,2,100,1023,1463,4368,45176,,,
45177,7,105.611656,27.137097,九驿街道,,520521,0857,520521004000,,,,,,,,,,2,100,1023,1463,4368,45177,,,
45178,7,105.611656,27.137097,归化街道,,520521,0857,520521005000,,,,,,,,,,2,100,1023,1463,4368,45178,,,
45179,7,105.611656,27.137097,鹏程街道,,520521,0857,520521006000,,,,,,,,,,2,100,1023,1463,4368,45179,,,
45180,7,105.526733,27.203066,双山镇,,520521,0857,520521101000,,,,,,,,,,2,100,1023,1463,4368,45180,,,
45181,7,105.35003,26.98313,猫场镇,,520521,0857,520521102000,,,,,,,,,,2,100,1023,1463,4368,45181,,,
45182,7,105.48891,26.946255,马场镇,,520521,0857,520521103000,,,,,,,,,,2,100,1023,1463,4368,45182,,,
45183,7,105.67582,27.073229,羊场镇,,520521,0857,520521104000,,,,,,,,,,2,100,1023,1463,4368,45183,,,
45184,7,105.732323,27.033885,黄泥塘镇,,520521,0857,520521105000,,,,,,,,,,2,100,1023,1463,4368,45184,,,
45185,7,105.69932,27.168021,六龙镇,,520521,0857,520521106000,,,,,,,,,,2,100,1023,1463,4368,45185,,,
45186,7,105.66928,27.35083,达溪镇,,520521,0857,520521107000,,,,,,,,,,2,100,1023,1463,4368,45186,,,
45187,7,105.69492,27.447341,瓢井镇,,520521,0857,520521108000,,,,,,,,,,2,100,1023,1463,4368,45187,,,
45188,7,105.75695,27.549113,长石镇,,520521,0857,520521109000,,,,,,,,,,2,100,1023,1463,4368,45188,,,
45189,7,105.529025,27.074058,对江镇,,520521,0857,520521110000,,,,,,,,,,2,100,1023,1463,4368,45189,,,
45190,7,105.61391,27.22585,东关乡,,520521,0857,520521200000,,,,,,,,,,2,100,1023,1463,4368,45190,,,
45191,7,105.55131,27.24882,竹园彝族苗族乡,,520521,0857,520521201000,,,,,,,,,,2,100,1023,1463,4368,45191,,,
45192,7,105.521031,27.259845,响水白族彝族仡佬族乡,,520521,0857,520521202000,,,,,,,,,,2,100,1023,1463,4368,45192,,,
45193,7,105.45199,27.17149,文阁乡,,520521,0857,520521203000,,,,,,,,,,2,100,1023,1463,4368,45193,,,
45194,7,105.45597,27.057401,绿塘乡,,520521,0857,520521204000,,,,,,,,,,2,100,1023,1463,4368,45194,,,
45195,7,105.38608,27.00307,鼎新彝族苗族乡,,520521,0857,520521205000,,,,,,,,,,2,100,1023,1463,4368,45195,,,
45196,7,105.56075,26.919019,牛场苗族彝族乡,,520521,0857,520521206000,,,,,,,,,,2,100,1023,1463,4368,45196,,,
45197,7,105.5682,27.07168,小屯乡,,520521,0857,520521208000,,,,,,,,,,2,100,1023,1463,4368,45197,,,
45198,7,105.667572,27.039218,理化苗族彝族乡,,520521,0857,520521209000,,,,,,,,,,2,100,1023,1463,4368,45198,,,
45199,7,105.73595,27.215507,凤山彝族蒙古族乡,,520521,0857,520521211000,,,,,,,,,,2,100,1023,1463,4368,45199,,,
45200,7,105.6587,27.24013,安乐彝族仡佬族乡,,520521,0857,520521212000,,,,,,,,,,2,100,1023,1463,4368,45200,,,
45201,7,105.62559,27.29372,核桃彝族白族乡,,520521,0857,520521213000,,,,,,,,,,2,100,1023,1463,4368,45201,,,
45202,7,105.611656,27.137097,八堡彝族苗族乡,,520521,0857,520521214000,,,,,,,,,,2,100,1023,1463,4368,45202,,,
45203,7,105.646563,27.466121,兴隆苗族乡,,520521,0857,520521215000,,,,,,,,,,2,100,1023,1463,4368,45203,,,
45204,7,105.822579,27.55761,果瓦乡,,520521,0857,520521216000,,,,,,,,,,2,100,1023,1463,4368,45204,,,
45205,7,105.8425,27.47168,大山苗族彝族乡,,520521,0857,520521217000,,,,,,,,,,2,100,1023,1463,4368,45205,,,
45206,7,106.00464,27.372091,雨冲乡,,520521,0857,520521218000,,,,,,,,,,2,100,1023,1463,4368,45206,,,
45207,7,105.611656,27.137097,黄泥彝族苗族满族乡,,520521,0857,520521219000,,,,,,,,,,2,100,1023,1463,4368,45207,,,
45208,7,105.611656,27.137097,大水彝族苗族布依族乡,,520521,0857,520521220000,,,,,,,,,,2,100,1023,1463,4368,45208,,,
45209,7,106.01024,27.288421,沙厂彝族乡,,520521,0857,520521221000,,,,,,,,,,2,100,1023,1463,4368,45209,,,
45210,7,105.866079,27.212164,普底彝族苗族白族乡,,520521,0857,520521222000,,,,,,,,,,2,100,1023,1463,4368,45210,,,
45211,7,105.85391,27.286042,百纳彝族乡,,520521,0857,520521223000,,,,,,,,,,2,100,1023,1463,4368,45211,,,
45212,7,105.79499,27.324699,三元彝族苗族白族乡,,520521,0857,520521224000,,,,,,,,,,2,100,1023,1463,4368,45212,,,
45213,7,105.611656,27.137097,星宿苗族彝族仡佬族乡,,520521,0857,520521225000,,,,,,,,,,2,100,1023,1463,4368,45213,,,
45214,7,106.033544,27.007713,莲城街道,,520522,0857,520522001000,,,,,,,,,,2,100,1023,1463,4369,45214,,,
45215,7,106.03452,27.029439,水西街道,,520522,0857,520522002000,,,,,,,,,,2,100,1023,1463,4369,45215,,,
45216,7,106.033544,27.007713,文峰街道,,520522,0857,520522003000,,,,,,,,,,2,100,1023,1463,4369,45216,,,
45217,7,106.02755,27.026629,杜鹃街道,,520522,0857,520522004000,,,,,,,,,,2,100,1023,1463,4369,45217,,,
45218,7,106.033544,27.007713,锦绣街道,,520522,0857,520522005000,,,,,,,,,,2,100,1023,1463,4369,45218,,,
45219,7,105.96346,26.93156,金碧镇,,520522,0857,520522101000,,,,,,,,,,2,100,1023,1463,4369,45219,,,
45220,7,106.041819,26.903609,雨朵镇,,520522,0857,520522102000,,,,,,,,,,2,100,1023,1463,4369,45220,,,
45221,7,106.16583,26.882299,大关镇,,520522,0857,520522103000,,,,,,,,,,2,100,1023,1463,4369,45221,,,
45222,7,106.170781,26.982394,谷里镇,,520522,0857,520522104000,,,,,,,,,,2,100,1023,1463,4369,45222,,,
45223,7,106.347655,26.990454,素朴镇,,520522,0857,520522105000,,,,,,,,,,2,100,1023,1463,4369,45223,,,
45224,7,106.27875,27.205391,中坪镇,,520522,0857,520522106000,,,,,,,,,,2,100,1023,1463,4369,45224,,,
45225,7,106.20046,27.26435,重新镇,,520522,0857,520522107000,,,,,,,,,,2,100,1023,1463,4369,45225,,,
45226,7,105.863614,27.039335,林泉镇,,520522,0857,520522108000,,,,,,,,,,2,100,1023,1463,4369,45226,,,
45227,7,106.033544,27.007713,金兰镇,,520522,0857,520522109000,,,,,,,,,,2,100,1023,1463,4369,45227,,,
45228,7,106.130993,27.055135,甘棠镇,,520522,0857,520522110000,,,,,,,,,,2,100,1023,1463,4369,45228,,,
45229,7,106.033544,27.007713,洪水镇,,520522,0857,520522111000,,,,,,,,,,2,100,1023,1463,4369,45229,,,
45230,7,105.922935,27.002155,锦星镇,,520522,0857,520522112000,,,,,,,,,,2,100,1023,1463,4369,45230,,,
45231,7,106.235169,26.981543,钟山镇,,520522,0857,520522113000,,,,,,,,,,2,100,1023,1463,4369,45231,,,
45232,7,106.033544,27.007713,协和镇,,520522,0857,520522114000,,,,,,,,,,2,100,1023,1463,4369,45232,,,
45233,7,105.95853,26.84378,观音洞镇,,520522,0857,520522115000,,,,,,,,,,2,100,1023,1463,4369,45233,,,
45234,7,105.914835,26.886223,五里布依族苗族乡,,520522,0857,520522200000,,,,,,,,,,2,100,1023,1463,4369,45234,,,
45235,7,106.100223,26.938466,绿化白族彝族乡,,520522,0857,520522203000,,,,,,,,,,2,100,1023,1463,4369,45235,,,
45236,7,106.09865,26.855989,新仁苗族乡,,520522,0857,520522204000,,,,,,,,,,2,100,1023,1463,4369,45236,,,
45237,7,106.28415,26.92432,铁石苗族彝族乡,,520522,0857,520522206000,,,,,,,,,,2,100,1023,1463,4369,45237,,,
45238,7,106.343543,27.057422,太来彝族苗族乡,,520522,0857,520522208000,,,,,,,,,,2,100,1023,1463,4369,45238,,,
45239,7,106.2042,27.10075,永燊彝族苗族乡,,520522,0857,520522210000,,,,,,,,,,2,100,1023,1463,4369,45239,,,
45240,7,106.295379,27.27595,中建苗族彝族乡,,520522,0857,520522211000,,,,,,,,,,2,100,1023,1463,4369,45240,,,
45241,7,106.321128,27.214795,花溪彝族苗族乡,,520522,0857,520522212000,,,,,,,,,,2,100,1023,1463,4369,45241,,,
45242,7,106.13655,27.17051,定新彝族苗族乡,,520522,0857,520522213000,,,,,,,,,,2,100,1023,1463,4369,45242,,,
45243,7,106.033544,27.007713,金坡苗族彝族满族乡,,520522,0857,520522215000,,,,,,,,,,2,100,1023,1463,4369,45243,,,
45244,7,106.033544,27.007713,仁和彝族苗族乡,,520522,0857,520522216000,,,,,,,,,,2,100,1023,1463,4369,45244,,,
45245,7,105.87284,27.11676,红林彝族苗族乡,,520522,0857,520522217000,,,,,,,,,,2,100,1023,1463,4369,45245,,,
45246,7,106.192365,27.488346,西洛街道,,520523,0857,520523001000,,,,,,,,,,2,100,1023,1463,4370,45246,,,
45247,7,106.253418,27.553556,岩孔街道,,520523,0857,520523002000,,,,,,,,,,2,100,1023,1463,4370,45247,,,
45248,7,106.220228,27.459214,五龙街道,,520523,0857,520523003000,,,,,,,,,,2,100,1023,1463,4370,45248,,,
45249,7,106.220228,27.459214,鼓场街道,,520523,0857,520523004000,,,,,,,,,,2,100,1023,1463,4370,45249,,,
45250,7,106.220228,27.459214,民兴街道,,520523,0857,520523005000,,,,,,,,,,2,100,1023,1463,4370,45250,,,
45251,7,106.43397,27.39579,安底镇,,520523,0857,520523101000,,,,,,,,,,2,100,1023,1463,4370,45251,,,
45252,7,106.59631,27.383221,沙土镇,,520523,0857,520523102000,,,,,,,,,,2,100,1023,1463,4370,45252,,,
45253,7,106.333769,27.373942,禹谟镇,,520523,0857,520523104000,,,,,,,,,,2,100,1023,1463,4370,45253,,,
45254,7,106.506568,27.405759,岚头镇,,520523,0857,520523105000,,,,,,,,,,2,100,1023,1463,4370,45254,,,
45255,7,105.955254,27.698752,清池镇,,520523,0857,520523106000,,,,,,,,,,2,100,1023,1463,4370,45255,,,
45256,7,106.240029,27.416066,柳塘镇,,520523,0857,520523107000,,,,,,,,,,2,100,1023,1463,4370,45256,,,
45257,7,106.155726,27.505079,平坝镇,,520523,0857,520523108000,,,,,,,,,,2,100,1023,1463,4370,45257,,,
45258,7,106.666319,27.453384,源村镇,,520523,0857,520523109000,,,,,,,,,,2,100,1023,1463,4370,45258,,,
45259,7,106.40534,27.24518,高坪镇,,520523,0857,520523110000,,,,,,,,,,2,100,1023,1463,4370,45259,,,
45260,7,106.417921,27.192607,化觉镇,,520523,0857,520523111000,,,,,,,,,,2,100,1023,1463,4370,45260,,,
45261,7,106.433631,27.472328,茶园镇,,520523,0857,520523112000,,,,,,,,,,2,100,1023,1463,4370,45261,,,
45262,7,106.220228,27.459214,木孔镇,,520523,0857,520523113000,,,,,,,,,,2,100,1023,1463,4370,45262,,,
45263,7,106.220228,27.459214,长坝镇,,520523,0857,520523114000,,,,,,,,,,2,100,1023,1463,4370,45263,,,
45264,7,106.220228,27.459214,后山镇,,520523,0857,520523115000,,,,,,,,,,2,100,1023,1463,4370,45264,,,
45265,7,106.011614,27.595435,石场苗族彝族乡,,520523,0857,520523202000,,,,,,,,,,2,100,1023,1463,4370,45265,,,
45266,7,106.088827,27.558493,桂花乡,,520523,0857,520523203000,,,,,,,,,,2,100,1023,1463,4370,45266,,,
45267,7,105.91699,27.589049,太平彝族苗族乡,,520523,0857,520523204000,,,,,,,,,,2,100,1023,1463,4370,45267,,,
45268,7,106.09333,27.337829,安洛苗族彝族满族乡,,520523,0857,520523215000,,,,,,,,,,2,100,1023,1463,4370,45268,,,
45269,7,106.11522,27.398461,新化苗族彝族满族乡,,520523,0857,520523216000,,,,,,,,,,2,100,1023,1463,4370,45269,,,
45270,7,106.04915,27.395229,大田彝族苗族布依族乡,,520523,0857,520523217000,,,,,,,,,,2,100,1023,1463,4370,45270,,,
45271,7,105.827132,27.641791,马路彝族苗族乡,,520523,0857,520523218000,,,,,,,,,,2,100,1023,1463,4370,45271,,,
45272,7,105.770542,26.66345,双堰街道,,520524,0857,520524001000,,,,,,,,,,2,100,1023,1463,4371,45272,,,
45273,7,105.770542,26.66345,文腾街道,,520524,0857,520524002000,,,,,,,,,,2,100,1023,1463,4371,45273,,,
45274,7,105.770542,26.66345,金凤街道,,520524,0857,520524003000,,,,,,,,,,2,100,1023,1463,4371,45274,,,
45275,7,105.857611,26.713721,三甲街道,,520524,0857,520524004000,,,,,,,,,,2,100,1023,1463,4371,45275,,,
45276,7,105.801831,26.719893,绮陌街道,,520524,0857,520524005000,,,,,,,,,,2,100,1023,1463,4371,45276,,,
45277,7,105.816419,26.822244,八步街道,,520524,0857,520524006000,,,,,,,,,,2,100,1023,1463,4371,45277,,,
45278,7,105.770542,26.66345,惠民街道,,520524,0857,520524007000,,,,,,,,,,2,100,1023,1463,4371,45278,,,
45279,7,105.879872,26.60329,桂果镇,,520524,0857,520524101000,,,,,,,,,,2,100,1023,1463,4371,45279,,,
45280,7,106.011953,26.620051,牛场镇,,520524,0857,520524102000,,,,,,,,,,2,100,1023,1463,4371,45280,,,
45281,7,106.038503,26.540143,猫场镇,,520524,0857,520524103000,,,,,,,,,,2,100,1023,1463,4371,45281,,,
45282,7,106.013875,26.70124,化起镇,,520524,0857,520524104000,,,,,,,,,,2,100,1023,1463,4371,45282,,,
45283,7,106.078761,26.748288,龙场镇,,520524,0857,520524105000,,,,,,,,,,2,100,1023,1463,4371,45283,,,
45284,7,105.696669,26.815077,以那镇,,520524,0857,520524107000,,,,,,,,,,2,100,1023,1463,4371,45284,,,
45285,7,105.548625,26.571974,三塘镇,,520524,0857,520524108000,,,,,,,,,,2,100,1023,1463,4371,45285,,,
45286,7,105.51676,26.47975,阿弓镇,,520524,0857,520524109000,,,,,,,,,,2,100,1023,1463,4371,45286,,,
45287,7,105.696892,26.53844,珠藏镇,,520524,0857,520524110000,,,,,,,,,,2,100,1023,1463,4371,45287,,,
45288,7,105.646833,26.691948,中寨镇,,520524,0857,520524111000,,,,,,,,,,2,100,1023,1463,4371,45288,,,
45289,7,106.09048,26.626669,马场镇,,520524,0857,520524112000,,,,,,,,,,2,100,1023,1463,4371,45289,,,
45290,7,105.770542,26.66345,板桥镇,,520524,0857,520524113000,,,,,,,,,,2,100,1023,1463,4371,45290,,,
45291,7,105.53905,26.39094,白泥镇,,520524,0857,520524114000,,,,,,,,,,2,100,1023,1463,4371,45291,,,
45292,7,105.604603,26.523699,少普镇,,520524,0857,520524115000,,,,,,,,,,2,100,1023,1463,4371,45292,,,
45293,7,105.69966,26.46088,熊家场镇,,520524,0857,520524116000,,,,,,,,,,2,100,1023,1463,4371,45293,,,
45294,7,105.76817,26.499541,黑土镇,,520524,0857,520524117000,,,,,,,,,,2,100,1023,1463,4371,45294,,,
45295,7,105.770542,26.66345,自强苗族乡,,520524,0857,520524201000,,,,,,,,,,2,100,1023,1463,4371,45295,,,
45296,7,105.770542,26.66345,大平苗族彝族乡,,520524,0857,520524202000,,,,,,,,,,2,100,1023,1463,4371,45296,,,
45297,7,105.88862,26.767541,官寨苗族乡,,520524,0857,520524203000,,,,,,,,,,2,100,1023,1463,4371,45297,,,
45298,7,105.772992,26.869903,茶店布依族苗族彝族乡,,520524,0857,520524204000,,,,,,,,,,2,100,1023,1463,4371,45298,,,
45299,7,105.770542,26.66345,金龙苗族彝族布依族乡,,520524,0857,520524205000,,,,,,,,,,2,100,1023,1463,4371,45299,,,
45300,7,105.607546,26.592585,后寨苗族乡,,520524,0857,520524206000,,,,,,,,,,2,100,1023,1463,4371,45300,,,
45301,7,105.770542,26.66345,鸡场苗族彝族乡,,520524,0857,520524207000,,,,,,,,,,2,100,1023,1463,4371,45301,,,
45302,7,105.89124,26.52523,实兴乡,,520524,0857,520524211000,,,,,,,,,,2,100,1023,1463,4371,45302,,,
45303,7,106.030128,26.47,上坪寨乡,,520524,0857,520524213000,,,,,,,,,,2,100,1023,1463,4371,45303,,,
45304,7,105.976075,26.760357,纳雍乡,,520524,0857,520524215000,,,,,,,,,,2,100,1023,1463,4371,45304,,,
45305,7,105.379052,26.773336,雍熙街道,,520525,0857,520525001000,,,,,,,,,,2,100,1023,1463,4372,45305,,,
45306,7,105.382715,26.777645,文昌街道,,520525,0857,520525002000,,,,,,,,,,2,100,1023,1463,4372,45306,,,
45307,7,105.434927,26.771131,居仁街道,,520525,0857,520525003000,,,,,,,,,,2,100,1023,1463,4372,45307,,,
45308,7,105.382715,26.777645,宣慰街道,,520525,0857,520525004000,,,,,,,,,,2,100,1023,1463,4372,45308,,,
45309,7,105.382715,26.777645,利园街道,,520525,0857,520525005000,,,,,,,,,,2,100,1023,1463,4372,45309,,,
45310,7,105.382715,26.777645,珙桐街道,,520525,0857,520525006000,,,,,,,,,,2,100,1023,1463,4372,45310,,,
45311,7,105.382715,26.777645,中岭镇,,520525,0857,520525101000,,,,,,,,,,2,100,1023,1463,4372,45311,,,
45312,7,105.189266,26.628065,阳长镇,,520525,0857,520525102000,,,,,,,,,,2,100,1023,1463,4372,45312,,,
45313,7,105.193347,27.00418,维新镇,,520525,0857,520525103000,,,,,,,,,,2,100,1023,1463,4372,45313,,,
45314,7,105.25191,26.848651,龙场镇,,520525,0857,520525104000,,,,,,,,,,2,100,1023,1463,4372,45314,,,
45315,7,105.4722,26.832531,乐治镇,,520525,0857,520525105000,,,,,,,,,,2,100,1023,1463,4372,45315,,,
45316,7,105.27427,26.552201,百兴镇,,520525,0857,520525107000,,,,,,,,,,2,100,1023,1463,4372,45316,,,
45317,7,105.39531,26.61877,张家湾镇,,520525,0857,520525108000,,,,,,,,,,2,100,1023,1463,4372,45317,,,
45318,7,105.285608,26.728963,勺窝镇,,520525,0857,520525114000,,,,,,,,,,2,100,1023,1463,4372,45318,,,
45319,7,105.382715,26.777645,寨乐镇,,520525,0857,520525115000,,,,,,,,,,2,100,1023,1463,4372,45319,,,
45320,7,105.530233,26.833465,玉龙坝镇,,520525,0857,520525116000,,,,,,,,,,2,100,1023,1463,4372,45320,,,
45321,7,105.382715,26.777645,沙包镇,,520525,0857,520525117000,,,,,,,,,,2,100,1023,1463,4372,45321,,,
45322,7,105.382715,26.777645,水东镇,,520525,0857,520525118000,,,,,,,,,,2,100,1023,1463,4372,45322,,,
45323,7,105.382715,26.777645,曙光镇,,520525,0857,520525119000,,,,,,,,,,2,100,1023,1463,4372,45323,,,
45324,7,105.148483,26.67555,新房彝族苗族乡,,520525,0857,520525201000,,,,,,,,,,2,100,1023,1463,4372,45324,,,
45325,7,105.382715,26.777645,厍东关彝族白族苗族乡,,520525,0857,520525202000,,,,,,,,,,2,100,1023,1463,4372,45325,,,
45326,7,105.246755,26.942519,董地苗族彝族乡,,520525,0857,520525203000,,,,,,,,,,2,100,1023,1463,4372,45326,,,
45327,7,105.25651,26.925299,化作苗族彝族乡,,520525,0857,520525205000,,,,,,,,,,2,100,1023,1463,4372,45327,,,
45328,7,105.097891,27.001,姑开苗族彝族乡,,520525,0857,520525210000,,,,,,,,,,2,100,1023,1463,4372,45328,,,
45329,7,105.0478,27.025561,羊场苗族彝族乡,,520525,0857,520525211000,,,,,,,,,,2,100,1023,1463,4372,45329,,,
45330,7,105.382715,26.777645,锅圈岩苗族彝族乡,,520525,0857,520525212000,,,,,,,,,,2,100,1023,1463,4372,45330,,,
45331,7,105.121456,26.843734,昆寨苗族彝族白族乡,,520525,0857,520525213000,,,,,,,,,,2,100,1023,1463,4372,45331,,,
45332,7,105.054642,26.827227,左鸠戛彝族苗族乡,,520525,0857,520525214000,,,,,,,,,,2,100,1023,1463,4372,45332,,,
45333,7,105.12493,26.80258,猪场苗族彝族乡,,520525,0857,520525215000,,,,,,,,,,2,100,1023,1463,4372,45333,,,
45334,7,104.278733,26.856193,海边街道,,520526,0857,520526001000,,,,,,,,,,2,100,1023,1463,4373,45334,,,
45335,7,104.271262,26.903353,五里岗街道,,520526,0857,520526002000,,,,,,,,,,2,100,1023,1463,4373,45335,,,
45336,7,104.278733,26.856193,六桥街道,,520526,0857,520526003000,,,,,,,,,,2,100,1023,1463,4373,45336,,,
45337,7,104.278733,26.856193,陕桥街道,,520526,0857,520526004000,,,,,,,,,,2,100,1023,1463,4373,45337,,,
45338,7,104.282198,26.867906,草海镇,,520526,0857,520526100000,,,,,,,,,,2,100,1023,1463,4373,45338,,,
45339,7,104.259576,26.747688,么站镇,,520526,0857,520526101000,,,,,,,,,,2,100,1023,1463,4373,45339,,,
45340,7,104.429229,26.762451,金钟镇,,520526,0857,520526102000,,,,,,,,,,2,100,1023,1463,4373,45340,,,
45341,7,104.436127,26.838499,炉山镇,,520526,0857,520526103000,,,,,,,,,,2,100,1023,1463,4373,45341,,,
45342,7,104.54078,26.64225,龙场镇,,520526,0857,520526104000,,,,,,,,,,2,100,1023,1463,4373,45342,,,
45343,7,104.019829,26.741771,黑石头镇,,520526,0857,520526105000,,,,,,,,,,2,100,1023,1463,4373,45343,,,
45344,7,103.916164,26.534797,哲觉镇,,520526,0857,520526106000,,,,,,,,,,2,100,1023,1463,4373,45344,,,
45345,7,104.008338,26.968108,观风海镇,,520526,0857,520526107000,,,,,,,,,,2,100,1023,1463,4373,45345,,,
45346,7,103.82125,27.088615,牛棚镇,,520526,0857,520526108000,,,,,,,,,,2,100,1023,1463,4373,45346,,,
45347,7,103.894079,27.076333,迤那镇,,520526,0857,520526109000,,,,,,,,,,2,100,1023,1463,4373,45347,,,
45348,7,103.80699,27.21952,中水镇,,520526,0857,520526110000,,,,,,,,,,2,100,1023,1463,4373,45348,,,
45349,7,104.018222,27.144752,龙街镇,,520526,0857,520526111000,,,,,,,,,,2,100,1023,1463,4373,45349,,,
45350,7,104.129118,27.068169,雪山镇,,520526,0857,520526112000,,,,,,,,,,2,100,1023,1463,4373,45350,,,
45351,7,104.34753,27.059099,羊街镇,,520526,0857,520526113000,,,,,,,,,,2,100,1023,1463,4373,45351,,,
45352,7,104.18308,26.93731,小海镇,,520526,0857,520526114000,,,,,,,,,,2,100,1023,1463,4373,45352,,,
45353,7,104.40277,26.91465,盐仓镇,,520526,0857,520526115000,,,,,,,,,,2,100,1023,1463,4373,45353,,,
45354,7,104.589401,26.79615,东风镇,,520526,0857,520526116000,,,,,,,,,,2,100,1023,1463,4373,45354,,,
45355,7,104.278733,26.856193,二塘镇,,520526,0857,520526117000,,,,,,,,,,2,100,1023,1463,4373,45355,,,
45356,7,104.727713,26.694721,猴场镇,,520526,0857,520526118000,,,,,,,,,,2,100,1023,1463,4373,45356,,,
45357,7,104.278733,26.856193,秀水镇,,520526,0857,520526119000,,,,,,,,,,2,100,1023,1463,4373,45357,,,
45358,7,104.14557,26.875811,双龙镇,,520526,0857,520526120000,,,,,,,,,,2,100,1023,1463,4373,45358,,,
45359,7,104.278733,26.856193,麻乍镇,,520526,0857,520526121000,,,,,,,,,,2,100,1023,1463,4373,45359,,,
45360,7,104.232821,27.232661,兔街镇,,520526,0857,520526122000,,,,,,,,,,2,100,1023,1463,4373,45360,,,
45361,7,104.278733,26.856193,海拉镇,,520526,0857,520526123000,,,,,,,,,,2,100,1023,1463,4373,45361,,,
45362,7,104.278733,26.856193,玉龙镇,,520526,0857,520526124000,,,,,,,,,,2,100,1023,1463,4373,45362,,,
45363,7,103.983405,26.818184,哈喇河镇,,520526,0857,520526125000,,,,,,,,,,2,100,1023,1463,4373,45363,,,
45364,7,103.856106,26.966706,斗古镇,,520526,0857,520526126000,,,,,,,,,,2,100,1023,1463,4373,45364,,,
45365,7,104.29192,26.689757,金斗镇,,520526,0857,520526127000,,,,,,,,,,2,100,1023,1463,4373,45365,,,
45366,7,104.278733,26.856193,岔河镇,,520526,0857,520526128000,,,,,,,,,,2,100,1023,1463,4373,45366,,,
45367,7,103.911683,27.24608,黑土河镇,,520526,0857,520526129000,,,,,,,,,,2,100,1023,1463,4373,45367,,,
45368,7,104.642732,26.566067,新发布依族乡,,520526,0857,520526201000,,,,,,,,,,2,100,1023,1463,4373,45368,,,
45369,7,103.945721,27.359088,石门乡,,520526,0857,520526210000,,,,,,,,,,2,100,1023,1463,4373,45369,,,
45370,7,104.097735,27.296864,云贵乡,,520526,0857,520526211000,,,,,,,,,,2,100,1023,1463,4373,45370,,,
45371,7,104.52568,26.916499,板底乡,,520526,0857,520526214000,,,,,,,,,,2,100,1023,1463,4373,45371,,,
45372,7,104.235009,27.116919,大街乡,,520526,0857,520526215000,,,,,,,,,,2,100,1023,1463,4373,45372,,,
45373,7,104.727418,27.123079,双河街道,,520527,0857,520527001000,,,,,,,,,,2,100,1023,1463,4374,45373,,,
45374,7,104.727418,27.123079,白果街道,,520527,0857,520527002000,,,,,,,,,,2,100,1023,1463,4374,45374,,,
45375,7,104.727418,27.123079,汉阳街道,,520527,0857,520527003000,,,,,,,,,,2,100,1023,1463,4374,45375,,,
45376,7,104.727418,27.123079,金银山街道,,520527,0857,520527004000,,,,,,,,,,2,100,1023,1463,4374,45376,,,
45377,7,104.685646,27.104957,七家湾街道,,520527,0857,520527005000,,,,,,,,,,2,100,1023,1463,4374,45377,,,
45378,7,104.55599,26.97374,妈姑镇,,520527,0857,520527102000,,,,,,,,,,2,100,1023,1463,4374,45378,,,
45379,7,104.60113,27.221519,财神镇,,520527,0857,520527103000,,,,,,,,,,2,100,1023,1463,4374,45379,,,
45380,7,104.718621,27.229529,六曲河镇,,520527,0857,520527104000,,,,,,,,,,2,100,1023,1463,4374,45380,,,
45381,7,104.83817,27.130104,野马川镇,,520527,0857,520527105000,,,,,,,,,,2,100,1023,1463,4374,45381,,,
45382,7,104.727418,27.123079,罗州镇,,520527,0857,520527106000,,,,,,,,,,2,100,1023,1463,4374,45382,,,
45383,7,104.727418,27.123079,平山镇,,520527,0857,520527107000,,,,,,,,,,2,100,1023,1463,4374,45383,,,
45384,7,104.826751,27.31302,哲庄镇,,520527,0857,520527108000,,,,,,,,,,2,100,1023,1463,4374,45384,,,
45385,7,104.764836,27.273797,古基镇,,520527,0857,520527109000,,,,,,,,,,2,100,1023,1463,4374,45385,,,
45386,7,104.727418,27.123079,朱明镇,,520527,0857,520527110000,,,,,,,,,,2,100,1023,1463,4374,45386,,,
45387,7,104.274946,27.30314,德卓镇,,520527,0857,520527111000,,,,,,,,,,2,100,1023,1463,4374,45387,,,
45388,7,104.72894,27.18477,达依乡,,520527,0857,520527200000,,,,,,,,,,2,100,1023,1463,4374,45388,,,
45389,7,104.6386,27.09191,水塘堡彝族苗族乡,,520527,0857,520527201000,,,,,,,,,,2,100,1023,1463,4374,45389,,,
45390,7,104.816171,26.943984,兴发苗族彝族回族乡,,520527,0857,520527202000,,,,,,,,,,2,100,1023,1463,4374,45390,,,
45391,7,104.884299,26.883752,松林坡白族彝族苗族乡,,520527,0857,520527203000,,,,,,,,,,2,100,1023,1463,4374,45391,,,
45392,7,104.76451,26.8729,雉街彝族苗族乡,,520527,0857,520527204000,,,,,,,,,,2,100,1023,1463,4374,45392,,,
45393,7,104.66903,26.91408,珠市彝族乡,,520527,0857,520527205000,,,,,,,,,,2,100,1023,1463,4374,45393,,,
45394,7,104.46401,27.066169,双坪彝族苗族乡,,520527,0857,520527207000,,,,,,,,,,2,100,1023,1463,4374,45394,,,
45395,7,104.357888,27.072898,铁匠苗族乡,,520527,0857,520527208000,,,,,,,,,,2,100,1023,1463,4374,45395,,,
45396,7,104.321751,27.140521,辅处彝族苗族乡,,520527,0857,520527209000,,,,,,,,,,2,100,1023,1463,4374,45396,,,
45397,7,104.404132,27.233321,可乐彝族苗族乡,,520527,0857,520527210000,,,,,,,,,,2,100,1023,1463,4374,45397,,,
45398,7,104.335465,27.331661,河镇彝族苗族乡,,520527,0857,520527211000,,,,,,,,,,2,100,1023,1463,4374,45398,,,
45399,7,104.448591,27.350702,安乐溪乡,,520527,0857,520527213000,,,,,,,,,,2,100,1023,1463,4374,45399,,,
45400,7,104.472967,27.254598,结构彝族苗族乡,,520527,0857,520527215000,,,,,,,,,,2,100,1023,1463,4374,45400,,,
45401,7,104.95539,27.07863,古达苗族彝族乡,,520527,0857,520527219000,,,,,,,,,,2,100,1023,1463,4374,45401,,,
45402,7,104.89956,27.076399,威奢乡,,520527,0857,520527220000,,,,,,,,,,2,100,1023,1463,4374,45402,,,
45403,7,109.19259,27.7156,市中街道,,520602,0856,520602001000,,,,,,,,,,2,100,1023,1464,4375,45403,,,
45404,7,109.195743,27.723963,环北街道,,520602,0856,520602002000,,,,,,,,,,2,100,1023,1464,4375,45404,,,
45405,7,109.183799,27.714252,河西街道,,520602,0856,520602003000,,,,,,,,,,2,100,1023,1464,4375,45405,,,
45406,7,109.181122,27.690653,灯塔街道,,520602,0856,520602005000,,,,,,,,,,2,100,1023,1464,4375,45406,,,
45407,7,109.037705,27.634134,川硐街道,,520602,0856,520602006000,,,,,,,,,,2,100,1023,1464,4375,45407,,,
45408,7,109.03112,27.71502,坝黄镇,,520602,0856,520602101000,,,,,,,,,,2,100,1023,1464,4375,45408,,,
45409,7,109.359546,27.756644,云场坪镇,,520602,0856,520602102000,,,,,,,,,,2,100,1023,1464,4375,45409,,,
45410,7,109.422762,27.694148,漾头镇,,520602,0856,520602103000,,,,,,,,,,2,100,1023,1464,4375,45410,,,
45411,7,109.08056,27.65518,桐木坪侗族乡,,520602,0856,520602200000,,,,,,,,,,2,100,1023,1464,4375,45411,,,
45412,7,109.321721,27.807242,滑石侗族苗族土家族乡,,520602,0856,520602201000,,,,,,,,,,2,100,1023,1464,4375,45412,,,
45413,7,109.094531,27.783139,和平土家族侗族乡,,520602,0856,520602202000,,,,,,,,,,2,100,1023,1464,4375,45413,,,
45414,7,109.396187,27.633588,瓦屋侗族乡,,520602,0856,520602203000,,,,,,,,,,2,100,1023,1464,4375,45414,,,
45415,7,109.181122,27.690653,六龙山侗族土家族乡,,520602,0856,520602204000,,,,,,,,,,2,100,1023,1464,4375,45415,,,
45416,7,109.182023,27.67689,谢桥街道,,520603,0856,520603001000,,,,,,,,,,2,100,1023,1464,4376,45416,,,
45417,7,109.142055,27.584549,茶店街道,,520603,0856,520603002000,,,,,,,,,,2,100,1023,1464,4376,45417,,,
45418,7,109.213644,27.517896,仁山街道,,520603,0856,520603003000,,,,,,,,,,2,100,1023,1464,4376,45418,,,
45419,7,109.213644,27.517896,丹都街道,,520603,0856,520603004000,,,,,,,,,,2,100,1023,1464,4376,45419,,,
45420,7,109.204954,27.516842,万山镇,,520603,0856,520603100000,,,,,,,,,,2,100,1023,1464,4376,45420,,,
45421,7,109.182866,27.490149,高楼坪侗族乡,,520603,0856,520603200000,,,,,,,,,,2,100,1023,1464,4376,45421,,,
45422,7,109.27567,27.47543,黄道侗族乡,,520603,0856,520603201000,,,,,,,,,,2,100,1023,1464,4376,45422,,,
45423,7,109.278518,27.581088,敖寨侗族乡,,520603,0856,520603202000,,,,,,,,,,2,100,1023,1464,4376,45423,,,
45424,7,109.336392,27.553949,下溪侗族乡,,520603,0856,520603203000,,,,,,,,,,2,100,1023,1464,4376,45424,,,
45425,7,109.06384,27.543751,鱼塘侗族苗族乡,,520603,0856,520603204000,,,,,,,,,,2,100,1023,1464,4376,45425,,,
45426,7,109.213644,27.517896,大坪侗族土家族苗族乡,,520603,0856,520603205000,,,,,,,,,,2,100,1023,1464,4376,45426,,,
45427,7,108.836923,27.698844,双江街道,,520621,0856,520621001000,,,,,,,,,,2,100,1023,1464,4377,45427,,,
45428,7,108.839557,27.69965,凯德街道,,520621,0856,520621002000,,,,,,,,,,2,100,1023,1464,4377,45428,,,
45429,7,108.69592,27.648926,闵孝镇,,520621,0856,520621101000,,,,,,,,,,2,100,1023,1464,4377,45429,,,
45430,7,108.839557,27.69965,太平镇,,520621,0856,520621102000,,,,,,,,,,2,100,1023,1464,4377,45430,,,
45431,7,108.941889,27.71404,坝盘镇,,520621,0856,520621103000,,,,,,,,,,2,100,1023,1464,4377,45431,,,
45432,7,108.839557,27.69965,民和镇,,520621,0856,520621104000,,,,,,,,,,2,100,1023,1464,4377,45432,,,
45433,7,108.839557,27.69965,桃映镇,,520621,0856,520621105000,,,,,,,,,,2,100,1023,1464,4377,45433,,,
45434,7,108.917181,27.868129,怒溪镇,,520621,0856,520621106000,,,,,,,,,,2,100,1023,1464,4377,45434,,,
45435,7,108.55971,27.783649,德旺土家族苗族乡,,520621,0856,520621202000,,,,,,,,,,2,100,1023,1464,4377,45435,,,
45436,7,108.665093,27.521975,官和侗族土家族苗族乡,,520621,0856,520621204000,,,,,,,,,,2,100,1023,1464,4377,45436,,,
45437,7,108.8835,27.225283,皂角坪街道,,520622,0856,520622001000,,,,,,,,,,2,100,1023,1464,4378,45437,,,
45438,7,108.92004,27.234858,平溪街道,,520622,0856,520622002000,,,,,,,,,,2,100,1023,1464,4378,45438,,,
45439,7,108.91468,27.243012,大龙街道,,520622,0856,520622003000,,,,,,,,,,2,100,1023,1464,4378,45439,,,
45440,7,109.005143,27.313678,麻音塘街道,,520622,0856,520622004000,,,,,,,,,,2,100,1023,1464,4378,45440,,,
45441,7,108.853258,27.19076,新店镇,,520622,0856,520622100000,,,,,,,,,,2,100,1023,1464,4378,45441,,,
45442,7,108.94477,27.350661,朱家场镇,,520622,0856,520622102000,,,,,,,,,,2,100,1023,1464,4378,45442,,,
45443,7,109.11878,27.438072,田坪镇,,520622,0856,520622103000,,,,,,,,,,2,100,1023,1464,4378,45443,,,
45444,7,109.13942,27.50239,亚鱼乡,,520622,0856,520622200000,,,,,,,,,,2,100,1023,1464,4378,45444,,,
45445,7,108.232922,27.518056,汤山街道,,520623,0856,520623001000,,,,,,,,,,2,100,1023,1464,4379,45445,,,
45446,7,108.224248,27.51472,泉都街道,,520623,0856,520623002000,,,,,,,,,,2,100,1023,1464,4379,45446,,,
45447,7,108.202591,27.455159,中坝街道,,520623,0856,520623003000,,,,,,,,,,2,100,1023,1464,4379,45447,,,
45448,7,107.928225,27.540357,本庄镇,,520623,0856,520623101000,,,,,,,,,,2,100,1023,1464,4379,45448,,,
45449,7,108.033037,27.481992,白沙镇,,520623,0856,520623102000,,,,,,,,,,2,100,1023,1464,4379,45449,,,
45450,7,108.16143,27.607951,龙塘镇,,520623,0856,520623103000,,,,,,,,,,2,100,1023,1464,4379,45450,,,
45451,7,108.334638,27.528837,花桥镇,,520623,0856,520623104000,,,,,,,,,,2,100,1023,1464,4379,45451,,,
45452,7,108.374056,27.426903,五德镇,,520623,0856,520623105000,,,,,,,,,,2,100,1023,1464,4379,45452,,,
45453,7,107.824849,27.379623,河坝镇,,520623,0856,520623107000,,,,,,,,,,2,100,1023,1464,4379,45453,,,
45454,7,108.139493,27.467536,国荣乡,,520623,0856,520623201000,,,,,,,,,,2,100,1023,1464,4379,45454,,,
45455,7,107.971298,27.375486,聚凤仡佬族侗族乡,,520623,0856,520623202000,,,,,,,,,,2,100,1023,1464,4379,45455,,,
45456,7,108.144487,27.561849,龙井仡佬族侗族乡,,520623,0856,520623203000,,,,,,,,,,2,100,1023,1464,4379,45456,,,
45457,7,108.266552,27.619568,大沙坝仡佬族侗族乡,,520623,0856,520623204000,,,,,,,,,,2,100,1023,1464,4379,45457,,,
45458,7,108.309458,27.484284,枫香仡佬族侗族乡,,520623,0856,520623205000,,,,,,,,,,2,100,1023,1464,4379,45458,,,
45459,7,108.223612,27.513829,青阳苗族仡佬族侗族乡,,520623,0856,520623206000,,,,,,,,,,2,100,1023,1464,4379,45459,,,
45460,7,108.442673,27.566909,石固仡佬族侗族乡,,520623,0856,520623207000,,,,,,,,,,2,100,1023,1464,4379,45460,,,
45461,7,108.32087,27.643989,坪地场仡佬族侗族乡,,520623,0856,520623208000,,,,,,,,,,2,100,1023,1464,4379,45461,,,
45462,7,108.133711,27.414149,甘溪仡佬族侗族乡,,520623,0856,520623209000,,,,,,,,,,2,100,1023,1464,4379,45462,,,
45463,7,108.224963,27.386934,坪山仡佬族侗族乡,,520623,0856,520623210000,,,,,,,,,,2,100,1023,1464,4379,45463,,,
45464,7,108.253873,27.93756,思唐街道,,520624,0856,520624001000,,,,,,,,,,2,100,1023,1464,4380,45464,,,
45465,7,108.176522,27.74425,关中坝街道,,520624,0856,520624002000,,,,,,,,,,2,100,1023,1464,4380,45465,,,
45466,7,108.253873,27.93756,双塘街道,,520624,0856,520624003000,,,,,,,,,,2,100,1023,1464,4380,45466,,,
45467,7,108.186662,27.739318,塘头镇,,520624,0856,520624101000,,,,,,,,,,2,100,1023,1464,4380,45467,,,
45468,7,108.102581,27.878716,许家坝镇,,520624,0856,520624102000,,,,,,,,,,2,100,1023,1464,4380,45468,,,
45469,7,108.34331,27.736206,大坝场镇,,520624,0856,520624103000,,,,,,,,,,2,100,1023,1464,4380,45469,,,
45470,7,108.002965,27.672139,文家店镇,,520624,0856,520624104000,,,,,,,,,,2,100,1023,1464,4380,45470,,,
45471,7,108.18291,28.04937,鹦鹉溪镇,,520624,0856,520624105000,,,,,,,,,,2,100,1023,1464,4380,45471,,,
45472,7,108.012899,27.745398,合朋溪镇,,520624,0856,520624106000,,,,,,,,,,2,100,1023,1464,4380,45472,,,
45473,7,108.1109,27.984191,张家寨镇,,520624,0856,520624107000,,,,,,,,,,2,100,1023,1464,4380,45473,,,
45474,7,108.31056,27.875639,孙家坝镇,,520624,0856,520624108000,,,,,,,,,,2,100,1023,1464,4380,45474,,,
45475,7,107.962649,27.834868,青杠坡镇,,520624,0856,520624109000,,,,,,,,,,2,100,1023,1464,4380,45475,,,
45476,7,108.008548,27.624461,瓮溪镇,,520624,0856,520624110000,,,,,,,,,,2,100,1023,1464,4380,45476,,,
45477,7,108.32777,27.961235,凉水井镇,,520624,0856,520624111000,,,,,,,,,,2,100,1023,1464,4380,45477,,,
45478,7,108.254406,27.823704,邵家桥镇,,520624,0856,520624112000,,,,,,,,,,2,100,1023,1464,4380,45478,,,
45479,7,108.182833,27.877524,大河坝镇,,520624,0856,520624113000,,,,,,,,,,2,100,1023,1464,4380,45479,,,
45480,7,107.947539,27.963751,亭子坝镇,,520624,0856,520624114000,,,,,,,,,,2,100,1023,1464,4380,45480,,,
45481,7,108.029556,27.778776,香坝镇,,520624,0856,520624115000,,,,,,,,,,2,100,1023,1464,4380,45481,,,
45482,7,107.953813,27.707869,长坝镇,,520624,0856,520624116000,,,,,,,,,,2,100,1023,1464,4380,45482,,,
45483,7,108.1947,27.656386,板桥镇,,520624,0856,520624117000,,,,,,,,,,2,100,1023,1464,4380,45483,,,
45484,7,108.192087,27.806543,思林土家族苗族乡,,520624,0856,520624201000,,,,,,,,,,2,100,1023,1464,4380,45484,,,
45485,7,108.253873,27.93756,胡家湾苗族土家族乡,,520624,0856,520624203000,,,,,,,,,,2,100,1023,1464,4380,45485,,,
45486,7,108.253873,27.93756,宽坪苗族土家族乡,,520624,0856,520624204000,,,,,,,,,,2,100,1023,1464,4380,45486,,,
45487,7,108.253873,27.93756,枫芸土家族苗族乡,,520624,0856,520624206000,,,,,,,,,,2,100,1023,1464,4380,45487,,,
45488,7,108.253873,27.93756,三道水土家族苗族乡,,520624,0856,520624210000,,,,,,,,,,2,100,1023,1464,4380,45488,,,
45489,7,108.253873,27.93756,天桥土家族苗族乡,,520624,0856,520624211000,,,,,,,,,,2,100,1023,1464,4380,45489,,,
45490,7,108.28508,27.68494,兴隆土家族苗族乡,,520624,0856,520624212000,,,,,,,,,,2,100,1023,1464,4380,45490,,,
45491,7,107.958581,27.899255,杨家坳苗族土家族乡,,520624,0856,520624213000,,,,,,,,,,2,100,1023,1464,4380,45491,,,
45492,7,108.401795,28.000138,峨岭街道,,520625,0856,520625001000,,,,,,,,,,2,100,1023,1464,4381,45492,,,
45493,7,108.409752,27.994247,龙津街道,,520625,0856,520625002000,,,,,,,,,,2,100,1023,1464,4381,45493,,,
45494,7,108.339107,28.022584,中兴街道,,520625,0856,520625003000,,,,,,,,,,2,100,1023,1464,4381,45494,,,
45495,7,108.48408,28.08048,板溪镇,,520625,0856,520625101000,,,,,,,,,,2,100,1023,1464,4381,45495,,,
45496,7,108.48071,28.2192,沙子坡镇,,520625,0856,520625102000,,,,,,,,,,2,100,1023,1464,4381,45496,,,
45497,7,108.55793,28.145809,天堂镇,,520625,0856,520625103000,,,,,,,,,,2,100,1023,1464,4381,45497,,,
45498,7,108.69528,28.08477,木黄镇,,520625,0856,520625104000,,,,,,,,,,2,100,1023,1464,4381,45498,,,
45499,7,108.55371,28.046039,合水镇,,520625,0856,520625105000,,,,,,,,,,2,100,1023,1464,4381,45499,,,
45500,7,108.482204,28.007762,朗溪镇,,520625,0856,520625106000,,,,,,,,,,2,100,1023,1464,4381,45500,,,
45501,7,108.464569,27.85891,缠溪镇,,520625,0856,520625107000,,,,,,,,,,2,100,1023,1464,4381,45501,,,
45502,7,108.506105,27.637634,洋溪镇,,520625,0856,520625108000,,,,,,,,,,2,100,1023,1464,4381,45502,,,
45503,7,108.373395,27.90648,新寨镇,,520625,0856,520625109000,,,,,,,,,,2,100,1023,1464,4381,45503,,,
45504,7,108.41944,28.10989,杉树镇,,520625,0856,520625110000,,,,,,,,,,2,100,1023,1464,4381,45504,,,
45505,7,108.58647,28.23298,刀坝镇,,520625,0856,520625111000,,,,,,,,,,2,100,1023,1464,4381,45505,,,
45506,7,108.584153,27.973476,紫薇镇,,520625,0856,520625112000,,,,,,,,,,2,100,1023,1464,4381,45506,,,
45507,7,108.44128,27.677609,杨柳镇,,520625,0856,520625113000,,,,,,,,,,2,100,1023,1464,4381,45507,,,
45508,7,108.47207,27.918031,罗场乡,,520625,0856,520625206000,,,,,,,,,,2,100,1023,1464,4381,45508,,,
45509,7,108.119807,28.263964,青龙街道,,520626,0856,520626001000,,,,,,,,,,2,100,1023,1464,4382,45509,,,
45510,7,108.119807,28.263964,玉水街道,,520626,0856,520626002000,,,,,,,,,,2,100,1023,1464,4382,45510,,,
45511,7,108.119807,28.263964,煎茶镇,,520626,0856,520626101000,,,,,,,,,,2,100,1023,1464,4382,45511,,,
45512,7,108.23985,28.101119,潮砥镇,,520626,0856,520626102000,,,,,,,,,,2,100,1023,1464,4382,45512,,,
45513,7,108.327532,28.124873,枫香溪镇,,520626,0856,520626103000,,,,,,,,,,2,100,1023,1464,4382,45513,,,
45514,7,108.22124,28.309891,稳坪镇,,520626,0856,520626104000,,,,,,,,,,2,100,1023,1464,4382,45514,,,
45515,7,107.891613,28.089134,复兴镇,,520626,0856,520626105000,,,,,,,,,,2,100,1023,1464,4382,45515,,,
45516,7,108.067081,28.0978,合兴镇,,520626,0856,520626106000,,,,,,,,,,2,100,1023,1464,4382,45516,,,
45517,7,108.119807,28.263964,高山镇,,520626,0856,520626107000,,,,,,,,,,2,100,1023,1464,4382,45517,,,
45518,7,108.119807,28.263964,泉口镇,,520626,0856,520626108000,,,,,,,,,,2,100,1023,1464,4382,45518,,,
45519,7,108.276334,28.185372,长堡镇,,520626,0856,520626109000,,,,,,,,,,2,100,1023,1464,4382,45519,,,
45520,7,108.119807,28.263964,共和镇,,520626,0856,520626110000,,,,,,,,,,2,100,1023,1464,4382,45520,,,
45521,7,107.852814,28.15041,平原镇,,520626,0856,520626111000,,,,,,,,,,2,100,1023,1464,4382,45521,,,
45522,7,108.167771,28.351273,荆角土家族乡,,520626,0856,520626200000,,,,,,,,,,2,100,1023,1464,4382,45522,,,
45523,7,108.119807,28.263964,堰塘土家族乡,,520626,0856,520626201000,,,,,,,,,,2,100,1023,1464,4382,45523,,,
45524,7,108.04406,28.250231,龙泉土家族乡,,520626,0856,520626202000,,,,,,,,,,2,100,1023,1464,4382,45524,,,
45525,7,108.119807,28.263964,钱家土家族乡,,520626,0856,520626203000,,,,,,,,,,2,100,1023,1464,4382,45525,,,
45526,7,107.989979,28.315161,沙溪土家族乡,,520626,0856,520626204000,,,,,,,,,,2,100,1023,1464,4382,45526,,,
45527,7,107.88565,28.27245,楠杆土家族乡,,520626,0856,520626205000,,,,,,,,,,2,100,1023,1464,4382,45527,,,
