dataid,levelid,longitude,latitude,chinese_name,english_name,code1,code2,code3,code4,code5,alias1,alias2,alias3,alias4,alias5,area,population,continentid,countryid,provinceid,cityid,countyid,townid,villageid,buildingid,comments
574633,8,108.319961,22.813467,兴宁社区居委会,,450102,0771,450102001003,111,,,,,,,,,2,100,1019,1417,3972,37641,,,
574634,8,108.323846,22.816744,北宁社区居委会,,450102,0771,450102001004,111,,,,,,,,,2,100,1019,1417,3972,37641,,,
574635,8,108.315723,22.81589,高峰社区居委会,,450102,0771,450102001006,111,,,,,,,,,2,100,1019,1417,3972,37641,,,
574636,8,108.315254,22.81821,人民中社区居委会,,450102,0771,450102001007,111,,,,,,,,,2,100,1019,1417,3972,37641,,,
574637,8,108.327291,22.824572,人民东社区居委会,,450102,0771,450102001010,111,,,,,,,,,2,100,1019,1417,3972,37641,,,
574638,8,108.33578,22.829576,望仙坡社区居委会,,450102,0771,450102001012,111,,,,,,,,,2,100,1019,1417,3972,37641,,,
574639,8,108.338104,22.838207,金牛桥社区居委会,,450102,0771,450102001013,111,,,,,,,,,2,100,1019,1417,3972,37641,,,
574640,8,108.344812,22.83371,长堽西社区居委会,,450102,0771,450102001014,111,,,,,,,,,2,100,1019,1417,3972,37641,,,
574641,8,108.338104,22.838207,燕子岭社区居委会,,450102,0771,450102001015,111,,,,,,,,,2,100,1019,1417,3972,37641,,,
574642,8,108.355192,22.837199,长堽东社区居委会,,450102,0771,450102001016,111,,,,,,,,,2,100,1019,1417,3972,37641,,,
574643,8,108.334408,22.835975,望州南社区居委会,,450102,0771,450102001018,111,,,,,,,,,2,100,1019,1417,3972,37641,,,
574644,8,108.340142,22.845378,望州东社区居委会,,450102,0771,450102001019,111,,,,,,,,,2,100,1019,1417,3972,37641,,,
574645,8,108.342208,22.830102,官桥村委会,,450103,0771,450102001201,111,,,,,,,,,2,100,1019,1417,3972,37641,,,
574646,8,108.319056,22.824163,朝阳社区居委会,,450102,0771,450102002001,111,,,,,,,,,2,100,1019,1417,3972,37642,,,
574647,8,108.317336,22.820506,华东社区居委会,,450102,0771,450102002002,111,,,,,,,,,2,100,1019,1417,3972,37642,,,
574648,8,108.320457,22.826038,运德社区居委会,,450102,0771,450102002004,111,,,,,,,,,2,100,1019,1417,3972,37642,,,
574649,8,108.323723,22.829688,中华社区居委会,,450102,0771,450102002005,111,,,,,,,,,2,100,1019,1417,3972,37642,,,
574650,8,108.340118,22.84526,望州社区居委会,,450102,0771,450102002006,111,,,,,,,,,2,100,1019,1417,3972,37642,,,
574651,8,108.320158,22.822731,翠峰社区居委会,,450102,0771,450102002019,111,,,,,,,,,2,100,1019,1417,3972,37642,,,
574652,8,108.326442,22.826602,人民北一里社区居委会,,450102,0771,450102002023,111,,,,,,,,,2,100,1019,1417,3972,37642,,,
574653,8,108.321821,22.821955,人民北二里社区居委会,,450102,0771,450102002024,111,,,,,,,,,2,100,1019,1417,3972,37642,,,
574654,8,108.320158,22.822731,秀和社区居委会,,450102,0771,450102002025,111,,,,,,,,,2,100,1019,1417,3972,37642,,,
574655,8,108.330988,22.845178,虎邱村委会,,450102,0771,450102002201,111,,,,,,,,,2,100,1019,1417,3972,37642,,,
574656,8,108.344388,22.867002,澳华社区居委会,,450102,0771,450102003001,111,,,,,,,,,2,100,1019,1417,3972,37643,,,
574657,8,108.359621,22.854703,兴东社区居委会,,450102,0771,450102003002,111,,,,,,,,,2,100,1019,1417,3972,37643,,,
574658,8,108.357828,22.836973,将桥社区居委会,,450102,0771,450102003003,111,,,,,,,,,2,100,1019,1417,3972,37643,,,
574659,8,108.347503,22.850545,五村岭社区居委会,,450102,0771,450102003004,111,,,,,,,,,2,100,1019,1417,3972,37643,,,
574660,8,108.337524,22.872533,邕武东社区居委会,,450102,0771,450102003005,111,,,,,,,,,2,100,1019,1417,3972,37643,,,
574661,8,108.368871,22.854021,兴桂社区居委会,,450102,0771,450102003008,111,,,,,,,,,2,100,1019,1417,3972,37643,,,
574662,8,108.339917,22.874338,鸡村村委会,,450102,0771,450102003201,112,,,,,,,,,2,100,1019,1417,3972,37643,,,
574663,8,108.418471,22.877257,四塘社区居委会,,450102,0771,450102101001,112,,,,,,,,,2,100,1019,1417,3972,37644,,,
574664,8,108.418471,22.877257,四塘煤矿社区居委会,,450102,0771,450102101002,220,,,,,,,,,2,100,1019,1417,3972,37644,,,
574665,8,108.418471,22.877257,平垌煤矿社区居委会,,450102,0771,450102101003,220,,,,,,,,,2,100,1019,1417,3972,37644,,,
574666,8,108.418471,22.877257,里罗煤矿社区居委会,,450102,0771,450102101004,123,,,,,,,,,2,100,1019,1417,3972,37644,,,
574667,8,108.418027,22.877855,三塘社区居委会,,450102,0771,450102101005,111,,,,,,,,,2,100,1019,1417,3972,37644,,,
574668,8,108.418471,22.877257,热作社区居委会,,450102,0771,450102101006,111,,,,,,,,,2,100,1019,1417,3972,37644,,,
574669,8,108.418471,22.877257,香草苑社区居委会,,450102,0771,450102101007,111,,,,,,,,,2,100,1019,1417,3972,37644,,,
574670,8,108.418471,22.877257,金桥社区居委会,,450102,0771,450102101008,111,,,,,,,,,2,100,1019,1417,3972,37644,,,
574671,8,108.418471,22.877257,九曲湾社区,,450102,0771,450102101009,112,,,,,,,,,2,100,1019,1417,3972,37644,,,
574672,8,108.418471,22.877257,三塘村委会,,450102,0771,450102101201,112,,,,,,,,,2,100,1019,1417,3972,37644,,,
574673,8,108.418471,22.877257,那况村委会,,450102,0771,450102101202,112,,,,,,,,,2,100,1019,1417,3972,37644,,,
574674,8,108.418471,22.877257,围村村委会,,450102,0771,450102101203,220,,,,,,,,,2,100,1019,1417,3972,37644,,,
574675,8,108.418471,22.877257,大邓村委会,,450102,0771,450102101204,220,,,,,,,,,2,100,1019,1417,3972,37644,,,
574676,8,108.418471,22.877257,那陀村委会,,450102,0771,450102101205,220,,,,,,,,,2,100,1019,1417,3972,37644,,,
574677,8,108.418471,22.877257,福禄村委会,,450102,0771,450102101206,220,,,,,,,,,2,100,1019,1417,3972,37644,,,
574678,8,108.37454,22.919939,路东村委会,,450102,0771,450102101207,220,,,,,,,,,2,100,1019,1417,3972,37644,,,
574679,8,108.372968,22.861667,降桥村委会,,450102,0771,450102101208,112,,,,,,,,,2,100,1019,1417,3972,37644,,,
574680,8,108.418471,22.877257,那笔村委会,,450102,0771,450102101209,220,,,,,,,,,2,100,1019,1417,3972,37644,,,
574681,8,108.418471,22.877257,同仁村委会,,450102,0771,450102101210,220,,,,,,,,,2,100,1019,1417,3972,37644,,,
574682,8,108.418471,22.877257,建新村委会,,450102,0771,450102101211,220,,,,,,,,,2,100,1019,1417,3972,37644,,,
574683,8,108.418471,22.877257,六村村委会,,450102,0771,450102101212,220,,,,,,,,,2,100,1019,1417,3972,37644,,,
574684,8,108.47096,22.874802,创新村委会,,450102,0771,450102101213,220,,,,,,,,,2,100,1019,1417,3972,37644,,,
574685,8,108.548954,22.939549,五塘社区居委会,,450102,0771,450102102001,121,,,,,,,,,2,100,1019,1417,3972,37645,,,
574686,8,108.540658,22.934708,西龙村委会,,450102,0771,450102102201,122,,,,,,,,,2,100,1019,1417,3972,37645,,,
574687,8,108.548954,22.939549,英广村委会,,450102,0771,450102102202,220,,,,,,,,,2,100,1019,1417,3972,37645,,,
574688,8,108.548954,22.939549,坛棍村委会,,450102,0771,450102102203,220,,,,,,,,,2,100,1019,1417,3972,37645,,,
574689,8,108.548954,22.939549,友爱村委会,,450102,0771,450102102204,220,,,,,,,,,2,100,1019,1417,3972,37645,,,
574690,8,108.548954,22.939549,民政村委会,,450102,0771,450102102205,220,,,,,,,,,2,100,1019,1417,3972,37645,,,
574691,8,108.548954,22.939549,永宁村委会,,450102,0771,450102102206,220,,,,,,,,,2,100,1019,1417,3972,37645,,,
574692,8,108.548954,22.939549,四平村委会,,450102,0771,450102102207,220,,,,,,,,,2,100,1019,1417,3972,37645,,,
574693,8,108.548954,22.939549,沙平村委会,,450102,0771,450102102208,220,,,,,,,,,2,100,1019,1417,3972,37645,,,
574694,8,108.548954,22.939549,两山村委会,,450102,0771,450102102209,220,,,,,,,,,2,100,1019,1417,3972,37645,,,
574695,8,108.548954,22.939549,七塘村委会,,450102,0771,450102102210,220,,,,,,,,,2,100,1019,1417,3972,37645,,,
574696,8,108.548954,22.939549,王竹村委会,,450102,0771,450102102211,220,,,,,,,,,2,100,1019,1417,3972,37645,,,
574697,8,108.548954,22.939549,六塘村委会,,450102,0771,450102102212,220,,,,,,,,,2,100,1019,1417,3972,37645,,,
574698,8,108.548954,22.939549,四六村委会,,450102,0771,450102102213,220,,,,,,,,,2,100,1019,1417,3972,37645,,,
574699,8,108.686683,23.061171,九塘社区居委会,,450102,0771,450102104001,121,,,,,,,,,2,100,1019,1417,3972,37646,,,
574700,8,108.684705,23.075359,昆仑村委会,,450102,0771,450102104201,122,,,,,,,,,2,100,1019,1417,3972,37646,,,
574701,8,108.648114,23.06852,群星村委会,,450102,0771,450102104202,220,,,,,,,,,2,100,1019,1417,3972,37646,,,
574702,8,108.636155,23.079013,联光村委会,,450102,0771,450102104203,220,,,,,,,,,2,100,1019,1417,3972,37646,,,
574703,8,108.652674,23.043838,太昌村委会,,450102,0771,450102104204,220,,,,,,,,,2,100,1019,1417,3972,37646,,,
574704,8,108.675024,23.024174,八塘村委会,,450102,0771,450102104205,220,,,,,,,,,2,100,1019,1417,3972,37646,,,
574705,8,108.70349,23.03526,黄宣村委会,,450102,0771,450102104206,220,,,,,,,,,2,100,1019,1417,3972,37646,,,
574706,8,108.746039,23.008869,富兴村委会,,450102,0771,450102104207,220,,,,,,,,,2,100,1019,1417,3972,37646,,,
574707,8,108.710231,22.987134,平地村委会,,450102,0771,450102104208,220,,,,,,,,,2,100,1019,1417,3972,37646,,,
574708,8,108.353219,22.813971,新竹社区居委会,,450103,0771,450103001005,111,,,,,,,,,2,100,1019,1417,3973,37647,,,
574709,8,108.341104,22.816578,思贤社区居委会,,450103,0771,450103001006,111,,,,,,,,,2,100,1019,1417,3973,37647,,,
574710,8,108.336799,22.814613,民族大道中段社区居委会,,450103,0771,450103001007,111,,,,,,,,,2,100,1019,1417,3973,37647,,,
574711,8,108.346647,22.820583,东葛路社区居委会,,450103,0771,450103001009,111,,,,,,,,,2,100,1019,1417,3973,37647,,,
574712,8,108.325553,22.813619,民生东社区居委会,,450103,0771,450103001014,111,,,,,,,,,2,100,1019,1417,3973,37647,,,
574713,8,108.334083,22.818429,民族宫社区居委会,,450103,0771,450103001016,111,,,,,,,,,2,100,1019,1417,3973,37647,,,
574714,8,108.330584,22.809456,纬武社区居委会,,450103,0771,450103001018,111,,,,,,,,,2,100,1019,1417,3973,37647,,,
574715,8,108.335026,22.819792,民主路社区居委会,,450103,0771,450103001022,111,,,,,,,,,2,100,1019,1417,3973,37647,,,
574716,8,108.347804,22.826298,建园社区居委会,,450103,0771,450103001024,111,,,,,,,,,2,100,1019,1417,3973,37647,,,
574717,8,108.352119,22.814255,建政社区居委会,,450103,0771,450103001025,111,,,,,,,,,2,100,1019,1417,3973,37647,,,
574718,8,108.344185,22.808948,星湖社区居委会,,450103,0771,450103001026,111,,,,,,,,,2,100,1019,1417,3973,37647,,,
574719,8,108.352119,22.814255,葛麻村委会,,450103,0771,450103001201,111,,,,,,,,,2,100,1019,1417,3973,37647,,,
574720,8,108.352119,22.791452,新兴苑社区居委会,,450103,0771,450103002001,111,,,,,,,,,2,100,1019,1417,3973,37648,,,
574721,8,108.323839,22.806995,中山社区居委会,,450103,0771,450103002002,111,,,,,,,,,2,100,1019,1417,3973,37648,,,
574722,8,108.352393,22.79333,桃源南社区居委会,,450103,0771,450103002007,111,,,,,,,,,2,100,1019,1417,3973,37648,,,
574723,8,108.35012,22.786534,河堤社区居委会,,450103,0771,450103002009,111,,,,,,,,,2,100,1019,1417,3973,37648,,,
574724,8,108.345687,22.797752,津头社区居委会,,450103,0771,450103002010,111,,,,,,,,,2,100,1019,1417,3973,37648,,,
574725,8,108.324633,22.804817,桃源北社区居委会,,450103,0771,450103002015,111,,,,,,,,,2,100,1019,1417,3973,37648,,,
574726,8,108.32756,22.793421,河堤新街社区居委会,,450103,0771,450103002016,111,,,,,,,,,2,100,1019,1417,3973,37648,,,
574727,8,108.324986,22.809073,七星社区居委会,,450103,0771,450103002018,111,,,,,,,,,2,100,1019,1417,3973,37648,,,
574728,8,108.335705,22.774664,柳沙社区居委会,,450103,0771,450103002019,111,,,,,,,,,2,100,1019,1417,3973,37648,,,
574729,8,108.352393,22.79333,天桃商业社区居委会,,450103,0771,450103002020,111,,,,,,,,,2,100,1019,1417,3973,37648,,,
574730,8,108.3452,22.794795,津头村委会,,450103,0771,450103002201,111,,,,,,,,,2,100,1019,1417,3973,37648,,,
574731,8,108.352393,22.79333,新兴村委会,,450103,0771,450103002202,111,,,,,,,,,2,100,1019,1417,3973,37648,,,
574732,8,108.369212,22.833703,茅桥社区居委会,,450103,0771,450103003011,111,,,,,,,,,2,100,1019,1417,3973,37649,,,
574733,8,108.40416,22.867407,二塘社区居委会,,450103,0771,450103003015,111,,,,,,,,,2,100,1019,1417,3973,37649,,,
574734,8,108.347272,22.830247,长堽路社区居委会,,450103,0771,450103003016,111,,,,,,,,,2,100,1019,1417,3973,37649,,,
574735,8,108.352722,22.827228,广园社区居委会,,450103,0771,450103003017,111,,,,,,,,,2,100,1019,1417,3973,37649,,,
574736,8,108.354878,22.821334,金花茶社区居委会,,450103,0771,450103003018,111,,,,,,,,,2,100,1019,1417,3973,37649,,,
574737,8,108.36138,22.82378,方园社区居委会,,450103,0771,450103003019,111,,,,,,,,,2,100,1019,1417,3973,37649,,,
574738,8,108.363705,22.831486,长湖社区居委会,,450103,0771,450103003021,111,,,,,,,,,2,100,1019,1417,3973,37649,,,
574739,8,108.351746,22.829769,长堽村委会,,450103,0771,450103003201,111,,,,,,,,,2,100,1019,1417,3973,37649,,,
574740,8,108.37302,22.82459,嘉宾社区居委会,,450103,0771,450103004001,111,,,,,,,,,2,100,1019,1417,3973,37650,,,
574741,8,108.375267,22.821727,金湖社区居委会,,450103,0771,450103004002,111,,,,,,,,,2,100,1019,1417,3973,37650,,,
574742,8,108.402533,22.814054,凤岭北社区居委会,,450103,0771,450103004003,111,,,,,,,,,2,100,1019,1417,3973,37650,,,
574743,8,108.430778,22.843047,屯里社区居委会,,450103,0771,450103004008,112,,,,,,,,,2,100,1019,1417,3973,37650,,,
574744,8,108.38063,22.820429,凤翔社区居委会,,450103,0771,450103004009,111,,,,,,,,,2,100,1019,1417,3973,37650,,,
574745,8,108.419826,22.825744,百花岭社区居委会,,450103,0771,450103004010,111,,,,,,,,,2,100,1019,1417,3973,37650,,,
574746,8,108.392387,22.828877,丹凤社区居委会,,450103,0771,450103004011,111,,,,,,,,,2,100,1019,1417,3973,37650,,,
574747,8,108.37302,22.82459,枫林社区居委会,,450103,0771,450103004012,111,,,,,,,,,2,100,1019,1417,3973,37650,,,
574748,8,108.374725,22.821645,埌东村委会,,450103,0771,450103004201,111,,,,,,,,,2,100,1019,1417,3973,37650,,,
574749,8,108.37302,22.82459,那廖村委会,,450103,0771,450103004202,220,,,,,,,,,2,100,1019,1417,3973,37650,,,
574750,8,108.353132,22.810489,大板三社区居委会,,450103,0771,450103005002,111,,,,,,,,,2,100,1019,1417,3973,37651,,,
574751,8,108.338259,22.799238,南湖小区社区居委会,,450103,0771,450103005003,111,,,,,,,,,2,100,1019,1417,3973,37651,,,
574752,8,108.367241,22.803713,金浦社区居委会,,450103,0771,450103005004,111,,,,,,,,,2,100,1019,1417,3973,37651,,,
574753,8,108.362344,22.797701,埌西社区居委会,,450103,0771,450103005005,111,,,,,,,,,2,100,1019,1417,3973,37651,,,
574754,8,108.364135,22.80842,金洲社区居委会,,450103,0771,450103005006,111,,,,,,,,,2,100,1019,1417,3973,37651,,,
574755,8,108.338628,22.796419,凤岭南社区居委会,,450103,0771,450103005007,111,,,,,,,,,2,100,1019,1417,3973,37651,,,
574756,8,108.36635,22.7941,秀山社区居委会,,450103,0771,450103005008,111,,,,,,,,,2,100,1019,1417,3973,37651,,,
574757,8,108.397335,22.805364,桂雅社区居委会,,450103,0771,450103005009,111,,,,,,,,,2,100,1019,1417,3973,37651,,,
574758,8,108.338628,22.796419,铜鼓岭社区居委会,,450103,0771,450103005010,111,,,,,,,,,2,100,1019,1417,3973,37651,,,
574759,8,108.402562,22.809963,桂花社区居委会,,450103,0771,450103005011,111,,,,,,,,,2,100,1019,1417,3973,37651,,,
574760,8,108.42401,22.810239,青环社区居委会,,450103,0771,450103005012,111,,,,,,,,,2,100,1019,1417,3973,37651,,,
574761,8,108.368,22.80657,埌西村委会,,450103,0771,450103005203,111,,,,,,,,,2,100,1019,1417,3973,37651,,,
574762,8,108.351208,22.810522,麻村村委会,,450103,0771,450103005205,111,,,,,,,,,2,100,1019,1417,3973,37651,,,
574763,8,108.343229,22.804164,南湖村委会,,450103,0771,450103005206,111,,,,,,,,,2,100,1019,1417,3973,37651,,,
574764,8,108.643667,22.725924,新兴社区居委会,,450103,0771,450103100002,121,,,,,,,,,2,100,1019,1417,3973,37652,,,
574765,8,108.643667,22.725924,团黄村委会,,450103,0771,450103100201,220,,,,,,,,,2,100,1019,1417,3973,37652,,,
574766,8,108.643667,22.725924,谭村村委会,,450103,0771,450103100202,220,,,,,,,,,2,100,1019,1417,3973,37652,,,
574767,8,108.617901,22.734416,良合村委会,,450103,0771,450103100203,220,,,,,,,,,2,100,1019,1417,3973,37652,,,
574768,8,108.638689,22.694801,那床村委会,,450103,0771,450103100204,220,,,,,,,,,2,100,1019,1417,3973,37652,,,
574769,8,108.643667,22.725924,槐里村委会,,450103,0771,450103100205,220,,,,,,,,,2,100,1019,1417,3973,37652,,,
574770,8,108.643667,22.725924,麓阳村委会,,450103,0771,450103100206,220,,,,,,,,,2,100,1019,1417,3973,37652,,,
574771,8,108.643667,22.725924,那里村委会,,450103,0771,450103100207,220,,,,,,,,,2,100,1019,1417,3973,37652,,,
574772,8,108.643667,22.725924,禄强村委会,,450103,0771,450103100208,220,,,,,,,,,2,100,1019,1417,3973,37652,,,
574773,8,108.643667,22.725924,那烈村委会,,450103,0771,450103100209,220,,,,,,,,,2,100,1019,1417,3973,37652,,,
574774,8,108.643667,22.725924,那救村委会,,450103,0771,450103100210,220,,,,,,,,,2,100,1019,1417,3973,37652,,,
574775,8,108.643667,22.725924,大里村委会,,450103,0771,450103100211,220,,,,,,,,,2,100,1019,1417,3973,37652,,,
574776,8,108.643667,22.725924,那度村委会,,450103,0771,450103100212,220,,,,,,,,,2,100,1019,1417,3973,37652,,,
574777,8,108.643667,22.725924,三籁村委会,,450103,0771,450103100213,220,,,,,,,,,2,100,1019,1417,3973,37652,,,
574778,8,108.6439,22.725008,刘圩村委会,,450103,0771,450103100214,122,,,,,,,,,2,100,1019,1417,3973,37652,,,
574779,8,108.794746,22.76661,新黎社区居委会,,450103,0771,450103101002,121,,,,,,,,,2,100,1019,1417,3973,37653,,,
574780,8,108.794746,22.76661,新光村委会,,450103,0771,450103101201,122,,,,,,,,,2,100,1019,1417,3973,37653,,,
574781,8,108.794746,22.76661,留凤村委会,,450103,0771,450103101202,220,,,,,,,,,2,100,1019,1417,3973,37653,,,
574782,8,108.794746,22.76661,新楼村委会,,450103,0771,450103101203,220,,,,,,,,,2,100,1019,1417,3973,37653,,,
574783,8,108.794746,22.76661,雄会村委会,,450103,0771,450103101204,220,,,,,,,,,2,100,1019,1417,3973,37653,,,
574784,8,108.794746,22.76661,二田村委会,,450103,0771,450103101205,220,,,,,,,,,2,100,1019,1417,3973,37653,,,
574785,8,108.794746,22.76661,施厚村委会,,450103,0771,450103101206,220,,,,,,,,,2,100,1019,1417,3973,37653,,,
574786,8,108.795185,22.767467,南阳村委会,,450103,0771,450103101207,122,,,,,,,,,2,100,1019,1417,3973,37653,,,
574787,8,108.76501,22.853096,伶珑社区居委会,,450103,0771,450103102003,121,,,,,,,,,2,100,1019,1417,3973,37654,,,
574788,8,108.764251,22.852798,王京村委会,,450103,0771,450103102201,220,,,,,,,,,2,100,1019,1417,3973,37654,,,
574789,8,108.725579,22.845913,石塘村委会,,450103,0771,450103102202,220,,,,,,,,,2,100,1019,1417,3973,37654,,,
574790,8,108.764251,22.852798,上王村委会,,450103,0771,450103102203,220,,,,,,,,,2,100,1019,1417,3973,37654,,,
574791,8,108.764251,22.852798,沱江村委会,,450103,0771,450103102204,220,,,,,,,,,2,100,1019,1417,3973,37654,,,
574792,8,108.764251,22.852798,望齐村委会,,450103,0771,450103102205,220,,,,,,,,,2,100,1019,1417,3973,37654,,,
574793,8,108.764251,22.852798,那樟村委会,,450103,0771,450103102206,220,,,,,,,,,2,100,1019,1417,3973,37654,,,
574794,8,108.764251,22.852798,伶俐村委会,,450103,0771,450103102207,122,,,,,,,,,2,100,1019,1417,3973,37654,,,
574795,8,108.76617,22.839871,独岭村委会,,450103,0771,450103102208,122,,,,,,,,,2,100,1019,1417,3973,37654,,,
574796,8,108.654939,22.830447,军山社区居委会,,450103,0771,450103103003,121,,,,,,,,,2,100,1019,1417,3973,37655,,,
574797,8,108.651389,22.828318,天堂村委会,,450103,0771,450103103201,220,,,,,,,,,2,100,1019,1417,3973,37655,,,
574798,8,108.651389,22.828318,定西村委会,,450103,0771,450103103202,220,,,,,,,,,2,100,1019,1417,3973,37655,,,
574799,8,108.651389,22.828318,洞江村委会,,450103,0771,450103103203,220,,,,,,,,,2,100,1019,1417,3973,37655,,,
574800,8,108.651389,22.828318,枫木村委会,,450103,0771,450103103204,220,,,,,,,,,2,100,1019,1417,3973,37655,,,
574801,8,108.651389,22.828318,那曾村委会,,450103,0771,450103103205,220,,,,,,,,,2,100,1019,1417,3973,37655,,,
574802,8,108.651389,22.828318,长大村委会,,450103,0771,450103103206,220,,,,,,,,,2,100,1019,1417,3973,37655,,,
574803,8,108.651389,22.828318,长塘村委会,,450103,0771,450103103211,122,,,,,,,,,2,100,1019,1417,3973,37655,,,
574804,8,108.44864,22.810838,五合社区居委会,,450103,0771,450103400001,112,,,,,,,,,2,100,1019,1417,3973,37656,,,
574805,8,108.44864,22.810838,蓉茉社区居委会,,450103,0771,450103400002,111,,,,,,,,,2,100,1019,1417,3973,37656,,,
574806,8,108.447265,22.807767,那舅社区居委会,,450103,0771,450103400003,112,,,,,,,,,2,100,1019,1417,3973,37656,,,
574807,8,108.44864,22.810838,莫村社区居委会,,450103,0771,450103400004,112,,,,,,,,,2,100,1019,1417,3973,37656,,,
574808,8,108.44864,22.810838,金葫社区居委会,,450103,0771,450103400005,111,,,,,,,,,2,100,1019,1417,3973,37656,,,
574809,8,108.447265,22.807767,通福社区居委会,,450103,0771,450103400006,111,,,,,,,,,2,100,1019,1417,3973,37656,,,
574810,8,108.44864,22.810838,盘古社区居委会,,450103,0771,450103400007,111,,,,,,,,,2,100,1019,1417,3973,37656,,,
574811,8,108.44864,22.810838,德福村委会,,450103,0771,450103400201,220,,,,,,,,,2,100,1019,1417,3973,37656,,,
574812,8,108.365641,22.796502,青秀山虚拟社区,,450103,0771,450103451498,123,,,,,,,,,2,100,1019,1417,3973,37657,,,
574813,8,108.314626,22.796655,福建园社区居委会,,450105,0771,450105001001,111,,,,,,,,,2,100,1019,1417,3974,37658,,,
574814,8,108.313473,22.805565,江南路东社区居委会,,450105,0771,450105001002,111,,,,,,,,,2,100,1019,1417,3974,37658,,,
574815,8,108.312388,22.805433,江南路西社区居委会,,450105,0771,450105001003,111,,,,,,,,,2,100,1019,1417,3974,37658,,,
574816,8,108.314803,22.79642,淡村路东社区居委会,,450105,0771,450105001004,111,,,,,,,,,2,100,1019,1417,3974,37658,,,
574817,8,108.303848,22.796783,淡村路西社区居委会,,450105,0771,450105001005,111,,,,,,,,,2,100,1019,1417,3974,37658,,,
574818,8,108.31002,22.793251,五一东路社区居委会,,450105,0771,450105001006,111,,,,,,,,,2,100,1019,1417,3974,37658,,,
574819,8,108.319665,22.791903,尧头岭社区居委会,,450105,0771,450105001009,111,,,,,,,,,2,100,1019,1417,3974,37658,,,
574820,8,108.298423,22.79545,南建社区居委会,,450105,0771,450105001012,111,,,,,,,,,2,100,1019,1417,3974,37658,,,
574821,8,108.313956,22.786754,亭洪社区居委会,,450105,0771,450105001013,111,,,,,,,,,2,100,1019,1417,3974,37658,,,
574822,8,108.301503,22.778341,菠萝岭社区居委会,,450105,0771,450105001014,111,,,,,,,,,2,100,1019,1417,3974,37658,,,
574823,8,108.322391,22.789136,亭子社区居委会,,450105,0771,450105001015,111,,,,,,,,,2,100,1019,1417,3974,37658,,,
574824,8,108.3377,22.785431,荣和新城社区居委会,,450105,0771,450105001016,111,,,,,,,,,2,100,1019,1417,3974,37658,,,
574825,8,108.327886,22.782652,金沙湾社区居委会,,450105,0771,450105001017,111,,,,,,,,,2,100,1019,1417,3974,37658,,,
574826,8,108.3085,22.782668,石柱岭社区居委会,,450105,0771,450105001018,111,,,,,,,,,2,100,1019,1417,3974,37658,,,
574827,8,108.314803,22.79642,英华桥南社区,,450105,0771,450105001019,111,,,,,,,,,2,100,1019,1417,3974,37658,,,
574828,8,108.314803,22.79642,平西村委会,,450105,0771,450105001201,111,,,,,,,,,2,100,1019,1417,3974,37658,,,
574829,8,108.301001,22.798578,淡村村委会,,450105,0771,450105001202,111,,,,,,,,,2,100,1019,1417,3974,37658,,,
574830,8,108.314803,22.79642,亭子村委会,,450105,0771,450105001203,111,,,,,,,,,2,100,1019,1417,3974,37658,,,
574831,8,108.314803,22.79642,白沙村委会,,450105,0771,450105001204,112,,,,,,,,,2,100,1019,1417,3974,37658,,,
574832,8,108.290913,22.798,五一中路社区居委会,,450105,0771,450105002001,111,,,,,,,,,2,100,1019,1417,3974,37659,,,
574833,8,108.279108,22.805733,二桥南社区居委会,,450105,0771,450105002008,111,,,,,,,,,2,100,1019,1417,3974,37659,,,
574834,8,108.264394,22.806505,五一西路社区居委会,,450105,0771,450105002009,111,,,,,,,,,2,100,1019,1417,3974,37659,,,
574835,8,108.273308,22.778378,新锦社区居委会,,450105,0771,450105002013,111,,,,,,,,,2,100,1019,1417,3974,37659,,,
574836,8,108.269223,22.804243,二桥西社区居委会,,450105,0771,450105002016,111,,,,,,,,,2,100,1019,1417,3974,37659,,,
574837,8,108.254326,22.790084,富景社区居委会,,450105,0771,450105002018,111,,,,,,,,,2,100,1019,1417,3974,37659,,,
574838,8,108.277617,22.799986,凤凰社区,,450105,0771,450105002019,111,,,,,,,,,2,100,1019,1417,3974,37659,,,
574839,8,108.277617,22.799986,新屋村委会,,450105,0771,450105002203,111,,,,,,,,,2,100,1019,1417,3974,37659,,,
574840,8,108.277617,22.799986,东南村委会,,450105,0771,450105002204,111,,,,,,,,,2,100,1019,1417,3974,37659,,,
574841,8,108.267399,22.809156,富德村委会,,450105,0771,450105002205,111,,,,,,,,,2,100,1019,1417,3974,37659,,,
574842,8,108.247238,22.780873,清川西社区居委会,,450105,0771,450105003001,111,,,,,,,,,2,100,1019,1417,3974,37660,,,
574843,8,108.247238,22.780873,南站社区居委会,,450105,0771,450105003002,111,,,,,,,,,2,100,1019,1417,3974,37660,,,
574844,8,108.250667,22.805533,华南社区居委会,,450105,0771,450105003003,112,,,,,,,,,2,100,1019,1417,3974,37660,,,
574845,8,108.240471,22.787337,富康社区居委会,,450105,0771,450105003004,112,,,,,,,,,2,100,1019,1417,3974,37660,,,
574846,8,108.249526,22.781385,智和村委会,,450105,0771,450105003201,111,,,,,,,,,2,100,1019,1417,3974,37660,,,
574847,8,108.204712,22.805288,三津村委会,,450105,0771,450105003202,112,,,,,,,,,2,100,1019,1417,3974,37660,,,
574848,8,108.247238,22.780873,乐贤村委会,,450105,0771,450105003203,112,,,,,,,,,2,100,1019,1417,3974,37660,,,
574849,8,108.247238,22.780873,同乐村委会,,450105,0771,450105003204,111,,,,,,,,,2,100,1019,1417,3974,37660,,,
574850,8,108.247238,22.780873,杨村村委会,,450105,0771,450105003205,112,,,,,,,,,2,100,1019,1417,3974,37660,,,
574851,8,108.247238,22.780873,金鸡村委会,,450105,0771,450105003206,112,,,,,,,,,2,100,1019,1417,3974,37660,,,
574852,8,108.247238,22.780873,邕津村委会,,450105,0771,450105003209,112,,,,,,,,,2,100,1019,1417,3974,37660,,,
574853,8,108.247238,22.780873,仁义村委会,,450105,0771,450105003210,112,,,,,,,,,2,100,1019,1417,3974,37660,,,
574854,8,108.24948,22.814951,南乡村委会,,450105,0771,450105003211,112,,,,,,,,,2,100,1019,1417,3974,37660,,,
574855,8,108.284207,22.77406,槎路社区居委会,,450105,0771,450105004001,111,,,,,,,,,2,100,1019,1417,3974,37661,,,
574856,8,108.265198,22.762976,银凯社区居委会,,450105,0771,450105004003,111,,,,,,,,,2,100,1019,1417,3974,37661,,,
574857,8,108.282058,22.774768,金阳社区居委会,,450105,0771,450105004004,111,,,,,,,,,2,100,1019,1417,3974,37661,,,
574858,8,108.272155,22.769819,沛鸿社区居委会,,450105,0771,450105004005,111,,,,,,,,,2,100,1019,1417,3974,37661,,,
574859,8,108.292058,22.777784,沛贤社区居委会,,450105,0771,450105004006,111,,,,,,,,,2,100,1019,1417,3974,37661,,,
574860,8,108.287629,22.765711,友谊社区居委会,,450105,0771,450105004007,111,,,,,,,,,2,100,1019,1417,3974,37661,,,
574861,8,108.274506,22.759301,北部湾社区居委会,,450105,0771,450105004008,111,,,,,,,,,2,100,1019,1417,3974,37661,,,
574862,8,108.292058,22.777784,国凯社区居委会,,450105,0771,450105004009,111,,,,,,,,,2,100,1019,1417,3974,37661,,,
574863,8,108.270795,22.755192,洪锦社区居委会,,450105,0771,450105004010,111,,,,,,,,,2,100,1019,1417,3974,37661,,,
574864,8,108.292058,22.777784,洪胜社区居委会,,450105,0771,450105004011,111,,,,,,,,,2,100,1019,1417,3974,37661,,,
574865,8,108.290756,22.776516,平阳村委会,,450105,0771,450105004201,111,,,,,,,,,2,100,1019,1417,3974,37661,,,
574866,8,108.263152,22.755568,留村村委会,,450105,0771,450105004202,112,,,,,,,,,2,100,1019,1417,3974,37661,,,
574867,8,108.259785,22.764729,那历村委会,,450105,0771,450105004203,112,,,,,,,,,2,100,1019,1417,3974,37661,,,
574868,8,108.292058,22.777784,罗村村委会,,450105,0771,450105004204,220,,,,,,,,,2,100,1019,1417,3974,37661,,,
574869,8,108.268266,22.764387,那洪村委会,,450105,0771,450105004206,112,,,,,,,,,2,100,1019,1417,3974,37661,,,
574870,8,108.292058,22.777784,古思村委会,,450105,0771,450105004207,220,,,,,,,,,2,100,1019,1417,3974,37661,,,
574871,8,108.265205,22.731096,苏盆村委会,,450105,0771,450105004212,220,,,,,,,,,2,100,1019,1417,3974,37661,,,
574872,8,108.305598,22.766988,金凯社区居委会,,450105,0771,450105005001,111,,,,,,,,,2,100,1019,1417,3974,37662,,,
574873,8,108.305598,22.766988,群益园艺场社区居委会,,450105,0771,450105005002,220,,,,,,,,,2,100,1019,1417,3974,37662,,,
574874,8,108.317163,22.771948,凤江社区居委会,,450105,0771,450105005003,111,,,,,,,,,2,100,1019,1417,3974,37662,,,
574875,8,108.314491,22.771545,圭贝社区居委会,,450105,0771,450105005004,111,,,,,,,,,2,100,1019,1417,3974,37662,,,
574876,8,108.305598,22.766988,星凯社区居委会,,450105,0771,450105005005,111,,,,,,,,,2,100,1019,1417,3974,37662,,,
574877,8,108.305598,22.766988,洪凯社区居委会,,450105,0771,450105005006,111,,,,,,,,,2,100,1019,1417,3974,37662,,,
574878,8,108.294037,22.734371,高岭村委会,,450105,0771,450105005201,112,,,,,,,,,2,100,1019,1417,3974,37662,,,
574879,8,108.309577,22.752696,黄茅坪村委会,,450105,0771,450105005202,112,,,,,,,,,2,100,1019,1417,3974,37662,,,
574880,8,108.305598,22.766988,居仁村委会,,450105,0771,450105005203,220,,,,,,,,,2,100,1019,1417,3974,37662,,,
574881,8,108.305598,22.766988,新联村委会,,450105,0771,450105005204,220,,,,,,,,,2,100,1019,1417,3974,37662,,,
574882,8,108.29209,22.696847,华联村委会,,450105,0771,450105005205,220,,,,,,,,,2,100,1019,1417,3974,37662,,,
574883,8,108.224283,22.64638,吴圩社区居委会,,450105,0771,450105102001,121,,,,,,,,,2,100,1019,1417,3974,37663,,,
574884,8,108.224283,22.64638,明阳社区居委会,,450105,0771,450105102002,122,,,,,,,,,2,100,1019,1417,3974,37663,,,
574885,8,108.224283,22.64638,明弘社区,,450105,0771,450105102003,220,,,,,,,,,2,100,1019,1417,3974,37663,,,
574886,8,108.224283,22.64638,平垌村委会,,450105,0771,450105102202,122,,,,,,,,,2,100,1019,1417,3974,37663,,,
574887,8,108.224283,22.64638,平丹村委会,,450105,0771,450105102203,220,,,,,,,,,2,100,1019,1417,3974,37663,,,
574888,8,108.224283,22.64638,那德村委会,,450105,0771,450105102204,220,,,,,,,,,2,100,1019,1417,3974,37663,,,
574889,8,108.224283,22.64638,定宁村委会,,450105,0771,450105102205,220,,,,,,,,,2,100,1019,1417,3974,37663,,,
574890,8,108.17343,22.64142,康宁村委会,,450105,0771,450105102206,220,,,,,,,,,2,100,1019,1417,3974,37663,,,
574891,8,108.157809,22.60414,祥宁村委会,,450105,0771,450105102207,220,,,,,,,,,2,100,1019,1417,3974,37663,,,
574892,8,108.224283,22.64638,永红村委会,,450105,0771,450105102208,220,,,,,,,,,2,100,1019,1417,3974,37663,,,
574893,8,108.224283,22.64638,坛白村委会,,450105,0771,450105102209,220,,,,,,,,,2,100,1019,1417,3974,37663,,,
574894,8,108.224283,22.64638,那备村委会,,450105,0771,450105102210,220,,,,,,,,,2,100,1019,1417,3974,37663,,,
574895,8,108.224283,22.64638,新桥村委会,,450105,0771,450105102211,220,,,,,,,,,2,100,1019,1417,3974,37663,,,
574896,8,108.10041,22.549196,苏圩社区居委会,,450105,0771,450105103001,121,,,,,,,,,2,100,1019,1417,3974,37664,,,
574897,8,108.100099,22.544759,苏保村委会,,450105,0771,450105103201,122,,,,,,,,,2,100,1019,1417,3974,37664,,,
574898,8,108.100099,22.544759,保安村委会,,450105,0771,450105103202,220,,,,,,,,,2,100,1019,1417,3974,37664,,,
574899,8,108.100099,22.544759,佳棉村委会,,450105,0771,450105103203,220,,,,,,,,,2,100,1019,1417,3974,37664,,,
574900,8,108.100099,22.544759,定计村委会,,450105,0771,450105103204,220,,,,,,,,,2,100,1019,1417,3974,37664,,,
574901,8,108.159657,22.559271,那海村委会,,450105,0771,450105103205,220,,,,,,,,,2,100,1019,1417,3974,37664,,,
574902,8,108.100099,22.544759,镇宁村委会,,450105,0771,450105103206,220,,,,,,,,,2,100,1019,1417,3974,37664,,,
574903,8,108.100099,22.544759,保卫村委会,,450105,0771,450105103207,220,,,,,,,,,2,100,1019,1417,3974,37664,,,
574904,8,108.100099,22.544759,保城村委会,,450105,0771,450105103208,220,,,,,,,,,2,100,1019,1417,3974,37664,,,
574905,8,108.100099,22.544759,保联村委会,,450105,0771,450105103209,220,,,,,,,,,2,100,1019,1417,3974,37664,,,
574906,8,108.100099,22.544759,慕村村委会,,450105,0771,450105103210,220,,,,,,,,,2,100,1019,1417,3974,37664,,,
574907,8,108.100099,22.544759,仁德村委会,,450105,0771,450105103211,220,,,,,,,,,2,100,1019,1417,3974,37664,,,
574908,8,108.100099,22.544759,新德村委会,,450105,0771,450105103212,220,,,,,,,,,2,100,1019,1417,3974,37664,,,
574909,8,108.090804,22.524381,联英村委会,,450105,0771,450105103213,220,,,,,,,,,2,100,1019,1417,3974,37664,,,
574910,8,108.100099,22.544759,隆德村委会,,450105,0771,450105103214,220,,,,,,,,,2,100,1019,1417,3974,37664,,,
574911,8,108.100099,22.544759,敬团村委会,,450105,0771,450105103215,220,,,,,,,,,2,100,1019,1417,3974,37664,,,
574912,8,108.116441,22.443773,延安社区居委会,,450105,0771,450105104001,121,,,,,,,,,2,100,1019,1417,3974,37665,,,
574913,8,108.116441,22.443773,新城村委会,,450105,0771,450105104201,122,,,,,,,,,2,100,1019,1417,3974,37665,,,
574914,8,108.116441,22.443773,那齐村委会,,450105,0771,450105104202,220,,,,,,,,,2,100,1019,1417,3974,37665,,,
574915,8,108.116441,22.443773,敬德村委会,,450105,0771,450105104203,220,,,,,,,,,2,100,1019,1417,3974,37665,,,
574916,8,108.116441,22.443773,平南村委会,,450105,0771,450105104204,220,,,,,,,,,2,100,1019,1417,3974,37665,,,
574917,8,108.116441,22.443773,华南村委会,,450105,0771,450105104205,220,,,,,,,,,2,100,1019,1417,3974,37665,,,
574918,8,108.099375,22.774535,江西社区居委会,,450105,0771,450105105001,121,,,,,,,,,2,100,1019,1417,3974,37666,,,
574919,8,108.099375,22.774535,锦江村委会,,450105,0771,450105105201,122,,,,,,,,,2,100,1019,1417,3974,37666,,,
574920,8,108.099375,22.774535,同新村委会,,450105,0771,450105105202,220,,,,,,,,,2,100,1019,1417,3974,37666,,,
574921,8,108.099375,22.774535,同华村委会,,450105,0771,450105105203,220,,,,,,,,,2,100,1019,1417,3974,37666,,,
574922,8,108.099375,22.774535,同宁村委会,,450105,0771,450105105204,220,,,,,,,,,2,100,1019,1417,3974,37666,,,
574923,8,108.099375,22.774535,同良村委会,,450105,0771,450105105205,220,,,,,,,,,2,100,1019,1417,3974,37666,,,
574924,8,108.099375,22.774535,安平村委会,,450105,0771,450105105206,121,,,,,,,,,2,100,1019,1417,3974,37666,,,
574925,8,108.099375,22.774535,智信村委会,,450105,0771,450105105207,220,,,,,,,,,2,100,1019,1417,3974,37666,,,
574926,8,108.099375,22.774535,扬美村委会,,450105,0771,450105105208,220,,,,,,,,,2,100,1019,1417,3974,37666,,,
574927,8,108.099375,22.774535,那廊村委会,,450105,0771,450105105209,220,,,,,,,,,2,100,1019,1417,3974,37666,,,
574928,8,108.099375,22.774535,同江村委会,,450105,0771,450105105210,220,,,,,,,,,2,100,1019,1417,3974,37666,,,
574929,8,108.254322,22.770938,经济技术开发区虚拟社区,,450105,0771,450105450498,123,,,,,,,,,2,100,1019,1417,3974,37667,,,
574930,8,108.223372,22.552022,明阳工业园区虚拟社区,,450105,0771,450105451498,123,,,,,,,,,2,100,1019,1417,3974,37668,,,
574931,8,108.301792,22.849172,中华中社区居委会,,450107,0771,450107001001,111,,,,,,,,,2,100,1019,1417,3975,37669,,,
574932,8,108.30289,22.832103,南铁北三区社区居委会,,450107,0771,450107001003,111,,,,,,,,,2,100,1019,1417,3975,37669,,,
574933,8,108.301792,22.849172,南铁北二区社区居委会,,450107,0771,450107001004,111,,,,,,,,,2,100,1019,1417,3975,37669,,,
574934,8,108.306427,22.827578,南铁北四区社区居委会,,450107,0771,450107001005,111,,,,,,,,,2,100,1019,1417,3975,37669,,,
574935,8,108.314334,22.830726,南铁北一区社区居委会,,450107,0771,450107001006,111,,,,,,,,,2,100,1019,1417,3975,37669,,,
574936,8,108.303508,22.850551,友爱北社区居委会,,450107,0771,450107001007,111,,,,,,,,,2,100,1019,1417,3975,37669,,,
574937,8,108.306955,22.843721,友爱中社区居委会,,450107,0771,450107001008,111,,,,,,,,,2,100,1019,1417,3975,37669,,,
574938,8,108.306853,22.841683,秀灵南社区居委会,,450107,0771,450107001009,111,,,,,,,,,2,100,1019,1417,3975,37669,,,
574939,8,108.301792,22.849172,衡阳南社区居委会,,450107,0771,450107001012,111,,,,,,,,,2,100,1019,1417,3975,37669,,,
574940,8,108.311326,22.835616,衡阳北社区居委会,,450107,0771,450107001013,111,,,,,,,,,2,100,1019,1417,3975,37669,,,
574941,8,108.301888,22.83377,沈阳路社区居委会,,450107,0771,450107001014,111,,,,,,,,,2,100,1019,1417,3975,37669,,,
574942,8,108.309293,22.839292,友爱村委会,,450107,0771,450107001201,111,,,,,,,,,2,100,1019,1417,3975,37669,,,
574943,8,108.305108,22.84538,秀厢村委会,,450107,0771,450107001202,111,,,,,,,,,2,100,1019,1417,3975,37669,,,
574944,8,108.319526,22.848002,秀湖社区居委会,,450107,0771,450107002003,111,,,,,,,,,2,100,1019,1417,3975,37670,,,
574945,8,108.32946,22.843877,明秀社区居委会,,450107,0771,450107002004,111,,,,,,,,,2,100,1019,1417,3975,37670,,,
574946,8,108.328648,22.836822,北湖南路社区居委会,,450107,0771,450107002005,111,,,,,,,,,2,100,1019,1417,3975,37670,,,
574947,8,108.323425,22.849302,北湖中社区居委会,,450107,0771,450107002006,111,,,,,,,,,2,100,1019,1417,3975,37670,,,
574948,8,108.31448,22.85768,秀厢路社区居委会,,450107,0771,450107002007,111,,,,,,,,,2,100,1019,1417,3975,37670,,,
574949,8,108.31448,22.85768,北湖东社区居委会,,450107,0771,450107002008,111,,,,,,,,,2,100,1019,1417,3975,37670,,,
574950,8,108.31448,22.85768,明秀东社区居委会,,450107,0771,450107002009,111,,,,,,,,,2,100,1019,1417,3975,37670,,,
574951,8,108.327348,22.841872,衡阳东路社区居委会,,450107,0771,450107002010,111,,,,,,,,,2,100,1019,1417,3975,37670,,,
574952,8,108.3235,22.832568,唐山路社区居委会,,450107,0771,450107002011,111,,,,,,,,,2,100,1019,1417,3975,37670,,,
574953,8,108.31448,22.85768,友爱南社区居委会,,450107,0771,450107002012,111,,,,,,,,,2,100,1019,1417,3975,37670,,,
574954,8,108.321304,22.843555,明湖社区居委会,,450107,0771,450107002014,111,,,,,,,,,2,100,1019,1417,3975,37670,,,
574955,8,108.318332,22.838203,明秀南社区居委会,,450107,0771,450107002015,111,,,,,,,,,2,100,1019,1417,3975,37670,,,
574956,8,108.314483,22.84233,明秀北社区居委会,,450107,0771,450107002017,111,,,,,,,,,2,100,1019,1417,3975,37670,,,
574957,8,108.312861,22.8482,万秀村委会,,450107,0771,450107002201,111,,,,,,,,,2,100,1019,1417,3975,37670,,,
574958,8,108.305962,22.851618,秀灵村委会,,450107,0771,450107002202,111,,,,,,,,,2,100,1019,1417,3975,37670,,,
574959,8,108.294209,22.831842,北大北路社区居委会,,450107,0771,450107003001,111,,,,,,,,,2,100,1019,1417,3975,37671,,,
574960,8,108.294145,22.829226,五里亭社区居委会,,450107,0771,450107003003,111,,,,,,,,,2,100,1019,1417,3975,37671,,,
574961,8,108.294209,22.831842,火炬路社区居委会,,450107,0771,450107003004,111,,,,,,,,,2,100,1019,1417,3975,37671,,,
574962,8,108.288311,22.84499,秀灵北社区居委会,,450107,0771,450107003005,111,,,,,,,,,2,100,1019,1417,3975,37671,,,
574963,8,108.276557,22.839554,位子渌社区居委会,,450107,0771,450107003006,111,,,,,,,,,2,100,1019,1417,3975,37671,,,
574964,8,108.285255,22.833029,大学东路社区居委会,,450107,0771,450107003007,111,,,,,,,,,2,100,1019,1417,3975,37671,,,
574965,8,108.268703,22.84003,瑞士花园社区居委会,,450107,0771,450107003009,111,,,,,,,,,2,100,1019,1417,3975,37671,,,
574966,8,108.247801,22.84453,大学西路社区居委会,,450107,0771,450107003010,111,,,,,,,,,2,100,1019,1417,3975,37671,,,
574967,8,108.265884,22.841449,科园大道社区居委会,,450107,0771,450107003011,111,,,,,,,,,2,100,1019,1417,3975,37671,,,
574968,8,108.294209,22.831842,西乡塘社区居委会,,450107,0771,450107003012,111,,,,,,,,,2,100,1019,1417,3975,37671,,,
574969,8,108.294209,22.831842,广西大学社区居委会,,450107,0771,450107003013,111,,,,,,,,,2,100,1019,1417,3975,37671,,,
574970,8,108.297802,22.827385,平新村委会,,450107,0771,450107003201,111,,,,,,,,,2,100,1019,1417,3975,37671,,,
574971,8,108.298156,22.859669,安吉路社区居委会,,450107,0771,450107004001,111,,,,,,,,,2,100,1019,1417,3975,37672,,,
574972,8,108.307073,22.862091,秀安路社区居委会,,450107,0771,450107004003,111,,,,,,,,,2,100,1019,1417,3975,37672,,,
574973,8,108.31591,22.860146,北湖安居社区居委会,,450107,0771,450107004004,111,,,,,,,,,2,100,1019,1417,3975,37672,,,
574974,8,108.319342,22.860436,北湖北路社区居委会,,450107,0771,450107004005,111,,,,,,,,,2,100,1019,1417,3975,37672,,,
574975,8,108.308702,22.855895,吉秀社区居委会,,450107,0771,450107004006,111,,,,,,,,,2,100,1019,1417,3975,37672,,,
574976,8,108.309863,22.876586,桃花源社区居委会,,450107,0771,450107004007,111,,,,,,,,,2,100,1019,1417,3975,37672,,,
574977,8,108.296713,22.883025,安阳路社区居民委员会,,450107,0771,450107004008,111,,,,,,,,,2,100,1019,1417,3975,37672,,,
574978,8,108.302674,22.871291,苏卢村委会,,450107,0771,450107004201,112,,,,,,,,,2,100,1019,1417,3975,37672,,,
574979,8,108.293509,22.883224,大塘村委会,,450107,0771,450107004202,112,,,,,,,,,2,100,1019,1417,3975,37672,,,
574980,8,108.296713,22.883025,屯里村委会,,450107,0771,450107004203,112,,,,,,,,,2,100,1019,1417,3975,37672,,,
574981,8,108.287823,22.860541,屯渌村委会,,450107,0771,450107004204,112,,,,,,,,,2,100,1019,1417,3975,37672,,,
574982,8,108.308236,22.818064,华强社区居委会,,450107,0771,450107005001,111,,,,,,,,,2,100,1019,1417,3975,37673,,,
574983,8,108.313011,22.819189,永宁社区居委会,,450107,0771,450107005003,111,,,,,,,,,2,100,1019,1417,3975,37673,,,
574984,8,108.313626,22.81524,大同社区居委会,,450107,0771,450107005004,111,,,,,,,,,2,100,1019,1417,3975,37673,,,
574985,8,108.312754,22.819167,龙胜社区居委会,,450107,0771,450107005005,111,,,,,,,,,2,100,1019,1417,3975,37673,,,
574986,8,108.294145,22.811924,北际社区居委会,,450107,0771,450107006001,111,,,,,,,,,2,100,1019,1417,3975,37674,,,
574987,8,108.294145,22.811924,边阳社区居委会,,450107,0771,450107006003,111,,,,,,,,,2,100,1019,1417,3975,37674,,,
574988,8,108.291399,22.823098,新秀社区居委会,,450107,0771,450107006004,111,,,,,,,,,2,100,1019,1417,3975,37674,,,
574989,8,108.294145,22.811924,中兴社区居委会,,450107,0771,450107006006,111,,,,,,,,,2,100,1019,1417,3975,37674,,,
574990,8,108.294982,22.819881,龙腾社区居委会,,450107,0771,450107006007,111,,,,,,,,,2,100,1019,1417,3975,37674,,,
574991,8,108.290328,22.809257,永和社区居委会,,450107,0771,450107006008,111,,,,,,,,,2,100,1019,1417,3975,37674,,,
574992,8,108.307494,22.81417,北大南社区居委会,,450107,0771,450107006009,111,,,,,,,,,2,100,1019,1417,3975,37674,,,
574993,8,108.287309,22.826618,万力社区居委会,,450107,0771,450107006010,111,,,,,,,,,2,100,1019,1417,3975,37674,,,
574994,8,108.297095,22.814097,新阳路社区居委会,,450107,0771,450107006014,111,,,,,,,,,2,100,1019,1417,3975,37674,,,
574995,8,108.291584,22.815053,中尧路社区居委会,,450107,0771,450107006015,111,,,,,,,,,2,100,1019,1417,3975,37674,,,
574996,8,108.292245,22.811589,永和村委会,,450107,0771,450107006201,111,,,,,,,,,2,100,1019,1417,3975,37674,,,
574997,8,108.295448,22.808517,雅里村委会,,450107,0771,450107006202,111,,,,,,,,,2,100,1019,1417,3975,37674,,,
574998,8,108.252234,22.839339,鲁班社区居委会,,450107,0771,450107007002,111,,,,,,,,,2,100,1019,1417,3975,37675,,,
574999,8,108.252234,22.839339,大学南社区居委会,,450107,0771,450107007003,111,,,,,,,,,2,100,1019,1417,3975,37675,,,
575000,8,108.234324,22.832249,相思湖社区居委会,,450107,0771,450107007004,111,,,,,,,,,2,100,1019,1417,3975,37675,,,
575001,8,108.279176,22.820847,南罐社区居委会,,450107,0771,450107007005,111,,,,,,,,,2,100,1019,1417,3975,37675,,,
575002,8,108.254819,22.832279,陈西村委会,,450107,0771,450107007201,111,,,,,,,,,2,100,1019,1417,3975,37675,,,
575003,8,108.257175,22.831604,陈东村委会,,450107,0771,450107007202,111,,,,,,,,,2,100,1019,1417,3975,37675,,,
575004,8,108.276153,22.822367,上尧村委会,,450107,0771,450107007203,111,,,,,,,,,2,100,1019,1417,3975,37675,,,
575005,8,108.309332,22.878573,林科院社区居委会,,450107,0771,450107008001,123,,,,,,,,,2,100,1019,1417,3975,37676,,,
575006,8,108.309332,22.878573,恒安社区居委会,,450107,0771,450107008002,111,,,,,,,,,2,100,1019,1417,3975,37676,,,
575007,8,108.325383,22.859366,北湖村委会,,450107,0771,450107008201,112,,,,,,,,,2,100,1019,1417,3975,37676,,,
575008,8,108.304659,22.891556,西津村委会,,450107,0771,450107008202,112,,,,,,,,,2,100,1019,1417,3975,37676,,,
575009,8,108.27211,22.83907,永宁村委会,,450107,0771,450107008203,112,,,,,,,,,2,100,1019,1417,3975,37676,,,
575010,8,108.319277,22.880455,连畴村委会,,450107,0771,450107008204,111,,,,,,,,,2,100,1019,1417,3975,37676,,,
575011,8,108.3242,22.856259,皂角村委会,,450107,0771,450107008205,112,,,,,,,,,2,100,1019,1417,3975,37676,,,
575012,8,108.309332,22.878573,路西村委会,,450107,0771,450107008206,220,,,,,,,,,2,100,1019,1417,3975,37676,,,
575013,8,108.187207,22.819582,罗文社区居委会,,450107,0771,450107009001,112,,,,,,,,,2,100,1019,1417,3975,37677,,,
575014,8,108.187207,22.819582,石埠社区居委会,,450107,0771,450107009002,112,,,,,,,,,2,100,1019,1417,3975,37677,,,
575015,8,108.193637,22.823044,石埠村委会,,450107,0771,450107009201,111,,,,,,,,,2,100,1019,1417,3975,37677,,,
575016,8,108.224501,22.82806,西明村委会,,450107,0771,450107009202,112,,,,,,,,,2,100,1019,1417,3975,37677,,,
575017,8,108.187207,22.819582,石西村委会,,450107,0771,450107009203,220,,,,,,,,,2,100,1019,1417,3975,37677,,,
575018,8,108.197654,22.798792,上灵村委会,,450107,0771,450107009204,220,,,,,,,,,2,100,1019,1417,3975,37677,,,
575019,8,108.187207,22.819582,和安村委会,,450107,0771,450107009205,220,,,,,,,,,2,100,1019,1417,3975,37677,,,
575020,8,108.187207,22.819582,永安村委会,,450107,0771,450107009206,220,,,,,,,,,2,100,1019,1417,3975,37677,,,
575021,8,108.187207,22.819582,乐洲村委会,,450107,0771,450107009207,220,,,,,,,,,2,100,1019,1417,3975,37677,,,
575022,8,108.192453,22.806304,下灵村委会,,450107,0771,450107009208,220,,,,,,,,,2,100,1019,1417,3975,37677,,,
575023,8,108.161192,22.769309,忠良村委会,,450107,0771,450107009209,220,,,,,,,,,2,100,1019,1417,3975,37677,,,
575024,8,108.187207,22.819582,老口村委会,,450107,0771,450107009210,220,,,,,,,,,2,100,1019,1417,3975,37677,,,
575025,8,108.210299,22.843529,罗文村委会,,450107,0771,450107009212,220,,,,,,,,,2,100,1019,1417,3975,37677,,,
575026,8,108.267152,22.844713,高新工业园社区居委会,,450107,0771,450107010001,111,,,,,,,,,2,100,1019,1417,3975,37678,,,
575027,8,108.268465,22.863615,创新社区居委会,,450107,0771,450107010002,111,,,,,,,,,2,100,1019,1417,3975,37678,,,
575028,8,108.282637,22.840559,心圩江东社区居委会,,450107,0771,450107010003,111,,,,,,,,,2,100,1019,1417,3975,37678,,,
575029,8,108.264849,22.868014,梧桐苑社区居委会,,450107,0771,450107010004,111,,,,,,,,,2,100,1019,1417,3975,37678,,,
575030,8,108.264849,22.868014,相贤社区委员会,,450107,0771,450107010005,111,,,,,,,,,2,100,1019,1417,3975,37678,,,
575031,8,108.264849,22.868014,红豆社区委员会,,450107,0771,450107010006,111,,,,,,,,,2,100,1019,1417,3975,37678,,,
575032,8,108.257953,22.865083,心圩村委会,,450107,0771,450107010201,112,,,,,,,,,2,100,1019,1417,3975,37678,,,
575033,8,108.264849,22.868014,和德村委会,,450107,0771,450107010202,111,,,,,,,,,2,100,1019,1417,3975,37678,,,
575034,8,108.268479,22.866591,罗赖村委会,,450107,0771,450107010203,112,,,,,,,,,2,100,1019,1417,3975,37678,,,
575035,8,108.228343,22.850879,四联村委会,,450107,0771,450107010204,122,,,,,,,,,2,100,1019,1417,3975,37678,,,
575036,8,108.264849,22.868014,大岭村委会,,450107,0771,450107010205,112,,,,,,,,,2,100,1019,1417,3975,37678,,,
575037,8,108.264849,22.868014,振兴村委会,,450107,0771,450107010206,112,,,,,,,,,2,100,1019,1417,3975,37678,,,
575038,8,108.257614,22.871174,明华村委会,,450107,0771,450107010207,112,,,,,,,,,2,100,1019,1417,3975,37678,,,
575039,8,108.264849,22.868014,新村村委会,,450107,0771,450107010208,122,,,,,,,,,2,100,1019,1417,3975,37678,,,
575040,8,108.049283,22.919592,金城社区居委会,,450107,0771,450107100004,121,,,,,,,,,2,100,1019,1417,3975,37679,,,
575041,8,108.049283,22.919592,那龙社区居委会,,450107,0771,450107100005,220,,,,,,,,,2,100,1019,1417,3975,37679,,,
575042,8,108.049283,22.919592,金陵村委会,,450107,0771,450107100201,121,,,,,,,,,2,100,1019,1417,3975,37679,,,
575043,8,108.049283,22.919592,陆平村委会,,450107,0771,450107100202,220,,,,,,,,,2,100,1019,1417,3975,37679,,,
575044,8,108.103165,22.905611,三联村委会,,450107,0771,450107100203,220,,,,,,,,,2,100,1019,1417,3975,37679,,,
575045,8,108.049283,22.919592,东南村委会,,450107,0771,450107100204,220,,,,,,,,,2,100,1019,1417,3975,37679,,,
575046,8,108.049283,22.919592,南岸村委会,,450107,0771,450107100205,220,,,,,,,,,2,100,1019,1417,3975,37679,,,
575047,8,108.049283,22.919592,龙达村委会,,450107,0771,450107100206,220,,,,,,,,,2,100,1019,1417,3975,37679,,,
575048,8,108.049283,22.919592,双义村委会,,450107,0771,450107100207,220,,,,,,,,,2,100,1019,1417,3975,37679,,,
575049,8,108.049283,22.919592,刚德村委会,,450107,0771,450107100208,220,,,,,,,,,2,100,1019,1417,3975,37679,,,
575050,8,108.049283,22.919592,居联村委会,,450107,0771,450107100209,220,,,,,,,,,2,100,1019,1417,3975,37679,,,
575051,8,108.049283,22.919592,乐勇村委会,,450107,0771,450107100210,220,,,,,,,,,2,100,1019,1417,3975,37679,,,
575052,8,108.049283,22.919592,业仁村委会,,450107,0771,450107100211,220,,,,,,,,,2,100,1019,1417,3975,37679,,,
575053,8,108.049283,22.919592,邓圩村委会,,450107,0771,450107100212,220,,,,,,,,,2,100,1019,1417,3975,37679,,,
575054,8,108.049283,22.919592,广道村委会,,450107,0771,450107100213,220,,,,,,,,,2,100,1019,1417,3975,37679,,,
575055,8,108.049283,22.919592,兴贤村委会,,450107,0771,450107100214,220,,,,,,,,,2,100,1019,1417,3975,37679,,,
575056,8,108.114631,22.995451,兴平村委会,,450107,0771,450107101201,121,,,,,,,,,2,100,1019,1417,3975,37680,,,
575057,8,108.114631,22.995451,义平村委会,,450107,0771,450107101202,220,,,,,,,,,2,100,1019,1417,3975,37680,,,
575058,8,108.114631,22.995451,秀山村委会,,450107,0771,450107101203,220,,,,,,,,,2,100,1019,1417,3975,37680,,,
575059,8,108.143911,22.966056,英龙村委会,,450107,0771,450107101204,220,,,,,,,,,2,100,1019,1417,3975,37680,,,
575060,8,108.12125,22.94356,和强村委会,,450107,0771,450107101205,220,,,,,,,,,2,100,1019,1417,3975,37680,,,
575061,8,108.114631,22.995451,武陵村委会,,450107,0771,450107101206,220,,,,,,,,,2,100,1019,1417,3975,37680,,,
575062,8,107.979936,22.922069,金光社区,,450107,0771,450107105005,220,,,,,,,,,2,100,1019,1417,3975,37681,,,
575063,8,107.979936,22.922069,坛洛村委会,,450107,0771,450107105201,121,,,,,,,,,2,100,1019,1417,3975,37681,,,
575064,8,107.979936,22.922069,硃湖村委会,,450107,0771,450107105202,122,,,,,,,,,2,100,1019,1417,3975,37681,,,
575065,8,107.97303,22.919083,丰平村委会,,450107,0771,450107105203,122,,,,,,,,,2,100,1019,1417,3975,37681,,,
575066,8,108.005499,22.919279,东佳村委会,,450107,0771,450107105204,220,,,,,,,,,2,100,1019,1417,3975,37681,,,
575067,8,107.979936,22.922069,上中村委会,,450107,0771,450107105205,220,,,,,,,,,2,100,1019,1417,3975,37681,,,
575068,8,107.97394,22.955374,中北村委会,,450107,0771,450107105206,220,,,,,,,,,2,100,1019,1417,3975,37681,,,
575069,8,107.979936,22.922069,定顿村委会,,450107,0771,450107105207,220,,,,,,,,,2,100,1019,1417,3975,37681,,,
575070,8,107.979936,22.922069,群南村委会,,450107,0771,450107105208,220,,,,,,,,,2,100,1019,1417,3975,37681,,,
575071,8,107.979936,22.922069,庆林村委会,,450107,0771,450107105209,220,,,,,,,,,2,100,1019,1417,3975,37681,,,
575072,8,107.979936,22.922069,圩中村委会,,450107,0771,450107105210,220,,,,,,,,,2,100,1019,1417,3975,37681,,,
575073,8,108.00774,22.891448,武康村委会,,450107,0771,450107105211,220,,,,,,,,,2,100,1019,1417,3975,37681,,,
575074,8,107.979936,22.922069,那坛村委会,,450107,0771,450107105212,220,,,,,,,,,2,100,1019,1417,3975,37681,,,
575075,8,107.979936,22.922069,上正村委会,,450107,0771,450107105213,220,,,,,,,,,2,100,1019,1417,3975,37681,,,
575076,8,107.979936,22.922069,下楞村委会,,450107,0771,450107105214,220,,,,,,,,,2,100,1019,1417,3975,37681,,,
575077,8,108.04863,22.8515,马伦村委会,,450107,0771,450107105215,220,,,,,,,,,2,100,1019,1417,3975,37681,,,
575078,8,107.979936,22.922069,富庶村委会,,450107,0771,450107105216,220,,,,,,,,,2,100,1019,1417,3975,37681,,,
575079,8,107.83688,22.897226,三景村委会,,450107,0771,450107105217,220,,,,,,,,,2,100,1019,1417,3975,37681,,,
575080,8,107.979936,22.922069,同富村委会,,450107,0771,450107105218,220,,,,,,,,,2,100,1019,1417,3975,37681,,,
575081,8,107.979936,22.922069,合志村委会,,450107,0771,450107105219,220,,,,,,,,,2,100,1019,1417,3975,37681,,,
575082,8,107.979936,22.922069,坛塘村,,450107,0771,450107105220,220,,,,,,,,,2,100,1019,1417,3975,37681,,,
575083,8,108.001823,22.996892,那龙矿务局虚拟社区,,450107,0771,450107450498,123,,,,,,,,,2,100,1019,1417,3975,37682,,,
575084,8,108.21695,22.852857,高新技术开发区虚拟社区,,450107,0771,450107454498,123,,,,,,,,,2,100,1019,1417,3975,37683,,,
575085,8,108.315638,22.763548,前进社区居委会,,450108,0771,450108001001,111,,,,,,,,,2,100,1019,1417,3976,37684,,,
575086,8,108.333296,22.761148,银沙社区居委会,,450108,0771,450108001002,111,,,,,,,,,2,100,1019,1417,3976,37684,,,
575087,8,108.322814,22.740535,五象社区居委会,,450108,0771,450108001003,111,,,,,,,,,2,100,1019,1417,3976,37684,,,
575088,8,108.330452,22.758773,金象社区居委会,,450108,0771,450108001006,111,,,,,,,,,2,100,1019,1417,3976,37684,,,
575089,8,108.321437,22.753961,银海社区居委会,,450108,0771,450108001007,111,,,,,,,,,2,100,1019,1417,3976,37684,,,
575090,8,108.31973,22.7577,阳光社区居委会,,450108,0771,450108001008,111,,,,,,,,,2,100,1019,1417,3976,37684,,,
575091,8,108.321591,22.759536,志远社区居委会,,450108,0771,450108001009,111,,,,,,,,,2,100,1019,1417,3976,37684,,,
575092,8,108.335458,22.738667,玉泉社区居委会,,450108,0771,450108001010,111,,,,,,,,,2,100,1019,1417,3976,37684,,,
575093,8,108.31973,22.7577,锦绣社区居委会,,450108,0771,450108001011,111,,,,,,,,,2,100,1019,1417,3976,37684,,,
575094,8,108.32719,22.734845,景华社区居委会,,450108,0771,450108001012,111,,,,,,,,,2,100,1019,1417,3976,37684,,,
575095,8,108.343308,22.75429,五象岭北社区居委会,,450108,0771,450108001013,111,,,,,,,,,2,100,1019,1417,3976,37684,,,
575096,8,108.324822,22.762719,三叠石社区居委会,,450108,0771,450108001014,111,,,,,,,,,2,100,1019,1417,3976,37684,,,
575097,8,108.337115,22.727837,坡洋社区居委会,,450108,0771,450108002001,111,,,,,,,,,2,100,1019,1417,3976,37685,,,
575098,8,108.334758,22.723195,玉龙社区居委会,,450108,0771,450108002002,111,,,,,,,,,2,100,1019,1417,3976,37685,,,
575099,8,108.321558,22.758192,平乐村委会,,450108,0771,450108002201,112,,,,,,,,,2,100,1019,1417,3976,37685,,,
575100,8,108.386647,22.675333,那平村委会,,450108,0771,450108002202,112,,,,,,,,,2,100,1019,1417,3976,37685,,,
575101,8,108.339325,22.725109,玉洞村委会,,450108,0771,450108002203,112,,,,,,,,,2,100,1019,1417,3976,37685,,,
575102,8,108.416972,22.749297,良庆社区居委会,,450108,0771,450108100008,111,,,,,,,,,2,100,1019,1417,3976,37686,,,
575103,8,108.416972,22.749297,蟠龙社区居委会,,450108,0771,450108100009,111,,,,,,,,,2,100,1019,1417,3976,37686,,,
575104,8,108.416972,22.749297,五象湖社区居委会,,450108,0771,450108100010,111,,,,,,,,,2,100,1019,1417,3976,37686,,,
575105,8,108.416972,22.749297,那黄村委会,,450108,0771,450108100202,112,,,,,,,,,2,100,1019,1417,3976,37686,,,
575106,8,108.416972,22.749297,新村村委会,,450108,0771,450108100203,112,,,,,,,,,2,100,1019,1417,3976,37686,,,
575107,8,108.40549,22.72585,坛泽村委会,,450108,0771,450108100207,112,,,,,,,,,2,100,1019,1417,3976,37686,,,
575108,8,108.416972,22.749297,渌绕村委会,,450108,0771,450108100208,220,,,,,,,,,2,100,1019,1417,3976,37686,,,
575109,8,108.416972,22.749297,新团村委会,,450108,0771,450108100209,220,,,,,,,,,2,100,1019,1417,3976,37686,,,
575110,8,108.416972,22.749297,新兰村委会,,450108,0771,450108100210,220,,,,,,,,,2,100,1019,1417,3976,37686,,,
575111,8,108.389967,22.632151,那马社区居委会,,450108,0771,450108101001,121,,,,,,,,,2,100,1019,1417,3976,37687,,,
575112,8,108.387872,22.62713,共和村委会,,450108,0771,450108101201,220,,,,,,,,,2,100,1019,1417,3976,37687,,,
575113,8,108.387872,22.62713,那僚村委会,,450108,0771,450108101202,220,,,,,,,,,2,100,1019,1417,3976,37687,,,
575114,8,108.398983,22.578504,子伟村委会,,450108,0771,450108101203,220,,,,,,,,,2,100,1019,1417,3976,37687,,,
575115,8,108.387872,22.62713,冲陶村委会,,450108,0771,450108101204,220,,,,,,,,,2,100,1019,1417,3976,37687,,,
575116,8,108.387872,22.62713,坛良村委会,,450108,0771,450108101205,220,,,,,,,,,2,100,1019,1417,3976,37687,,,
575117,8,108.325462,22.590435,莲山村委会,,450108,0771,450108101206,220,,,,,,,,,2,100,1019,1417,3976,37687,,,
575118,8,108.387872,22.62713,一致村委会,,450108,0771,450108101207,220,,,,,,,,,2,100,1019,1417,3976,37687,,,
575119,8,108.279564,22.450291,那陈社区居委会,,450108,0771,450108102001,121,,,,,,,,,2,100,1019,1417,3976,37688,,,
575120,8,108.279564,22.450291,和平村委会,,450108,0771,450108102201,220,,,,,,,,,2,100,1019,1417,3976,37688,,,
575121,8,108.279564,22.450291,邕乐村委会,,450108,0771,450108102202,220,,,,,,,,,2,100,1019,1417,3976,37688,,,
575122,8,108.279564,22.450291,坛留村委会,,450108,0771,450108102203,220,,,,,,,,,2,100,1019,1417,3976,37688,,,
575123,8,108.279564,22.450291,维坝村委会,,450108,0771,450108102204,220,,,,,,,,,2,100,1019,1417,3976,37688,,,
575124,8,108.279564,22.450291,西宁村委会,,450108,0771,450108102205,220,,,,,,,,,2,100,1019,1417,3976,37688,,,
575125,8,108.279564,22.450291,七齐村委会,,450108,0771,450108102206,220,,,,,,,,,2,100,1019,1417,3976,37688,,,
575126,8,108.279564,22.450291,西盛村委会,,450108,0771,450108102207,220,,,,,,,,,2,100,1019,1417,3976,37688,,,
575127,8,108.279564,22.450291,五龙村委会,,450108,0771,450108102208,220,,,,,,,,,2,100,1019,1417,3976,37688,,,
575128,8,108.279564,22.450291,华群村委会,,450108,0771,450108102209,220,,,,,,,,,2,100,1019,1417,3976,37688,,,
575129,8,108.279564,22.450291,那坡村委会,,450108,0771,450108102210,220,,,,,,,,,2,100,1019,1417,3976,37688,,,
575130,8,108.279564,22.450291,那蒙村委会,,450108,0771,450108102211,220,,,,,,,,,2,100,1019,1417,3976,37688,,,
575131,8,108.279564,22.450291,文林村委会,,450108,0771,450108102212,220,,,,,,,,,2,100,1019,1417,3976,37688,,,
575132,8,108.279564,22.450291,六眼村委会,,450108,0771,450108102213,220,,,,,,,,,2,100,1019,1417,3976,37688,,,
575133,8,108.279564,22.450291,那徐村委会,,450108,0771,450108102214,220,,,,,,,,,2,100,1019,1417,3976,37688,,,
575134,8,108.279564,22.450291,濑岽村委会,,450108,0771,450108102215,220,,,,,,,,,2,100,1019,1417,3976,37688,,,
575135,8,108.383643,22.383007,大塘社区居委会,,450108,0771,450108103001,121,,,,,,,,,2,100,1019,1417,3976,37689,,,
575136,8,108.383643,22.383007,横州村委会,,450108,0771,450108103201,220,,,,,,,,,2,100,1019,1417,3976,37689,,,
575137,8,108.383643,22.383007,南州村委会,,450108,0771,450108103202,220,,,,,,,,,2,100,1019,1417,3976,37689,,,
575138,8,108.383643,22.383007,百乐村委会,,450108,0771,450108103203,220,,,,,,,,,2,100,1019,1417,3976,37689,,,
575139,8,108.383643,22.383007,乔板村委会,,450108,0771,450108103204,220,,,,,,,,,2,100,1019,1417,3976,37689,,,
575140,8,108.383643,22.383007,那梨村委会,,450108,0771,450108103205,220,,,,,,,,,2,100,1019,1417,3976,37689,,,
575141,8,108.383643,22.383007,那造村委会,,450108,0771,450108103206,220,,,,,,,,,2,100,1019,1417,3976,37689,,,
575142,8,108.383643,22.383007,那农村委会,,450108,0771,450108103207,220,,,,,,,,,2,100,1019,1417,3976,37689,,,
575143,8,108.383643,22.383007,团垌村委会,,450108,0771,450108103208,220,,,,,,,,,2,100,1019,1417,3976,37689,,,
575144,8,108.396115,22.410725,南荣村委会,,450108,0771,450108103209,220,,,,,,,,,2,100,1019,1417,3976,37689,,,
575145,8,108.383643,22.383007,那团村委会,,450108,0771,450108103210,220,,,,,,,,,2,100,1019,1417,3976,37689,,,
575146,8,108.383643,22.383007,太安村委会,,450108,0771,450108103211,220,,,,,,,,,2,100,1019,1417,3976,37689,,,
575147,8,108.383643,22.383007,那湾村委会,,450108,0771,450108103212,220,,,,,,,,,2,100,1019,1417,3976,37689,,,
575148,8,108.383643,22.383007,锦亮村委会,,450108,0771,450108103213,220,,,,,,,,,2,100,1019,1417,3976,37689,,,
575149,8,108.42008,22.303493,南晓社区居委会,,450108,0771,450108104001,121,,,,,,,,,2,100,1019,1417,3976,37690,,,
575150,8,108.418485,22.303799,晓元村委会,,450108,0771,450108104201,122,,,,,,,,,2,100,1019,1417,3976,37690,,,
575151,8,108.418485,22.303799,陵桂村委会,,450108,0771,450108104202,220,,,,,,,,,2,100,1019,1417,3976,37690,,,
575152,8,108.47706,22.26975,台马村委会,,450108,0771,450108104203,220,,,,,,,,,2,100,1019,1417,3976,37690,,,
575153,8,108.418485,22.303799,派双村委会,,450108,0771,450108104204,220,,,,,,,,,2,100,1019,1417,3976,37690,,,
575154,8,108.418485,22.303799,同里村委会,,450108,0771,450108104205,220,,,,,,,,,2,100,1019,1417,3976,37690,,,
575155,8,108.418485,22.303799,大满村委会,,450108,0771,450108104206,220,,,,,,,,,2,100,1019,1417,3976,37690,,,
575156,8,108.418485,22.303799,平朗村委会,,450108,0771,450108104207,220,,,,,,,,,2,100,1019,1417,3976,37690,,,
575157,8,108.418485,22.303799,团东村委会,,450108,0771,450108104208,220,,,,,,,,,2,100,1019,1417,3976,37690,,,
575158,8,108.418485,22.303799,雅王村委会,,450108,0771,450108104209,220,,,,,,,,,2,100,1019,1417,3976,37690,,,
575159,8,108.418485,22.303799,那敏村委会,,450108,0771,450108104210,220,,,,,,,,,2,100,1019,1417,3976,37690,,,
575160,8,108.418485,22.303799,福里村委会,,450108,0771,450108104211,220,,,,,,,,,2,100,1019,1417,3976,37690,,,
575161,8,108.418485,22.303799,新民村委会,,450108,0771,450108104212,220,,,,,,,,,2,100,1019,1417,3976,37690,,,
575162,8,108.418485,22.303799,团城村委会,,450108,0771,450108104213,220,,,,,,,,,2,100,1019,1417,3976,37690,,,
575163,8,108.332674,22.723765,良庆经济开发区虚拟社区,,450108,0771,450108452498,123,,,,,,,,,2,100,1019,1417,3976,37691,,,
575164,8,108.488387,22.757232,红星社区居委会,,450109,0771,450109100001,111,,,,,,,,,2,100,1019,1417,3977,37692,,,
575165,8,108.49468,22.748874,蒲津社区居委会,,450109,0771,450109100002,111,,,,,,,,,2,100,1019,1417,3977,37692,,,
575166,8,108.49569,22.74323,那元社区居委会,,450109,0771,450109100003,111,,,,,,,,,2,100,1019,1417,3977,37692,,,
575167,8,108.490847,22.752836,新兴社区居委会,,450109,0771,450109100004,111,,,,,,,,,2,100,1019,1417,3977,37692,,,
575168,8,108.49468,22.748874,五合华侨社区居委会,,450109,0771,450109100005,220,,,,,,,,,2,100,1019,1417,3977,37692,,,
575169,8,108.45741,22.760441,龙岗村委会,,450109,0771,450109100201,112,,,,,,,,,2,100,1019,1417,3977,37692,,,
575170,8,108.501286,22.704069,新生村委会,,450109,0771,450109100202,112,,,,,,,,,2,100,1019,1417,3977,37692,,,
575171,8,108.49468,22.748874,孟莲村委会,,450109,0771,450109100203,220,,,,,,,,,2,100,1019,1417,3977,37692,,,
575172,8,108.49468,22.748874,联团村委会,,450109,0771,450109100204,220,,,,,,,,,2,100,1019,1417,3977,37692,,,
575173,8,108.49468,22.748874,州同村委会,,450109,0771,450109100205,220,,,,,,,,,2,100,1019,1417,3977,37692,,,
575174,8,108.49468,22.748874,张村村委会,,450109,0771,450109100206,112,,,,,,,,,2,100,1019,1417,3977,37692,,,
575175,8,108.49468,22.748874,良勇村委会,,450109,0771,450109100207,112,,,,,,,,,2,100,1019,1417,3977,37692,,,
575176,8,108.49468,22.748874,和合村委会,,450109,0771,450109100208,112,,,,,,,,,2,100,1019,1417,3977,37692,,,
575177,8,108.49468,22.748874,仁福村委会,,450109,0771,450109100209,112,,,,,,,,,2,100,1019,1417,3977,37692,,,
575178,8,108.49468,22.748874,光和村委会,,450109,0771,450109100210,220,,,,,,,,,2,100,1019,1417,3977,37692,,,
575179,8,108.53134,22.722231,良信村委会,,450109,0771,450109100211,112,,,,,,,,,2,100,1019,1417,3977,37692,,,
575180,8,108.49468,22.748874,那路村委会,,450109,0771,450109100212,220,,,,,,,,,2,100,1019,1417,3977,37692,,,
575181,8,108.49468,22.748874,华康村委会,,450109,0771,450109100213,220,,,,,,,,,2,100,1019,1417,3977,37692,,,
575182,8,108.49468,22.748874,梁村村委会,,450109,0771,450109100214,112,,,,,,,,,2,100,1019,1417,3977,37692,,,
575183,8,108.49468,22.748874,广良村委会,,450109,0771,450109100215,220,,,,,,,,,2,100,1019,1417,3977,37692,,,
575184,8,108.49468,22.748874,公曹村委会,,450109,0771,450109100216,112,,,,,,,,,2,100,1019,1417,3977,37692,,,
575185,8,108.49468,22.748874,新新村委会,,450109,0771,450109100217,220,,,,,,,,,2,100,1019,1417,3977,37692,,,
575186,8,108.629919,22.608574,那楼社区居委会,,450109,0771,450109101001,121,,,,,,,,,2,100,1019,1417,3977,37693,,,
575187,8,108.632941,22.606593,镇龙社区居委会,,450109,0771,450109101002,220,,,,,,,,,2,100,1019,1417,3977,37693,,,
575188,8,108.632941,22.606593,屯六村委会,,450109,0771,450109101201,122,,,,,,,,,2,100,1019,1417,3977,37693,,,
575189,8,108.62231,22.611049,坛墩村委会,,450109,0771,450109101202,122,,,,,,,,,2,100,1019,1417,3977,37693,,,
575190,8,108.632941,22.606593,坛垌村委会,,450109,0771,450109101203,122,,,,,,,,,2,100,1019,1417,3977,37693,,,
575191,8,108.632941,22.606593,那文村委会,,450109,0771,450109101204,220,,,,,,,,,2,100,1019,1417,3977,37693,,,
575192,8,108.632941,22.606593,那头村委会,,450109,0771,450109101205,220,,,,,,,,,2,100,1019,1417,3977,37693,,,
575193,8,108.632941,22.606593,那盆村委会,,450109,0771,450109101206,220,,,,,,,,,2,100,1019,1417,3977,37693,,,
575194,8,108.632941,22.606593,中山村委会,,450109,0771,450109101207,220,,,,,,,,,2,100,1019,1417,3977,37693,,,
575195,8,108.632941,22.606593,屯了村委会,,450109,0771,450109101208,220,,,,,,,,,2,100,1019,1417,3977,37693,,,
575196,8,108.632941,22.606593,罗马村委会,,450109,0771,450109101209,220,,,,,,,,,2,100,1019,1417,3977,37693,,,
575197,8,108.632941,22.606593,那旺村委会,,450109,0771,450109101210,220,,,,,,,,,2,100,1019,1417,3977,37693,,,
575198,8,108.632941,22.606593,那务村委会,,450109,0771,450109101211,220,,,,,,,,,2,100,1019,1417,3977,37693,,,
575199,8,108.632941,22.606593,三江村委会,,450109,0771,450109101212,220,,,,,,,,,2,100,1019,1417,3977,37693,,,
575200,8,108.632941,22.606593,那利村委会,,450109,0771,450109101213,220,,,,,,,,,2,100,1019,1417,3977,37693,,,
575201,8,108.632941,22.606593,河浪村委会,,450109,0771,450109101214,220,,,,,,,,,2,100,1019,1417,3977,37693,,,
575202,8,108.632941,22.606593,华佳村委会,,450109,0771,450109101215,220,,,,,,,,,2,100,1019,1417,3977,37693,,,
575203,8,108.632941,22.606593,那他村委会,,450109,0771,450109101216,220,,,,,,,,,2,100,1019,1417,3977,37693,,,
575204,8,108.632941,22.606593,屯良村委会,,450109,0771,450109101217,220,,,,,,,,,2,100,1019,1417,3977,37693,,,
575205,8,108.632941,22.606593,棠梨村委会,,450109,0771,450109101218,220,,,,,,,,,2,100,1019,1417,3977,37693,,,
575206,8,108.632941,22.606593,那丰村委会,,450109,0771,450109101219,220,,,,,,,,,2,100,1019,1417,3977,37693,,,
575207,8,108.632941,22.606593,那良村委会,,450109,0771,450109101220,220,,,,,,,,,2,100,1019,1417,3977,37693,,,
575208,8,108.495882,22.620946,新江社区居委会,,450109,0771,450109102001,121,,,,,,,,,2,100,1019,1417,3977,37694,,,
575209,8,108.495882,22.620946,力勒村委会,,450109,0771,450109102201,220,,,,,,,,,2,100,1019,1417,3977,37694,,,
575210,8,108.495882,22.620946,那云村委会,,450109,0771,450109102202,122,,,,,,,,,2,100,1019,1417,3977,37694,,,
575211,8,108.495882,22.620946,屯亮村委会,,450109,0771,450109102203,220,,,,,,,,,2,100,1019,1417,3977,37694,,,
575212,8,108.46461,22.626741,团阳村委会,,450109,0771,450109102204,220,,,,,,,,,2,100,1019,1417,3977,37694,,,
575213,8,108.495882,22.620946,新乐村委会,,450109,0771,450109102205,220,,,,,,,,,2,100,1019,1417,3977,37694,,,
575214,8,108.495882,22.620946,华联村委会,,450109,0771,450109102206,220,,,,,,,,,2,100,1019,1417,3977,37694,,,
575215,8,108.495882,22.620946,那了村委会,,450109,0771,450109102207,220,,,,,,,,,2,100,1019,1417,3977,37694,,,
575216,8,108.505581,22.556616,汉林村委会,,450109,0771,450109102208,220,,,,,,,,,2,100,1019,1417,3977,37694,,,
575217,8,108.577058,22.466815,百济社区居委会,,450109,0771,450109103001,121,,,,,,,,,2,100,1019,1417,3977,37695,,,
575218,8,108.577058,22.466815,红星村委会,,450109,0771,450109103201,220,,,,,,,,,2,100,1019,1417,3977,37695,,,
575219,8,108.577058,22.466815,南华村委会,,450109,0771,450109103202,220,,,,,,,,,2,100,1019,1417,3977,37695,,,
575220,8,108.577058,22.466815,屯宁村委会,,450109,0771,450109103203,220,,,,,,,,,2,100,1019,1417,3977,37695,,,
575221,8,108.577058,22.466815,新平村委会,,450109,0771,450109103204,220,,,,,,,,,2,100,1019,1417,3977,37695,,,
575222,8,108.577058,22.466815,华灵村委会,,450109,0771,450109103205,220,,,,,,,,,2,100,1019,1417,3977,37695,,,
575223,8,108.577058,22.466815,八联村委会,,450109,0771,450109103206,122,,,,,,,,,2,100,1019,1417,3977,37695,,,
575224,8,108.577058,22.466815,屯王村委会,,450109,0771,450109103207,220,,,,,,,,,2,100,1019,1417,3977,37695,,,
575225,8,108.577058,22.466815,屯茶村委会,,450109,0771,450109103208,122,,,,,,,,,2,100,1019,1417,3977,37695,,,
575226,8,108.577058,22.466815,南弼村委会,,450109,0771,450109103209,220,,,,,,,,,2,100,1019,1417,3977,37695,,,
575227,8,108.60557,22.487479,平派村委会,,450109,0771,450109103210,122,,,,,,,,,2,100,1019,1417,3977,37695,,,
575228,8,108.577058,22.466815,华达村委会,,450109,0771,450109103211,220,,,,,,,,,2,100,1019,1417,3977,37695,,,
575229,8,108.577058,22.466815,屯林村委会,,450109,0771,450109103212,220,,,,,,,,,2,100,1019,1417,3977,37695,,,
575230,8,108.577058,22.466815,桥学村委会,,450109,0771,450109103213,220,,,,,,,,,2,100,1019,1417,3977,37695,,,
575231,8,108.75111,22.681489,中和社区居委会,,450109,0771,450109104001,121,,,,,,,,,2,100,1019,1417,3977,37696,,,
575232,8,108.789282,22.691522,那例村委会,,450109,0771,450109104201,122,,,,,,,,,2,100,1019,1417,3977,37696,,,
575233,8,108.782515,22.664603,那才村委会,,450109,0771,450109104202,122,,,,,,,,,2,100,1019,1417,3977,37696,,,
575234,8,108.729859,22.650179,周禄村委会,,450109,0771,450109104203,122,,,,,,,,,2,100,1019,1417,3977,37696,,,
575235,8,108.750509,22.605861,坛西村委会,,450109,0771,450109104204,220,,,,,,,,,2,100,1019,1417,3977,37696,,,
575236,8,108.487369,22.75839,方村村委会,,450109,0771,450109104205,220,,,,,,,,,2,100,1019,1417,3977,37696,,,
575237,8,108.791076,22.603593,平天村委会,,450109,0771,450109104206,220,,,,,,,,,2,100,1019,1417,3977,37696,,,
575238,8,108.82324,22.5833,新安村委会,,450109,0771,450109104207,220,,,,,,,,,2,100,1019,1417,3977,37696,,,
575239,8,108.283657,23.164453,建设社区居委会,,450110,0771,450110100001,111,,,,,,,,,2,100,1019,1417,3978,37697,,,
575240,8,108.276804,23.159132,解放社区居委会,,450110,0771,450110100002,111,,,,,,,,,2,100,1019,1417,3978,37697,,,
575241,8,108.275125,23.162703,和平社区居委会,,450110,0771,450110100003,111,,,,,,,,,2,100,1019,1417,3978,37697,,,
575242,8,108.26535,23.150944,灵水社区居委会,,450110,0771,450110100004,111,,,,,,,,,2,100,1019,1417,3978,37697,,,
575243,8,108.279847,23.149919,渡头社区居委会,,450110,0771,450110100005,111,,,,,,,,,2,100,1019,1417,3978,37697,,,
575244,8,108.292566,23.128134,标营社区居委会,,450110,0771,450110100006,111,,,,,,,,,2,100,1019,1417,3978,37697,,,
575245,8,108.283217,23.162918,新兴社区居委会,,450110,0771,450110100007,111,,,,,,,,,2,100,1019,1417,3978,37697,,,
575246,8,108.283657,23.164453,红岭社区居委会,,450110,0771,450110100008,111,,,,,,,,,2,100,1019,1417,3978,37697,,,
575247,8,108.257062,23.156199,五海村委会,,450110,0771,450110100201,112,,,,,,,,,2,100,1019,1417,3978,37697,,,
575248,8,108.272313,23.154464,灵源村委会,,450110,0771,450110100202,112,,,,,,,,,2,100,1019,1417,3978,37697,,,
575249,8,108.24658,23.132619,大皇后村委会,,450110,0771,450110100203,220,,,,,,,,,2,100,1019,1417,3978,37697,,,
575250,8,108.27719,23.144182,濑琶村委会,,450110,0771,450110100204,112,,,,,,,,,2,100,1019,1417,3978,37697,,,
575251,8,108.283657,23.164453,九联村委会,,450110,0771,450110100205,220,,,,,,,,,2,100,1019,1417,3978,37697,,,
575252,8,108.283657,23.164453,九里村委会,,450110,0771,450110100206,112,,,,,,,,,2,100,1019,1417,3978,37697,,,
575253,8,108.258391,23.219829,六联村委会,,450110,0771,450110100207,220,,,,,,,,,2,100,1019,1417,3978,37697,,,
575254,8,108.283657,23.164453,共和村委会,,450110,0771,450110100208,220,,,,,,,,,2,100,1019,1417,3978,37697,,,
575255,8,108.283657,23.164453,萃英村委会,,450110,0771,450110100209,220,,,,,,,,,2,100,1019,1417,3978,37697,,,
575256,8,108.283657,23.164453,香泉村委会,,450110,0771,450110100210,220,,,,,,,,,2,100,1019,1417,3978,37697,,,
575257,8,108.283657,23.164453,联兴村委会,,450110,0771,450110100211,220,,,,,,,,,2,100,1019,1417,3978,37697,,,
575258,8,108.283657,23.164453,文合村委会,,450110,0771,450110100212,220,,,,,,,,,2,100,1019,1417,3978,37697,,,
575259,8,108.301604,23.165372,大梁村委会,,450110,0771,450110100213,112,,,,,,,,,2,100,1019,1417,3978,37697,,,
575260,8,108.285065,23.161555,大同村委会,,450110,0771,450110100214,112,,,,,,,,,2,100,1019,1417,3978,37697,,,
575261,8,108.283657,23.164453,合旗村委会,,450110,0771,450110100215,112,,,,,,,,,2,100,1019,1417,3978,37697,,,
575262,8,108.283657,23.164453,马香村委会,,450110,0771,450110100216,220,,,,,,,,,2,100,1019,1417,3978,37697,,,
575263,8,108.283657,23.164453,邓广村委会,,450110,0771,450110100217,220,,,,,,,,,2,100,1019,1417,3978,37697,,,
575264,8,108.283657,23.164453,从广村委会,,450110,0771,450110100218,220,,,,,,,,,2,100,1019,1417,3978,37697,,,
575265,8,108.283657,23.164453,夏黄村委会,,450110,0771,450110100219,220,,,,,,,,,2,100,1019,1417,3978,37697,,,
575266,8,108.283657,23.164453,平等村委会,,450110,0771,450110100220,220,,,,,,,,,2,100,1019,1417,3978,37697,,,
575267,8,108.283657,23.164453,串钱村委会,,450110,0771,450110100221,220,,,,,,,,,2,100,1019,1417,3978,37697,,,
575268,8,108.43993,23.108867,文溪社区居委会,,450110,0771,450110102001,121,,,,,,,,,2,100,1019,1417,3978,37698,,,
575269,8,108.439864,23.110504,林琅村委会,,450110,0771,450110102201,220,,,,,,,,,2,100,1019,1417,3978,37698,,,
575270,8,108.439864,23.110504,林渌村委会,,450110,0771,450110102202,122,,,,,,,,,2,100,1019,1417,3978,37698,,,
575271,8,108.439864,23.110504,新联村委会,,450110,0771,450110102203,220,,,,,,,,,2,100,1019,1417,3978,37698,,,
575272,8,108.439864,23.110504,凤阳村委会,,450110,0771,450110102204,220,,,,,,,,,2,100,1019,1417,3978,37698,,,
575273,8,108.439864,23.110504,庆乐村委会,,450110,0771,450110102205,220,,,,,,,,,2,100,1019,1417,3978,37698,,,
575274,8,108.439864,23.110504,文坛村委会,,450110,0771,450110102206,220,,,,,,,,,2,100,1019,1417,3978,37698,,,
575275,8,108.40287,23.063231,葛阳村委会,,450110,0771,450110102207,220,,,,,,,,,2,100,1019,1417,3978,37698,,,
575276,8,108.439864,23.110504,朱董村委会,,450110,0771,450110102208,220,,,,,,,,,2,100,1019,1417,3978,37698,,,
575277,8,108.439864,23.110504,鄀太村委会,,450110,0771,450110102209,220,,,,,,,,,2,100,1019,1417,3978,37698,,,
575278,8,108.439864,23.110504,同贵村委会,,450110,0771,450110102210,220,,,,,,,,,2,100,1019,1417,3978,37698,,,
575279,8,108.439864,23.110504,均致村委会,,450110,0771,450110102211,220,,,,,,,,,2,100,1019,1417,3978,37698,,,
575280,8,108.439864,23.110504,联桂村委会,,450110,0771,450110102212,220,,,,,,,,,2,100,1019,1417,3978,37698,,,
575281,8,108.301345,23.099928,双桥社区居委会,,450110,0771,450110103001,111,,,,,,,,,2,100,1019,1417,3978,37699,,,
575282,8,108.301345,23.099928,杨李村委会,,450110,0771,450110103201,220,,,,,,,,,2,100,1019,1417,3978,37699,,,
575283,8,108.301345,23.099928,下渌村委会,,450110,0771,450110103202,220,,,,,,,,,2,100,1019,1417,3978,37699,,,
575284,8,108.295056,23.090482,平陆村委会,,450110,0771,450110103203,112,,,,,,,,,2,100,1019,1417,3978,37699,,,
575285,8,108.301345,23.099928,平福村委会,,450110,0771,450110103204,220,,,,,,,,,2,100,1019,1417,3978,37699,,,
575286,8,108.301345,23.099928,平稳村委会,,450110,0771,450110103205,112,,,,,,,,,2,100,1019,1417,3978,37699,,,
575287,8,108.301345,23.099928,孔镇村委会,,450110,0771,450110103206,220,,,,,,,,,2,100,1019,1417,3978,37699,,,
575288,8,108.32038,23.13972,镇南村委会,,450110,0771,450110103207,220,,,,,,,,,2,100,1019,1417,3978,37699,,,
575289,8,108.301345,23.099928,合美村委会,,450110,0771,450110103208,220,,,,,,,,,2,100,1019,1417,3978,37699,,,
575290,8,108.301345,23.099928,跃进村委会,,450110,0771,450110103209,220,,,,,,,,,2,100,1019,1417,3978,37699,,,
575291,8,108.32509,23.033783,腾翔村委会,,450110,0771,450110103210,220,,,,,,,,,2,100,1019,1417,3978,37699,,,
575292,8,108.301345,23.099928,八桥村委会,,450110,0771,450110103211,220,,,,,,,,,2,100,1019,1417,3978,37699,,,
575293,8,108.301345,23.099928,苏宫村委会,,450110,0771,450110103212,220,,,,,,,,,2,100,1019,1417,3978,37699,,,
575294,8,108.301345,23.099928,造庆村委会,,450110,0771,450110103213,220,,,,,,,,,2,100,1019,1417,3978,37699,,,
575295,8,108.29852,23.03103,伊岭村委会,,450110,0771,450110103214,112,,,,,,,,,2,100,1019,1417,3978,37699,,,
575296,8,108.301345,23.099928,伏林村委会,,450110,0771,450110103215,220,,,,,,,,,2,100,1019,1417,3978,37699,,,
575297,8,108.20971,23.107928,雄孟社区居委会,,450110,0771,450110104001,121,,,,,,,,,2,100,1019,1417,3978,37700,,,
575298,8,108.20971,23.107928,张朗村委会,,450110,0771,450110104201,122,,,,,,,,,2,100,1019,1417,3978,37700,,,
575299,8,108.20971,23.107928,长安村委会,,450110,0771,450110104202,220,,,,,,,,,2,100,1019,1417,3978,37700,,,
575300,8,108.20971,23.107928,旧岑村委会,,450110,0771,450110104203,220,,,,,,,,,2,100,1019,1417,3978,37700,,,
575301,8,108.20971,23.107928,伏唐村委会,,450110,0771,450110104204,220,,,,,,,,,2,100,1019,1417,3978,37700,,,
575302,8,108.20971,23.107928,东王村委会,,450110,0771,450110104205,220,,,,,,,,,2,100,1019,1417,3978,37700,,,
575303,8,108.205565,23.072821,华山村委会,,450110,0771,450110104206,220,,,,,,,,,2,100,1019,1417,3978,37700,,,
575304,8,108.20971,23.107928,英烈村委会,,450110,0771,450110104207,220,,,,,,,,,2,100,1019,1417,3978,37700,,,
575305,8,108.20971,23.107928,建丰村委会,,450110,0771,450110104208,220,,,,,,,,,2,100,1019,1417,3978,37700,,,
575306,8,108.20971,23.107928,梁新村委会,,450110,0771,450110104209,220,,,,,,,,,2,100,1019,1417,3978,37700,,,
575307,8,108.20971,23.107928,双卢村委会,,450110,0771,450110104210,220,,,,,,,,,2,100,1019,1417,3978,37700,,,
575308,8,108.20971,23.107928,唐村村委会,,450110,0771,450110104211,220,,,,,,,,,2,100,1019,1417,3978,37700,,,
575309,8,108.20971,23.107928,培桂村委会,,450110,0771,450110104212,220,,,,,,,,,2,100,1019,1417,3978,37700,,,
575310,8,108.20971,23.107928,新甫村委会,,450110,0771,450110104213,220,,,,,,,,,2,100,1019,1417,3978,37700,,,
575311,8,108.025822,23.255043,锣圩社区居委会,,450110,0771,450110105001,121,,,,,,,,,2,100,1019,1417,3978,37701,,,
575312,8,108.025822,23.255043,大杨村委会,,450110,0771,450110105201,220,,,,,,,,,2,100,1019,1417,3978,37701,,,
575313,8,108.025822,23.255043,英江村委会,,450110,0771,450110105202,220,,,,,,,,,2,100,1019,1417,3978,37701,,,
575314,8,107.9795,23.32338,英圩村委会,,450110,0771,450110105203,220,,,,,,,,,2,100,1019,1417,3978,37701,,,
575315,8,108.025822,23.255043,渌旺村委会,,450110,0771,450110105204,220,,,,,,,,,2,100,1019,1417,3978,37701,,,
575316,8,108.025822,23.255043,高一村委会,,450110,0771,450110105205,220,,,,,,,,,2,100,1019,1417,3978,37701,,,
575317,8,108.025822,23.255043,罗福村委会,,450110,0771,450110105206,220,,,,,,,,,2,100,1019,1417,3978,37701,,,
575318,8,108.010068,23.302321,淝阳村委会,,450110,0771,450110105207,220,,,,,,,,,2,100,1019,1417,3978,37701,,,
575319,8,108.025822,23.255043,高二村委会,,450110,0771,450110105208,220,,,,,,,,,2,100,1019,1417,3978,37701,,,
575320,8,108.025822,23.255043,仙山村委会,,450110,0771,450110105209,220,,,,,,,,,2,100,1019,1417,3978,37701,,,
575321,8,108.025822,23.255043,双龙村委会,,450110,0771,450110105210,220,,,,,,,,,2,100,1019,1417,3978,37701,,,
575322,8,108.025822,23.255043,旧圩村委会,,450110,0771,450110105211,220,,,,,,,,,2,100,1019,1417,3978,37701,,,
575323,8,108.025822,23.255043,伏王村委会,,450110,0771,450110105212,220,,,,,,,,,2,100,1019,1417,3978,37701,,,
575324,8,108.025822,23.255043,树合村委会,,450110,0771,450110105213,220,,,,,,,,,2,100,1019,1417,3978,37701,,,
575325,8,108.025822,23.255043,群兴村委会,,450110,0771,450110105214,220,,,,,,,,,2,100,1019,1417,3978,37701,,,
575326,8,108.025822,23.255043,林洋村委会,,450110,0771,450110105215,220,,,,,,,,,2,100,1019,1417,3978,37701,,,
575327,8,108.025822,23.255043,岜勋村委会,,450110,0771,450110105216,220,,,,,,,,,2,100,1019,1417,3978,37701,,,
575328,8,108.025822,23.255043,龙庆村委会,,450110,0771,450110105217,220,,,,,,,,,2,100,1019,1417,3978,37701,,,
575329,8,108.02023,23.20038,板新村委会,,450110,0771,450110105218,220,,,,,,,,,2,100,1019,1417,3978,37701,,,
575330,8,108.025822,23.255043,玉泉村委会,,450110,0771,450110105219,220,,,,,,,,,2,100,1019,1417,3978,37701,,,
575331,8,108.025822,23.255043,三粟村委会,,450110,0771,450110105220,220,,,,,,,,,2,100,1019,1417,3978,37701,,,
575332,8,108.025822,23.255043,那琅村委会,,450110,0771,450110105221,220,,,,,,,,,2,100,1019,1417,3978,37701,,,
575333,8,108.025822,23.255043,培联村委会,,450110,0771,450110105222,220,,,,,,,,,2,100,1019,1417,3978,37701,,,
575334,8,108.025822,23.255043,济力村委会,,450110,0771,450110105223,220,,,,,,,,,2,100,1019,1417,3978,37701,,,
575335,8,108.025822,23.255043,弄七村委会,,450110,0771,450110105224,220,,,,,,,,,2,100,1019,1417,3978,37701,,,
575336,8,108.025822,23.255043,清凤村委会,,450110,0771,450110105225,220,,,,,,,,,2,100,1019,1417,3978,37701,,,
575337,8,108.095432,23.352562,中桥社区居委会,,450110,0771,450110106001,121,,,,,,,,,2,100,1019,1417,3978,37702,,,
575338,8,108.125689,23.379032,连才村委会,,450110,0771,450110106201,220,,,,,,,,,2,100,1019,1417,3978,37702,,,
575339,8,108.094672,23.357707,三冬村委会,,450110,0771,450110106202,220,,,,,,,,,2,100,1019,1417,3978,37702,,,
575340,8,108.094672,23.357707,六冬村委会,,450110,0771,450110106203,220,,,,,,,,,2,100,1019,1417,3978,37702,,,
575341,8,108.094672,23.357707,渌雅村委会,,450110,0771,450110106204,220,,,,,,,,,2,100,1019,1417,3978,37702,,,
575342,8,108.094672,23.357707,邓吉村委会,,450110,0771,450110106205,220,,,,,,,,,2,100,1019,1417,3978,37702,,,
575343,8,108.157,23.32328,清白村委会,,450110,0771,450110106206,220,,,,,,,,,2,100,1019,1417,3978,37702,,,
575344,8,108.094672,23.357707,苏梁村委会,,450110,0771,450110106207,220,,,,,,,,,2,100,1019,1417,3978,37702,,,
575345,8,108.094672,23.357707,那溪村委会,,450110,0771,450110106208,220,,,,,,,,,2,100,1019,1417,3978,37702,,,
575346,8,108.161312,23.254083,邓柳村委会,,450110,0771,450110106209,220,,,,,,,,,2,100,1019,1417,3978,37702,,,
575347,8,108.094672,23.357707,四育村委会,,450110,0771,450110106210,220,,,,,,,,,2,100,1019,1417,3978,37702,,,
575348,8,108.212729,23.423012,府城社区居委会,,450110,0771,450110107001,121,,,,,,,,,2,100,1019,1417,3978,37703,,,
575349,8,108.207269,23.425694,白合华侨社区居民委员会,,450110,0771,450110107002,220,,,,,,,,,2,100,1019,1417,3978,37703,,,
575350,8,108.207269,23.425694,东风社区,,450110,0771,450110107003,220,,,,,,,,,2,100,1019,1417,3978,37703,,,
575351,8,108.207269,23.425694,西厢村委会,,450110,0771,450110107201,220,,,,,,,,,2,100,1019,1417,3978,37703,,,
575352,8,108.207269,23.425694,四明村委会,,450110,0771,450110107202,220,,,,,,,,,2,100,1019,1417,3978,37703,,,
575353,8,108.207269,23.425694,富良村委会,,450110,0771,450110107203,220,,,,,,,,,2,100,1019,1417,3978,37703,,,
575354,8,108.207269,23.425694,文泉村委会,,450110,0771,450110107204,220,,,,,,,,,2,100,1019,1417,3978,37703,,,
575355,8,108.207269,23.425694,渌龙村委会,,450110,0771,450110107205,220,,,,,,,,,2,100,1019,1417,3978,37703,,,
575356,8,108.207269,23.425694,福良村委会,,450110,0771,450110107206,220,,,,,,,,,2,100,1019,1417,3978,37703,,,
575357,8,108.207269,23.425694,和平村委会,,450110,0771,450110107207,220,,,,,,,,,2,100,1019,1417,3978,37703,,,
575358,8,108.207269,23.425694,永共村委会,,450110,0771,450110107208,220,,,,,,,,,2,100,1019,1417,3978,37703,,,
575359,8,108.207269,23.425694,喜庆村委会,,450110,0771,450110107209,220,,,,,,,,,2,100,1019,1417,3978,37703,,,
575360,8,108.207269,23.425694,进源村委会,,450110,0771,450110107210,220,,,,,,,,,2,100,1019,1417,3978,37703,,,
575361,8,108.207269,23.425694,渌韦村委会,,450110,0771,450110107211,220,,,,,,,,,2,100,1019,1417,3978,37703,,,
575362,8,108.207269,23.425694,德灵村委会,,450110,0771,450110107212,220,,,,,,,,,2,100,1019,1417,3978,37703,,,
575363,8,108.207269,23.425694,乐光村委会,,450110,0771,450110107213,220,,,,,,,,,2,100,1019,1417,3978,37703,,,
575364,8,108.207269,23.425694,头塘村委会,,450110,0771,450110107214,220,,,,,,,,,2,100,1019,1417,3978,37703,,,
575365,8,108.207269,23.425694,那化村委会,,450110,0771,450110107215,220,,,,,,,,,2,100,1019,1417,3978,37703,,,
575366,8,108.207269,23.425694,寺圩村委会,,450110,0771,450110107216,220,,,,,,,,,2,100,1019,1417,3978,37703,,,
575367,8,108.207269,23.425694,永合村委会,,450110,0771,450110107217,220,,,,,,,,,2,100,1019,1417,3978,37703,,,
575368,8,108.207269,23.425694,新泉村委会,,450110,0771,450110107218,220,,,,,,,,,2,100,1019,1417,3978,37703,,,
575369,8,108.207269,23.425694,大同村委会,,450110,0771,450110107219,220,,,,,,,,,2,100,1019,1417,3978,37703,,,
575370,8,108.207269,23.425694,岜榄村委会,,450110,0771,450110107220,220,,,,,,,,,2,100,1019,1417,3978,37703,,,
575371,8,108.207269,23.425694,陆杨村委会,,450110,0771,450110107221,220,,,,,,,,,2,100,1019,1417,3978,37703,,,
575372,8,108.207269,23.425694,东江村委会,,450110,0771,450110107222,220,,,,,,,,,2,100,1019,1417,3978,37703,,,
575373,8,108.207269,23.425694,启德村委会,,450110,0771,450110107223,220,,,,,,,,,2,100,1019,1417,3978,37703,,,
575374,8,108.401776,23.302434,陆斡社区居委会,,450110,0771,450110108001,121,,,,,,,,,2,100,1019,1417,3978,37704,,,
575375,8,108.401776,23.302434,龙口村委会,,450110,0771,450110108201,220,,,,,,,,,2,100,1019,1417,3978,37704,,,
575376,8,108.401776,23.302434,坡班村委会,,450110,0771,450110108202,220,,,,,,,,,2,100,1019,1417,3978,37704,,,
575377,8,108.401776,23.302434,仁合村委会,,450110,0771,450110108203,220,,,,,,,,,2,100,1019,1417,3978,37704,,,
575378,8,108.401776,23.302434,覃李村委会,,450110,0771,450110108204,220,,,,,,,,,2,100,1019,1417,3978,37704,,,
575379,8,108.401776,23.302434,文桐村委会,,450110,0771,450110108205,220,,,,,,,,,2,100,1019,1417,3978,37704,,,
575380,8,108.401776,23.302434,贵德村委会,,450110,0771,450110108206,220,,,,,,,,,2,100,1019,1417,3978,37704,,,
575381,8,108.401776,23.302434,大榄村委会,,450110,0771,450110108207,220,,,,,,,,,2,100,1019,1417,3978,37704,,,
575382,8,108.401776,23.302434,兴江村委会,,450110,0771,450110108208,220,,,,,,,,,2,100,1019,1417,3978,37704,,,
575383,8,108.401776,23.302434,育秀村委会,,450110,0771,450110108209,220,,,,,,,,,2,100,1019,1417,3978,37704,,,
575384,8,108.401776,23.302434,尚志村委会,,450110,0771,450110108210,220,,,,,,,,,2,100,1019,1417,3978,37704,,,
575385,8,108.401776,23.302434,燕齐村委会,,450110,0771,450110108211,220,,,,,,,,,2,100,1019,1417,3978,37704,,,
575386,8,108.401776,23.302434,双泉村委会,,450110,0771,450110108212,220,,,,,,,,,2,100,1019,1417,3978,37704,,,
575387,8,108.401776,23.302434,二塘村委会,,450110,0771,450110108213,220,,,,,,,,,2,100,1019,1417,3978,37704,,,
575388,8,108.401776,23.302434,联合村委会,,450110,0771,450110108214,220,,,,,,,,,2,100,1019,1417,3978,37704,,,
575389,8,108.401776,23.302434,那羊村委会,,450110,0771,450110108215,220,,,,,,,,,2,100,1019,1417,3978,37704,,,
575390,8,108.401776,23.302434,忠党村委会,,450110,0771,450110108216,220,,,,,,,,,2,100,1019,1417,3978,37704,,,
575391,8,108.401776,23.302434,共济村委会,,450110,0771,450110108217,220,,,,,,,,,2,100,1019,1417,3978,37704,,,
575392,8,108.401776,23.302434,桥北村委会,,450110,0771,450110108218,220,,,,,,,,,2,100,1019,1417,3978,37704,,,
575393,8,108.401776,23.302434,覃外村委会,,450110,0771,450110108219,220,,,,,,,,,2,100,1019,1417,3978,37704,,,
575394,8,108.355213,23.236322,覃内村委会,,450110,0771,450110108220,220,,,,,,,,,2,100,1019,1417,3978,37704,,,
575395,8,108.380238,23.253832,苞张村委会,,450110,0771,450110108221,220,,,,,,,,,2,100,1019,1417,3978,37704,,,
575396,8,108.401776,23.302434,卢覃村委会,,450110,0771,450110108222,220,,,,,,,,,2,100,1019,1417,3978,37704,,,
575397,8,108.401776,23.302434,桥东村委会,,450110,0771,450110108223,220,,,,,,,,,2,100,1019,1417,3978,37704,,,
575398,8,108.373084,23.432817,两江社区居委会,,450110,0771,450110109001,121,,,,,,,,,2,100,1019,1417,3978,37705,,,
575399,8,108.373084,23.432817,培群村委会,,450110,0771,450110109201,220,,,,,,,,,2,100,1019,1417,3978,37705,,,
575400,8,108.373084,23.432817,云川村委会,,450110,0771,450110109202,220,,,,,,,,,2,100,1019,1417,3978,37705,,,
575401,8,108.373084,23.432817,合耸村委会,,450110,0771,450110109203,220,,,,,,,,,2,100,1019,1417,3978,37705,,,
575402,8,108.373084,23.432817,龙英村委会,,450110,0771,450110109204,220,,,,,,,,,2,100,1019,1417,3978,37705,,,
575403,8,108.373084,23.432817,英俊村委会,,450110,0771,450110109205,220,,,,,,,,,2,100,1019,1417,3978,37705,,,
575404,8,108.373084,23.432817,三联村委会,,450110,0771,450110109206,122,,,,,,,,,2,100,1019,1417,3978,37705,,,
575405,8,108.373084,23.432817,四联村委会,,450110,0771,450110109207,220,,,,,,,,,2,100,1019,1417,3978,37705,,,
575406,8,108.373084,23.432817,岭合村委会,,450110,0771,450110109208,220,,,,,,,,,2,100,1019,1417,3978,37705,,,
575407,8,108.373084,23.432817,聚群村委会,,450110,0771,450110109209,220,,,,,,,,,2,100,1019,1417,3978,37705,,,
575408,8,108.342573,23.481343,群英村委会,,450110,0771,450110109210,220,,,,,,,,,2,100,1019,1417,3978,37705,,,
575409,8,108.373084,23.432817,福江村委会,,450110,0771,450110109211,220,,,,,,,,,2,100,1019,1417,3978,37705,,,
575410,8,108.322678,23.497545,明山村委会,,450110,0771,450110109212,220,,,,,,,,,2,100,1019,1417,3978,37705,,,
575411,8,108.315728,23.514288,公泉村委会,,450110,0771,450110109213,220,,,,,,,,,2,100,1019,1417,3978,37705,,,
575412,8,108.373084,23.432817,汉安村委会,,450110,0771,450110109214,220,,,,,,,,,2,100,1019,1417,3978,37705,,,
575413,8,108.41695,23.279731,罗波社区居委会,,450110,0771,450110110001,121,,,,,,,,,2,100,1019,1417,3978,37706,,,
575414,8,108.41695,23.279731,凤林村委会,,450110,0771,450110110201,220,,,,,,,,,2,100,1019,1417,3978,37706,,,
575415,8,108.41695,23.279731,旧陆斡村委会,,450110,0771,450110110202,220,,,,,,,,,2,100,1019,1417,3978,37706,,,
575416,8,108.41695,23.279731,暮定村委会,,450110,0771,450110110203,220,,,,,,,,,2,100,1019,1417,3978,37706,,,
575417,8,108.41695,23.279731,板欧村委会,,450110,0771,450110110204,220,,,,,,,,,2,100,1019,1417,3978,37706,,,
575418,8,108.426179,23.264871,联新村委会,,450110,0771,450110110205,220,,,,,,,,,2,100,1019,1417,3978,37706,,,
575419,8,108.41695,23.279731,石梁村委会,,450110,0771,450110110206,220,,,,,,,,,2,100,1019,1417,3978,37706,,,
575420,8,108.41695,23.279731,梁彭村委会,,450110,0771,450110110207,220,,,,,,,,,2,100,1019,1417,3978,37706,,,
575421,8,108.41695,23.279731,布凌村委会,,450110,0771,450110110208,220,,,,,,,,,2,100,1019,1417,3978,37706,,,
575422,8,108.509358,23.222021,天马村委会,,450110,0771,450110110209,220,,,,,,,,,2,100,1019,1417,3978,37706,,,
575423,8,108.503062,23.228076,西边村委会,,450110,0771,450110110210,220,,,,,,,,,2,100,1019,1417,3978,37706,,,
575424,8,108.41695,23.279731,尚黄村委会,,450110,0771,450110110211,220,,,,,,,,,2,100,1019,1417,3978,37706,,,
575425,8,108.41695,23.279731,四陈村委会,,450110,0771,450110110212,220,,,,,,,,,2,100,1019,1417,3978,37706,,,
575426,8,108.558994,23.202629,坛李村委会,,450110,0771,450110110213,220,,,,,,,,,2,100,1019,1417,3978,37706,,,
575427,8,107.913118,23.385868,灵马社区居委会,,450110,0771,450110111001,121,,,,,,,,,2,100,1019,1417,3978,37707,,,
575428,8,107.913118,23.385868,坡江村委会,,450110,0771,450110111201,220,,,,,,,,,2,100,1019,1417,3978,37707,,,
575429,8,107.913118,23.385868,方和村委会,,450110,0771,450110111202,220,,,,,,,,,2,100,1019,1417,3978,37707,,,
575430,8,107.876654,23.377657,王桥村委会,,450110,0771,450110111203,220,,,,,,,,,2,100,1019,1417,3978,37707,,,
575431,8,107.913118,23.385868,新龙村委会,,450110,0771,450110111204,220,,,,,,,,,2,100,1019,1417,3978,37707,,,
575432,8,107.913118,23.385868,义龙村委会,,450110,0771,450110111205,220,,,,,,,,,2,100,1019,1417,3978,37707,,,
575433,8,107.913118,23.385868,清水村委会,,450110,0771,450110111206,220,,,,,,,,,2,100,1019,1417,3978,37707,,,
575434,8,107.913118,23.385868,滕村村委会,,450110,0771,450110111207,220,,,,,,,,,2,100,1019,1417,3978,37707,,,
575435,8,107.913118,23.385868,那龙村委会,,450110,0771,450110111208,220,,,,,,,,,2,100,1019,1417,3978,37707,,,
575436,8,107.913118,23.385868,坛昌村委会,,450110,0771,450110111209,220,,,,,,,,,2,100,1019,1417,3978,37707,,,
575437,8,107.913118,23.385868,三合村委会,,450110,0771,450110111210,220,,,,,,,,,2,100,1019,1417,3978,37707,,,
575438,8,107.913118,23.385868,良安村委会,,450110,0771,450110111211,220,,,,,,,,,2,100,1019,1417,3978,37707,,,
575439,8,107.913118,23.385868,高楼村委会,,450110,0771,450110111212,220,,,,,,,,,2,100,1019,1417,3978,37707,,,
575440,8,107.913118,23.385868,三民村委会,,450110,0771,450110111213,220,,,,,,,,,2,100,1019,1417,3978,37707,,,
575441,8,108.226729,22.972094,甘圩社区居委会,,450110,0771,450110112001,121,,,,,,,,,2,100,1019,1417,3978,37708,,,
575442,8,108.226729,22.972094,达洞村委会,,450110,0771,450110112201,220,,,,,,,,,2,100,1019,1417,3978,37708,,,
575443,8,108.226729,22.972094,赖坡村委会,,450110,0771,450110112202,220,,,,,,,,,2,100,1019,1417,3978,37708,,,
575444,8,108.226729,22.972094,唐历村委会,,450110,0771,450110112203,220,,,,,,,,,2,100,1019,1417,3978,37708,,,
575445,8,108.226729,22.972094,定黎村委会,,450110,0771,450110112204,220,,,,,,,,,2,100,1019,1417,3978,37708,,,
575446,8,108.504931,23.300957,马头社区居委会,,450110,0771,450110113001,121,,,,,,,,,2,100,1019,1417,3978,37709,,,
575447,8,108.504931,23.300957,小陆村委会,,450110,0771,450110113201,220,,,,,,,,,2,100,1019,1417,3978,37709,,,
575448,8,108.46982,23.333434,全曾村委会,,450110,0771,450110113202,220,,,,,,,,,2,100,1019,1417,3978,37709,,,
575449,8,108.47724,23.326384,莫阳村委会,,450110,0771,450110113203,220,,,,,,,,,2,100,1019,1417,3978,37709,,,
575450,8,108.504931,23.300957,清江村委会,,450110,0771,450110113204,220,,,,,,,,,2,100,1019,1417,3978,37709,,,
575451,8,108.504931,23.300957,全苏村委会,,450110,0771,450110113205,220,,,,,,,,,2,100,1019,1417,3978,37709,,,
575452,8,108.504931,23.300957,那堤村委会,,450110,0771,450110113206,220,,,,,,,,,2,100,1019,1417,3978,37709,,,
575453,8,108.504931,23.300957,四明村委会,,450110,0771,450110113207,220,,,,,,,,,2,100,1019,1417,3978,37709,,,
575454,8,108.504931,23.300957,玉元村委会,,450110,0771,450110113208,220,,,,,,,,,2,100,1019,1417,3978,37709,,,
575455,8,108.504931,23.300957,灵坡村委会,,450110,0771,450110113209,220,,,,,,,,,2,100,1019,1417,3978,37709,,,
575456,8,108.504931,23.300957,敬三村委会,,450110,0771,450110113210,220,,,,,,,,,2,100,1019,1417,3978,37709,,,
575457,8,108.504931,23.300957,六户村委会,,450110,0771,450110113211,220,,,,,,,,,2,100,1019,1417,3978,37709,,,
575458,8,108.504931,23.300957,荣庞村委会,,450110,0771,450110113212,220,,,,,,,,,2,100,1019,1417,3978,37709,,,
575459,8,108.170197,23.199353,中心区社区居委会,,450110,0771,450110451001,123,,,,,,,,,2,100,1019,1417,3978,37710,,,
575460,8,108.274712,23.158693,华侨城社区居委会,,450110,0771,450110451002,123,,,,,,,,,2,100,1019,1417,3978,37710,,,
575461,8,108.173144,23.187905,华侨茶叶公司区社区,,450110,0771,450110451402,123,,,,,,,,,2,100,1019,1417,3978,37710,,,
575462,8,108.274712,23.158693,华侨农科所社区,,450110,0771,450110451403,123,,,,,,,,,2,100,1019,1417,3978,37710,,,
575463,8,108.124182,23.202481,里建农场生活区,,450110,0771,450110451501,123,,,,,,,,,2,100,1019,1417,3978,37710,,,
575464,8,108.205399,23.212084,民涵农场生活区,,450110,0771,450110451502,123,,,,,,,,,2,100,1019,1417,3978,37710,,,
575465,8,108.200719,23.179517,宁武农场生活区,,450110,0771,450110451503,123,,,,,,,,,2,100,1019,1417,3978,37710,,,
575466,8,108.093955,23.247373,武帽农场生活区,,450110,0771,450110451504,123,,,,,,,,,2,100,1019,1417,3978,37710,,,
575467,8,108.274712,23.158693,正安农场生活区,,450110,0771,450110451505,123,,,,,,,,,2,100,1019,1417,3978,37710,,,
575468,8,108.04049,23.292522,团结农场生活区,,450110,0771,450110451506,220,,,,,,,,,2,100,1019,1417,3978,37710,,,
575469,8,107.694989,23.174387,新兴社区居委会,,450123,0771,450123100005,121,,,,,,,,,2,100,1019,1417,3979,37711,,,
575470,8,107.685652,23.178256,国泰社区居委会,,450123,0771,450123100006,122,,,,,,,,,2,100,1019,1417,3979,37711,,,
575471,8,107.694989,23.174387,兴阳社区居委会,,450123,0771,450123100008,220,,,,,,,,,2,100,1019,1417,3979,37711,,,
575472,8,107.694989,23.174387,震东社区,,450123,0771,450123100009,121,,,,,,,,,2,100,1019,1417,3979,37711,,,
575473,8,107.694989,23.174387,四兴村委会,,450123,0771,450123100201,220,,,,,,,,,2,100,1019,1417,3979,37711,,,
575474,8,107.694989,23.174387,那可村委会,,450123,0771,450123100202,220,,,,,,,,,2,100,1019,1417,3979,37711,,,
575475,8,107.694989,23.174387,宝塔村委会,,450123,0771,450123100203,122,,,,,,,,,2,100,1019,1417,3979,37711,,,
575476,8,107.694989,23.174387,西宁村委会,,450123,0771,450123100204,220,,,,,,,,,2,100,1019,1417,3979,37711,,,
575477,8,107.694989,23.174387,震东村委会,,450123,0771,450123100205,122,,,,,,,,,2,100,1019,1417,3979,37711,,,
575478,8,107.694989,23.174387,小林村委会,,450123,0771,450123100206,220,,,,,,,,,2,100,1019,1417,3979,37711,,,
575479,8,107.694989,23.174387,大林村委会,,450123,0771,450123100207,220,,,,,,,,,2,100,1019,1417,3979,37711,,,
575480,8,107.82322,23.099449,旺中村委会,,450123,0771,450123100208,220,,,,,,,,,2,100,1019,1417,3979,37711,,,
575481,8,107.694989,23.174387,东安村委会,,450123,0771,450123100209,220,,,,,,,,,2,100,1019,1417,3979,37711,,,
575482,8,107.694989,23.174387,东信村委会,,450123,0771,450123100210,220,,,,,,,,,2,100,1019,1417,3979,37711,,,
575483,8,107.694989,23.174387,良兴村委会,,450123,0771,450123100211,220,,,,,,,,,2,100,1019,1417,3979,37711,,,
575484,8,107.694989,23.174387,良一村委会,,450123,0771,450123100212,220,,,,,,,,,2,100,1019,1417,3979,37711,,,
575485,8,107.694989,23.174387,良二村委会,,450123,0771,450123100213,220,,,,,,,,,2,100,1019,1417,3979,37711,,,
575486,8,107.694989,23.174387,良安村委会,,450123,0771,450123100214,220,,,,,,,,,2,100,1019,1417,3979,37711,,,
575487,8,107.669789,23.126129,南圩社区居委会,,450123,0771,450123101001,121,,,,,,,,,2,100,1019,1417,3979,37712,,,
575488,8,107.669878,23.125724,百朝社区居委会,,450123,0771,450123101002,220,,,,,,,,,2,100,1019,1417,3979,37712,,,
575489,8,107.669878,23.125724,光明村委会,,450123,0771,450123101201,122,,,,,,,,,2,100,1019,1417,3979,37712,,,
575490,8,107.669878,23.125724,三宝村委会,,450123,0771,450123101202,220,,,,,,,,,2,100,1019,1417,3979,37712,,,
575491,8,107.669878,23.125724,大同村委会,,450123,0771,450123101203,220,,,,,,,,,2,100,1019,1417,3979,37712,,,
575492,8,107.669878,23.125724,望朝村委会,,450123,0771,450123101204,220,,,,,,,,,2,100,1019,1417,3979,37712,,,
575493,8,107.669878,23.125724,南兴村委会,,450123,0771,450123101205,220,,,,,,,,,2,100,1019,1417,3979,37712,,,
575494,8,107.669878,23.125724,多林村委会,,450123,0771,450123101206,220,,,,,,,,,2,100,1019,1417,3979,37712,,,
575495,8,107.669878,23.125724,四联村委会,,450123,0771,450123101207,220,,,,,,,,,2,100,1019,1417,3979,37712,,,
575496,8,107.669878,23.125724,帮宁村委会,,450123,0771,450123101208,220,,,,,,,,,2,100,1019,1417,3979,37712,,,
575497,8,107.669878,23.125724,古信村委会,,450123,0771,450123101209,220,,,,,,,,,2,100,1019,1417,3979,37712,,,
575498,8,107.669878,23.125724,灵利村委会,,450123,0771,450123101210,220,,,,,,,,,2,100,1019,1417,3979,37712,,,
575499,8,107.721641,23.140815,连安村委会,,450123,0771,450123101211,220,,,,,,,,,2,100,1019,1417,3979,37712,,,
575500,8,107.669878,23.125724,万朗村委会,,450123,0771,450123101212,220,,,,,,,,,2,100,1019,1417,3979,37712,,,
575501,8,107.669878,23.125724,联造村委会,,450123,0771,450123101213,220,,,,,,,,,2,100,1019,1417,3979,37712,,,
575502,8,107.669878,23.125724,那湾村委会,,450123,0771,450123101214,220,,,,,,,,,2,100,1019,1417,3979,37712,,,
575503,8,107.669878,23.125724,西安村委会,,450123,0771,450123101215,220,,,,,,,,,2,100,1019,1417,3979,37712,,,
575504,8,107.669878,23.125724,爱华村委会,,450123,0771,450123101216,220,,,,,,,,,2,100,1019,1417,3979,37712,,,
575505,8,107.669878,23.125724,銮正村委会,,450123,0771,450123101217,220,,,,,,,,,2,100,1019,1417,3979,37712,,,
575506,8,107.669878,23.125724,联伍村委会,,450123,0771,450123101218,220,,,,,,,,,2,100,1019,1417,3979,37712,,,
575507,8,107.638843,23.268244,雁江社区居委会,,450123,0771,450123102001,121,,,,,,,,,2,100,1019,1417,3979,37713,,,
575508,8,107.638843,23.268244,红良村委会,,450123,0771,450123102201,122,,,,,,,,,2,100,1019,1417,3979,37713,,,
575509,8,107.638843,23.268244,福颜村委会,,450123,0771,450123102202,220,,,,,,,,,2,100,1019,1417,3979,37713,,,
575510,8,107.638843,23.268244,和济村委会,,450123,0771,450123102203,220,,,,,,,,,2,100,1019,1417,3979,37713,,,
575511,8,107.638843,23.268244,联隆村委会,,450123,0771,450123102204,220,,,,,,,,,2,100,1019,1417,3979,37713,,,
575512,8,107.60919,23.23632,龙庄村委会,,450123,0771,450123102205,220,,,,,,,,,2,100,1019,1417,3979,37713,,,
575513,8,107.623545,23.224961,那朗村委会,,450123,0771,450123102206,220,,,,,,,,,2,100,1019,1417,3979,37713,,,
575514,8,107.638843,23.268244,东义村委会,,450123,0771,450123102207,220,,,,,,,,,2,100,1019,1417,3979,37713,,,
575515,8,107.638843,23.268244,东礼村委会,,450123,0771,450123102208,220,,,,,,,,,2,100,1019,1417,3979,37713,,,
575516,8,107.638843,23.268244,渌龙村委会,,450123,0771,450123102209,220,,,,,,,,,2,100,1019,1417,3979,37713,,,
575517,8,107.86939,23.0393,那桐社区居委会,,450123,0771,450123103001,121,,,,,,,,,2,100,1019,1417,3979,37714,,,
575518,8,107.867977,23.038431,方村村委会,,450123,0771,450123103201,220,,,,,,,,,2,100,1019,1417,3979,37714,,,
575519,8,107.867977,23.038431,浪湾村委会,,450123,0771,450123103202,220,,,,,,,,,2,100,1019,1417,3979,37714,,,
575520,8,107.867977,23.038431,那元村委会,,450123,0771,450123103203,220,,,,,,,,,2,100,1019,1417,3979,37714,,,
575521,8,107.867977,23.038431,镇流村委会,,450123,0771,450123103204,220,,,,,,,,,2,100,1019,1417,3979,37714,,,
575522,8,107.867977,23.038431,龙江村委会,,450123,0771,450123103205,220,,,,,,,,,2,100,1019,1417,3979,37714,,,
575523,8,107.867977,23.038431,大滕村委会,,450123,0771,450123103206,220,,,,,,,,,2,100,1019,1417,3979,37714,,,
575524,8,107.867977,23.038431,定江村委会,,450123,0771,450123103207,220,,,,,,,,,2,100,1019,1417,3979,37714,,,
575525,8,107.867977,23.038431,那重村委会,,450123,0771,450123103208,220,,,,,,,,,2,100,1019,1417,3979,37714,,,
575526,8,107.8509,23.07873,那门村委会,,450123,0771,450123103209,220,,,,,,,,,2,100,1019,1417,3979,37714,,,
575527,8,107.867977,23.038431,下邓村委会,,450123,0771,450123103210,220,,,,,,,,,2,100,1019,1417,3979,37714,,,
575528,8,107.867977,23.038431,上邓村委会,,450123,0771,450123103211,220,,,,,,,,,2,100,1019,1417,3979,37714,,,
575529,8,107.730496,23.066146,乔建社区居委会,,450123,0771,450123104001,121,,,,,,,,,2,100,1019,1417,3979,37715,,,
575530,8,107.730496,23.066146,太阳升村委会,,450123,0771,450123104202,122,,,,,,,,,2,100,1019,1417,3979,37715,,,
575531,8,107.730496,23.066146,培正村委会,,450123,0771,450123104203,220,,,,,,,,,2,100,1019,1417,3979,37715,,,
575532,8,107.730496,23.066146,龙扶村委会,,450123,0771,450123104204,220,,,,,,,,,2,100,1019,1417,3979,37715,,,
575533,8,107.730496,23.066146,龙弟村委会,,450123,0771,450123104205,220,,,,,,,,,2,100,1019,1417,3979,37715,,,
575534,8,107.730496,23.066146,龙念村委会,,450123,0771,450123104206,220,,,,,,,,,2,100,1019,1417,3979,37715,,,
575535,8,107.730496,23.066146,鹭鸶村委会,,450123,0771,450123104207,220,,,,,,,,,2,100,1019,1417,3979,37715,,,
575536,8,107.730496,23.066146,慕恭村委会,,450123,0771,450123104208,220,,,,,,,,,2,100,1019,1417,3979,37715,,,
575537,8,107.730496,23.066146,儒浩村委会,,450123,0771,450123104209,220,,,,,,,,,2,100,1019,1417,3979,37715,,,
575538,8,107.730496,23.066146,新都村委会,,450123,0771,450123104210,220,,,,,,,,,2,100,1019,1417,3979,37715,,,
575539,8,107.730496,23.066146,博浪村委会,,450123,0771,450123104211,220,,,,,,,,,2,100,1019,1417,3979,37715,,,
575540,8,107.72521,23.041089,廷罗村委会,,450123,0771,450123104212,220,,,,,,,,,2,100,1019,1417,3979,37715,,,
575541,8,107.730496,23.066146,罗村村委会,,450123,0771,450123104213,220,,,,,,,,,2,100,1019,1417,3979,37715,,,
575542,8,107.730496,23.066146,新光村委会,,450123,0771,450123104214,220,,,,,,,,,2,100,1019,1417,3979,37715,,,
575543,8,107.730496,23.066146,龙尧村委会,,450123,0771,450123104215,220,,,,,,,,,2,100,1019,1417,3979,37715,,,
575544,8,107.96949,23.1247,丁当社区居委会,,450123,0771,450123105001,121,,,,,,,,,2,100,1019,1417,3979,37716,,,
575545,8,107.968902,23.124184,俭安村委会,,450123,0771,450123105201,220,,,,,,,,,2,100,1019,1417,3979,37716,,,
575546,8,107.968902,23.124184,英敏村委会,,450123,0771,450123105202,220,,,,,,,,,2,100,1019,1417,3979,37716,,,
575547,8,107.968902,23.124184,定坤村委会,,450123,0771,450123105203,220,,,,,,,,,2,100,1019,1417,3979,37716,,,
575548,8,107.968902,23.124184,华岳村委会,,450123,0771,450123105204,220,,,,,,,,,2,100,1019,1417,3979,37716,,,
575549,8,107.968902,23.124184,乔联村委会,,450123,0771,450123105205,220,,,,,,,,,2,100,1019,1417,3979,37716,,,
575550,8,107.968902,23.124184,红阳村委会,,450123,0771,450123105206,220,,,,,,,,,2,100,1019,1417,3979,37716,,,
575551,8,107.968902,23.124184,保湾村委会,,450123,0771,450123105207,220,,,,,,,,,2,100,1019,1417,3979,37716,,,
575552,8,107.968902,23.124184,白马村委会,,450123,0771,450123105208,220,,,,,,,,,2,100,1019,1417,3979,37716,,,
575553,8,107.968902,23.124184,联合村委会,,450123,0771,450123105209,220,,,,,,,,,2,100,1019,1417,3979,37716,,,
575554,8,107.968902,23.124184,森岭村委会,,450123,0771,450123105210,220,,,,,,,,,2,100,1019,1417,3979,37716,,,
575555,8,107.777026,22.981095,古潭社区居委会,,450123,0771,450123201001,210,,,,,,,,,2,100,1019,1417,3979,37717,,,
575556,8,107.774596,22.983087,马村村委会,,450123,0771,450123201201,220,,,,,,,,,2,100,1019,1417,3979,37717,,,
575557,8,107.774596,22.983087,中真村委会,,450123,0771,450123201202,220,,,,,,,,,2,100,1019,1417,3979,37717,,,
575558,8,107.774596,22.983087,定军村委会,,450123,0771,450123201203,220,,,,,,,,,2,100,1019,1417,3979,37717,,,
575559,8,107.769347,22.987043,育英村委会,,450123,0771,450123201204,220,,,,,,,,,2,100,1019,1417,3979,37717,,,
575560,8,107.742562,22.986252,振义村委会,,450123,0771,450123201205,220,,,,,,,,,2,100,1019,1417,3979,37717,,,
575561,8,107.774596,22.983087,九甲村委会,,450123,0771,450123201206,220,,,,,,,,,2,100,1019,1417,3979,37717,,,
575562,8,107.470848,23.188988,都结社区居委会,,450123,0771,450123203001,210,,,,,,,,,2,100,1019,1417,3979,37718,,,
575563,8,107.470848,23.188988,三乐村委会,,450123,0771,450123203201,220,,,,,,,,,2,100,1019,1417,3979,37718,,,
575564,8,107.470848,23.188988,天隆村委会,,450123,0771,450123203202,220,,,,,,,,,2,100,1019,1417,3979,37718,,,
575565,8,107.470848,23.188988,吉隆村委会,,450123,0771,450123203203,220,,,,,,,,,2,100,1019,1417,3979,37718,,,
575566,8,107.470848,23.188988,林利村委会,,450123,0771,450123203204,220,,,,,,,,,2,100,1019,1417,3979,37718,,,
575567,8,107.470848,23.188988,陆连村委会,,450123,0771,450123203205,220,,,,,,,,,2,100,1019,1417,3979,37718,,,
575568,8,107.470848,23.188988,荣朋村委会,,450123,0771,450123203206,220,,,,,,,,,2,100,1019,1417,3979,37718,,,
575569,8,107.470848,23.188988,平荣村委会,,450123,0771,450123203207,220,,,,,,,,,2,100,1019,1417,3979,37718,,,
575570,8,107.470848,23.188988,平养村委会,,450123,0771,450123203208,220,,,,,,,,,2,100,1019,1417,3979,37718,,,
575571,8,107.470848,23.188988,达利村委会,,450123,0771,450123203209,220,,,,,,,,,2,100,1019,1417,3979,37718,,,
575572,8,107.470848,23.188988,念潭村委会,,450123,0771,450123203210,220,,,,,,,,,2,100,1019,1417,3979,37718,,,
575573,8,107.470848,23.188988,欧里村委会,,450123,0771,450123203211,220,,,,,,,,,2,100,1019,1417,3979,37718,,,
575574,8,107.470848,23.188988,陇选村委会,,450123,0771,450123203212,220,,,,,,,,,2,100,1019,1417,3979,37718,,,
575575,8,107.470848,23.188988,更明村委会,,450123,0771,450123203213,220,,,,,,,,,2,100,1019,1417,3979,37718,,,
575576,8,107.470848,23.188988,龙民村委会,,450123,0771,450123203214,220,,,,,,,,,2,100,1019,1417,3979,37718,,,
575577,8,107.470848,23.188988,陇割村委会,,450123,0771,450123203215,220,,,,,,,,,2,100,1019,1417,3979,37718,,,
575578,8,107.470848,23.188988,同乐村委会,,450123,0771,450123203216,220,,,,,,,,,2,100,1019,1417,3979,37718,,,
575579,8,107.470848,23.188988,红光村委会,,450123,0771,450123203217,220,,,,,,,,,2,100,1019,1417,3979,37718,,,
575580,8,107.470848,23.188988,普权村委会,,450123,0771,450123203218,220,,,,,,,,,2,100,1019,1417,3979,37718,,,
575581,8,107.470848,23.188988,新风村委会,,450123,0771,450123203219,220,,,,,,,,,2,100,1019,1417,3979,37718,,,
575582,8,107.451959,23.093333,布泉社区居委会,,450123,0771,450123204001,210,,,,,,,,,2,100,1019,1417,3979,37719,,,
575583,8,107.451959,23.093333,兴隆村委会,,450123,0771,450123204201,220,,,,,,,,,2,100,1019,1417,3979,37719,,,
575584,8,107.451959,23.093333,岑山村委会,,450123,0771,450123204202,220,,,,,,,,,2,100,1019,1417,3979,37719,,,
575585,8,107.451959,23.093333,高峰村委会,,450123,0771,450123204203,220,,,,,,,,,2,100,1019,1417,3979,37719,,,
575586,8,107.451959,23.093333,新盏村委会,,450123,0771,450123204204,220,,,,,,,,,2,100,1019,1417,3979,37719,,,
