<?xml version="1.0" encoding="UTF-8"?>
<GeographyCodes>
    <GeographyCode  level="全球"  longitude="148.770017" latitude="27.499299" chinese_name="地球" english_name="Earth" continent="地球"     />
    <GeographyCode  level="洲"  longitude="111.23125" latitude="33.47486" chinese_name="亚洲" english_name="Asia" code1="AS" continent="亚洲"     />
    <GeographyCode  level="洲"  longitude="24.918" latitude="54.376174" chinese_name="欧洲" english_name="Europe" code1="EU" continent="欧洲"     />
    <GeographyCode  level="洲"  longitude="27.118551" latitude="8.777388" chinese_name="非洲" english_name="Africa" code1="AF" continent="非洲"     />
    <GeographyCode  level="洲"  longitude="135.406058" latitude="-24.375757" chinese_name="大洋洲" english_name="Oceania" code1="OC" continent="大洋洲"     />
    <GeographyCode  level="洲"  longitude="33.643453" latitude="-74.561146" chinese_name="南极洲" english_name="Antarctica" code1="AT" continent="南极洲"     />
    <GeographyCode  level="洲"  longitude="-104.695554" latitude="59.336138" chinese_name="北美洲" english_name="North America" code1="NA" continent="北美洲"     />
    <GeographyCode  level="洲"  longitude="-60.396237" latitude="-16.81103" chinese_name="南美洲" english_name="South America" code1="SA" continent="南美洲"     />
    <GeographyCode  level="洲"  longitude="149.828482" latitude="23.206392" chinese_name="其它" english_name="Others" continent="其它"     />
    <GeographyCode  level="全球"  longitude="149.828483" latitude="23.206393" chinese_name="全球" english_name="Global" continent="全球"     />
</GeographyCodes>
