dataid,levelid,longitude,latitude,chinese_name,english_name,code1,code2,code3,code4,code5,alias1,alias2,alias3,alias4,alias5,area,population,continentid,countryid,provinceid,cityid,countyid,townid,villageid,buildingid,comments
225117,8,125.3478,43.855655,华阳社区,,220102,0431,220102001001,111,,,,,,,,,2,100,1006,1251,2555,17315,,,
225118,8,125.327101,43.844634,恒安社区,,220102,0431,220102001002,111,,,,,,,,,2,100,1006,1251,2555,17315,,,
225119,8,125.34854,43.858403,百屹社区,,220102,0431,220102001003,111,,,,,,,,,2,100,1006,1251,2555,17315,,,
225120,8,125.330032,43.89444,北安社区,,220102,0431,220102002001,111,,,,,,,,,2,100,1006,1251,2555,17316,,,
225121,8,125.333191,43.892881,重庆路北社区,,220102,0431,220102002002,111,,,,,,,,,2,100,1006,1251,2555,17316,,,
225122,8,125.328424,43.890699,重庆路南社区,,220102,0431,220102002004,111,,,,,,,,,2,100,1006,1251,2555,17316,,,
225123,8,125.331627,43.888467,自强社区,,220102,0431,220102002005,111,,,,,,,,,2,100,1006,1251,2555,17316,,,
225124,8,125.33137,43.884233,庆利社区,,220102,0431,220102002006,111,,,,,,,,,2,100,1006,1251,2555,17316,,,
225125,8,125.338819,43.886416,健康胡同社区,,220102,0431,220102003001,111,,,,,,,,,2,100,1006,1251,2555,17317,,,
225126,8,125.343003,43.881363,九圣祠社区,,220102,0431,220102003002,111,,,,,,,,,2,100,1006,1251,2555,17317,,,
225127,8,125.337622,43.879911,园东路社区,,220102,0431,220102003003,111,,,,,,,,,2,100,1006,1251,2555,17317,,,
225128,8,125.330621,43.879915,西门里社区,,220102,0431,220102003004,111,,,,,,,,,2,100,1006,1251,2555,17317,,,
225129,8,125.332343,43.895422,通顺社区,,220102,0431,220102004001,111,,,,,,,,,2,100,1006,1251,2555,17318,,,
225130,8,125.337924,43.899771,松竹梅社区,,220102,0431,220102004002,111,,,,,,,,,2,100,1006,1251,2555,17318,,,
225131,8,125.340404,43.897277,永长社区,,220102,0431,220102004003,111,,,,,,,,,2,100,1006,1251,2555,17318,,,
225132,8,125.335749,43.900656,永春社区,,220102,0431,220102004004,111,,,,,,,,,2,100,1006,1251,2555,17318,,,
225133,8,125.342019,43.89371,和平社区,,220102,0431,220102004006,111,,,,,,,,,2,100,1006,1251,2555,17318,,,
225134,8,125.34513,43.901356,光复路南社区,,220103,0431,220102005001,111,,,,,,,,,2,100,1006,1251,2555,17319,,,
225135,8,125.352225,43.901318,清真寺社区,,220103,0431,220102005002,111,,,,,,,,,2,100,1006,1251,2555,17319,,,
225136,8,125.35561,43.896504,东大社区,,220102,0431,220102005003,111,,,,,,,,,2,100,1006,1251,2555,17319,,,
225137,8,125.342528,43.899167,龙兴社区,,220102,0431,220102005004,111,,,,,,,,,2,100,1006,1251,2555,17319,,,
225138,8,125.359053,43.90448,东莱南社区,,220103,0431,220102005005,111,,,,,,,,,2,100,1006,1251,2555,17319,,,
225139,8,125.353615,43.905888,永宁社区,,220103,0431,220102005006,111,,,,,,,,,2,100,1006,1251,2555,17319,,,
225140,8,125.350173,43.863989,东安村委会,,220102,0431,220102005200,111,,,,,,,,,2,100,1006,1251,2555,17319,,,
225141,8,125.339685,43.890095,长大社区,,220102,0431,220102006001,111,,,,,,,,,2,100,1006,1251,2555,17320,,,
225142,8,125.342131,43.887038,财神庙社区,,220102,0431,220102006002,111,,,,,,,,,2,100,1006,1251,2555,17320,,,
225143,8,125.344667,43.888433,天利南社区,,220102,0431,220102006003,111,,,,,,,,,2,100,1006,1251,2555,17320,,,
225144,8,125.349687,43.879749,全安广场社区,,220102,0431,220102006004,111,,,,,,,,,2,100,1006,1251,2555,17320,,,
225145,8,125.346591,43.887647,天乐胡同社区,,220102,0431,220102006005,111,,,,,,,,,2,100,1006,1251,2555,17320,,,
225146,8,125.344938,43.884972,塘子胡同社区,,220102,0431,220102006006,111,,,,,,,,,2,100,1006,1251,2555,17320,,,
225147,8,125.328501,43.873503,岳阳社区,,220102,0431,220102007001,111,,,,,,,,,2,100,1006,1251,2555,17321,,,
225148,8,125.334501,43.874018,平阳社区,,220102,0431,220102007002,111,,,,,,,,,2,100,1006,1251,2555,17321,,,
225149,8,125.329255,43.876823,电力社区,,220102,0431,220102007003,111,,,,,,,,,2,100,1006,1251,2555,17321,,,
225150,8,125.327603,43.87051,师大东电社区,,220102,0431,220102007004,111,,,,,,,,,2,100,1006,1251,2555,17321,,,
225151,8,125.338668,43.872867,珲春社区,,220102,0431,220102007005,111,,,,,,,,,2,100,1006,1251,2555,17321,,,
225152,8,125.353606,43.872161,南泉社区,,220102,0431,220102008001,111,,,,,,,,,2,100,1006,1251,2555,17322,,,
225153,8,125.353523,43.867484,职工新村社区,,220102,0431,220102008002,111,,,,,,,,,2,100,1006,1251,2555,17322,,,
225154,8,125.350475,43.86966,自由大路社区,,220102,0431,220102008003,111,,,,,,,,,2,100,1006,1251,2555,17322,,,
225155,8,125.344146,43.875354,吉顺社区,,220102,0431,220102008004,111,,,,,,,,,2,100,1006,1251,2555,17322,,,
225156,8,125.345116,43.879166,全安小区社区,,220102,0431,220102008005,111,,,,,,,,,2,100,1006,1251,2555,17322,,,
225157,8,125.345055,43.87598,平泉社区,,220102,0431,220102008006,111,,,,,,,,,2,100,1006,1251,2555,17322,,,
225158,8,125.353457,43.891193,桃源社区,,220102,0431,220102009001,111,,,,,,,,,2,100,1006,1251,2555,17323,,,
225159,8,125.355907,43.884958,滨河社区,,220105,0431,220102009002,111,,,,,,,,,2,100,1006,1251,2555,17323,,,
225160,8,125.349056,43.894856,长源社区,,220102,0431,220102009003,111,,,,,,,,,2,100,1006,1251,2555,17323,,,
225161,8,125.35203,43.892186,春源社区,,220102,0431,220102009004,111,,,,,,,,,2,100,1006,1251,2555,17323,,,
225162,8,125.349365,43.894533,文庙社区,,220102,0431,220102009005,111,,,,,,,,,2,100,1006,1251,2555,17323,,,
225163,8,125.353553,43.853182,伊水社区,,220102,0431,220102010001,111,,,,,,,,,2,100,1006,1251,2555,17324,,,
225164,8,125.349505,43.85907,鹏程社区,,220102,0431,220102010002,111,,,,,,,,,2,100,1006,1251,2555,17324,,,
225165,8,125.353658,43.835904,东风社区,,220102,0431,220102010003,111,,,,,,,,,2,100,1006,1251,2555,17324,,,
225166,8,125.349149,43.836957,达兴社区,,220102,0431,220102010004,111,,,,,,,,,2,100,1006,1251,2555,17324,,,
225167,8,125.332621,43.836642,繁荣社区,,220102,0431,220102010005,111,,,,,,,,,2,100,1006,1251,2555,17324,,,
225168,8,125.33796,43.84831,东风村委会,,220102,0431,220102010200,111,,,,,,,,,2,100,1006,1251,2555,17324,,,
225169,8,125.338209,43.831605,明珠社区,,220102,0431,220102011001,111,,,,,,,,,2,100,1006,1251,2555,17325,,,
225170,8,125.315494,43.8245,新城社区,,220102,0431,220102011002,111,,,,,,,,,2,100,1006,1251,2555,17325,,,
225171,8,125.3005,43.799561,佳园社区,,220102,0431,220102011004,111,,,,,,,,,2,100,1006,1251,2555,17325,,,
225172,8,125.307243,43.821057,新里社区,,220102,0431,220102011005,111,,,,,,,,,2,100,1006,1251,2555,17325,,,
225173,8,125.299176,43.79037,光明村委会,,220102,0431,220102011200,112,,,,,,,,,2,100,1006,1251,2555,17325,,,
225174,8,125.314973,43.824171,黑嘴子村委会,,220102,0431,220102011201,112,,,,,,,,,2,100,1006,1251,2555,17325,,,
225175,8,125.360375,43.815142,中海南溪社区,,220102,0431,220102012001,111,,,,,,,,,2,100,1006,1251,2555,17326,,,
225176,8,125.360514,43.815352,环城社区,,220102,0431,220102012002,111,,,,,,,,,2,100,1006,1251,2555,17326,,,
225177,8,125.364369,43.807614,富裕村委会,,220102,0431,220102012200,112,,,,,,,,,2,100,1006,1251,2555,17326,,,
225178,8,125.276963,43.788321,惠民嘉苑社区,,220102,0431,220102200001,111,,,,,,,,,2,100,1006,1251,2555,17327,,,
225179,8,125.276963,43.788321,八一社区,,220102,0431,220102200002,111,,,,,,,,,2,100,1006,1251,2555,17327,,,
225180,8,125.276963,43.788321,国信社区,,220102,0431,220102200003,111,,,,,,,,,2,100,1006,1251,2555,17327,,,
225181,8,125.294791,43.795213,八一村委会,,220102,0431,220102200201,111,,,,,,,,,2,100,1006,1251,2555,17327,,,
225182,8,125.276963,43.788321,红嘴子村委会,,220102,0431,220102200203,112,,,,,,,,,2,100,1006,1251,2555,17327,,,
225183,8,125.330528,43.900787,贵阳街社区,,220103,0431,220103001001,111,,,,,,,,,2,100,1006,1251,2556,17328,,,
225184,8,125.333229,43.90196,上海路社区,,220103,0431,220103001002,111,,,,,,,,,2,100,1006,1251,2556,17328,,,
225185,8,125.32929,43.906164,长江路社区,,220103,0431,220103002001,111,,,,,,,,,2,100,1006,1251,2556,17329,,,
225186,8,125.3199,43.90744,丹东路社区,,220103,0431,220103002002,111,,,,,,,,,2,100,1006,1251,2556,17329,,,
225187,8,125.318127,43.906756,北京大街社区,,220103,0431,220103002003,111,,,,,,,,,2,100,1006,1251,2556,17329,,,
225188,8,125.316806,43.906979,西三条社区,,220103,0431,220103002004,111,,,,,,,,,2,100,1006,1251,2556,17329,,,
225189,8,125.316702,43.907055,白菊路社区,,220103,0431,220103002006,111,,,,,,,,,2,100,1006,1251,2556,17329,,,
225190,8,125.305352,43.904186,辽宁路社区,,220103,0431,220103002007,111,,,,,,,,,2,100,1006,1251,2556,17329,,,
225191,8,125.31096,43.904411,拥军大院社区,,220103,0431,220103002008,111,,,,,,,,,2,100,1006,1251,2556,17329,,,
225192,8,125.328905,43.90581,长江路省级电脑科技商品经营开发区（特殊社区）,,220103,0431,220103002100,111,,,,,,,,,2,100,1006,1251,2556,17329,,,
225193,8,125.336496,43.906474,东四条街社区,,220103,0431,220103003001,111,,,,,,,,,2,100,1006,1251,2556,17330,,,
225194,8,125.332353,43.908006,东二条街社区,,220103,0431,220103003003,111,,,,,,,,,2,100,1006,1251,2556,17330,,,
225195,8,125.347309,43.908178,黄河路南社区,,220103,0431,220103004001,111,,,,,,,,,2,100,1006,1251,2556,17331,,,
225196,8,125.346972,43.90795,黄河路北社区,,220103,0431,220103004002,111,,,,,,,,,2,100,1006,1251,2556,17331,,,
225197,8,125.352544,43.917081,鞍山路社区,,220103,0431,220103005001,111,,,,,,,,,2,100,1006,1251,2556,17332,,,
225198,8,125.317577,43.924224,长盛社区,,220103,0431,220103005002,111,,,,,,,,,2,100,1006,1251,2556,17332,,,
225199,8,125.312211,43.912053,西道口社区,,220103,0431,220103005003,111,,,,,,,,,2,100,1006,1251,2556,17332,,,
225200,8,125.329805,43.91444,北站社区,,220103,0431,220103005004,111,,,,,,,,,2,100,1006,1251,2556,17332,,,
225201,8,125.339349,43.914116,北七条社区,,220103,0431,220103005005,111,,,,,,,,,2,100,1006,1251,2556,17332,,,
225202,8,125.342132,43.938748,宏波路社区,,220103,0431,220103006001,111,,,,,,,,,2,100,1006,1251,2556,17333,,,
225203,8,125.342836,43.936996,天安街社区,,220103,0431,220103006002,111,,,,,,,,,2,100,1006,1251,2556,17333,,,
225204,8,125.342836,43.936996,天章路社区,,220103,0431,220103006003,111,,,,,,,,,2,100,1006,1251,2556,17333,,,
225205,8,125.346338,43.922387,双利社区,,220103,0431,220103006004,111,,,,,,,,,2,100,1006,1251,2556,17333,,,
225206,8,125.342836,43.936996,九江路社区,,220103,0431,220103006005,111,,,,,,,,,2,100,1006,1251,2556,17333,,,
225207,8,125.345295,43.927586,光明社区,,220103,0431,220103006006,111,,,,,,,,,2,100,1006,1251,2556,17333,,,
225208,8,125.329046,43.942413,庆丰社区,,220103,0431,220103006008,111,,,,,,,,,2,100,1006,1251,2556,17333,,,
225209,8,125.335972,43.943846,富城社区,,220103,0431,220103006009,111,,,,,,,,,2,100,1006,1251,2556,17333,,,
225210,8,125.341422,43.941279,新村社区,,220103,0431,220103006010,111,,,,,,,,,2,100,1006,1251,2556,17333,,,
225211,8,125.334678,43.92378,天波社区,,220103,0431,220103006011,111,,,,,,,,,2,100,1006,1251,2556,17333,,,
225212,8,125.342836,43.936996,上台子村委会,,220103,0431,220103006200,112,,,,,,,,,2,100,1006,1251,2556,17333,,,
225213,8,125.313358,43.93069,凯旋路社区,,220103,0431,220103007001,111,,,,,,,,,2,100,1006,1251,2556,17334,,,
225214,8,125.32181,43.92534,一匡街社区,,220103,0431,220103007002,111,,,,,,,,,2,100,1006,1251,2556,17334,,,
225215,8,125.327818,43.929655,三辅街社区,,220103,0431,220103007003,111,,,,,,,,,2,100,1006,1251,2556,17334,,,
225216,8,125.320677,43.941589,一心街社区,,220103,0431,220103007004,111,,,,,,,,,2,100,1006,1251,2556,17334,,,
225217,8,125.327924,43.935628,永盛街社区,,220103,0431,220103007005,111,,,,,,,,,2,100,1006,1251,2556,17334,,,
225218,8,125.319563,43.931179,奋进村委会,,220103,0431,220103007200,112,,,,,,,,,2,100,1006,1251,2556,17334,,,
225219,8,125.35541,43.928493,福山路社区,,220103,0431,220103008001,111,,,,,,,,,2,100,1006,1251,2556,17335,,,
225220,8,125.353871,43.92886,银山路社区,,220103,0431,220103008002,111,,,,,,,,,2,100,1006,1251,2556,17335,,,
225221,8,125.353404,43.932103,长山花园社区,,220103,0431,220103008003,111,,,,,,,,,2,100,1006,1251,2556,17335,,,
225222,8,125.357676,43.938571,龙山路社区,,220103,0431,220103008004,111,,,,,,,,,2,100,1006,1251,2556,17335,,,
225223,8,125.352405,43.941324,首山路社区,,220103,0431,220103008005,111,,,,,,,,,2,100,1006,1251,2556,17335,,,
225224,8,125.344865,43.946969,小南街社区,,220103,0431,220103008006,111,,,,,,,,,2,100,1006,1251,2556,17335,,,
225225,8,125.354998,43.93233,天朗社区,,220103,0431,220103008007,111,,,,,,,,,2,100,1006,1251,2556,17335,,,
225226,8,125.354998,43.93233,团山街社区,,220103,0431,220103008008,111,,,,,,,,,2,100,1006,1251,2556,17335,,,
225227,8,125.334928,43.959798,小南村委会,,220103,0431,220103008200,112,,,,,,,,,2,100,1006,1251,2556,17335,,,
225228,8,125.304357,43.943524,菜市北街社区,,220103,0431,220103009001,111,,,,,,,,,2,100,1006,1251,2556,17336,,,
225229,8,125.308333,43.946986,宋家路社区,,220103,0431,220103009002,111,,,,,,,,,2,100,1006,1251,2556,17336,,,
225230,8,125.305117,43.944503,榆树北街社区,,220103,0431,220103009003,111,,,,,,,,,2,100,1006,1251,2556,17336,,,
225231,8,125.301381,43.93869,富丰路社区,,220103,0431,220103009004,111,,,,,,,,,2,100,1006,1251,2556,17336,,,
225232,8,125.2903,43.937439,基隆路社区,,220103,0431,220103009005,111,,,,,,,,,2,100,1006,1251,2556,17336,,,
225233,8,125.304642,43.933646,柳江路社区,,220103,0431,220103009006,111,,,,,,,,,2,100,1006,1251,2556,17336,,,
225234,8,125.300313,43.936506,扶余路社区,,220103,0431,220103009007,111,,,,,,,,,2,100,1006,1251,2556,17336,,,
225235,8,125.290657,43.932899,新兴路社区,,220103,0431,220103009008,111,,,,,,,,,2,100,1006,1251,2556,17336,,,
225236,8,125.290327,43.937342,新月路社区,,220103,0431,220103009009,111,,,,,,,,,2,100,1006,1251,2556,17336,,,
225237,8,125.296488,43.941629,农安南街社区,,220103,0431,220103009010,111,,,,,,,,,2,100,1006,1251,2556,17336,,,
225238,8,125.305143,43.944573,新月村委会（新月工业小区）（省级）,,220103,0431,220103009300,111,,,,,,,,,2,100,1006,1251,2556,17336,,,
225239,8,125.290293,43.95547,长安世家社区,,220103,0431,220103010001,111,,,,,,,,,2,100,1006,1251,2556,17337,,,
225240,8,125.308288,43.917712,民生家园社区,,220106,0431,220103010002,111,,,,,,,,,2,100,1006,1251,2556,17337,,,
225241,8,125.326578,43.943614,桐雨社区,,220103,0431,220103010003,111,,,,,,,,,2,100,1006,1251,2556,17337,,,
225242,8,125.326578,43.943614,尚邻社区,,220103,0431,220103010004,111,,,,,,,,,2,100,1006,1251,2556,17337,,,
225243,8,125.31291,43.973681,五星村委会,,220103,0431,220103010200,111,,,,,,,,,2,100,1006,1251,2556,17337,,,
225244,8,125.242718,44.004403,兰家大街居委会,,220103,0431,220103100001,111,,,,,,,,,2,100,1006,1251,2556,17338,,,
225245,8,125.242718,44.004403,东道村委会,,220103,0431,220103100200,220,,,,,,,,,2,100,1006,1251,2556,17338,,,
225246,8,125.242718,44.004403,合隆村委会,,220103,0431,220103100201,220,,,,,,,,,2,100,1006,1251,2556,17338,,,
225247,8,125.242718,44.004403,郭家村委会,,220103,0431,220103100202,220,,,,,,,,,2,100,1006,1251,2556,17338,,,
225248,8,125.242718,44.004403,广宁村委会,,220103,0431,220103100203,220,,,,,,,,,2,100,1006,1251,2556,17338,,,
225249,8,125.226751,44.00023,邵家村委会,,220103,0431,220103100204,220,,,,,,,,,2,100,1006,1251,2556,17338,,,
225250,8,125.242718,44.004403,丛家村委会,,220103,0431,220103100205,112,,,,,,,,,2,100,1006,1251,2556,17338,,,
225251,8,125.331631,43.977574,小城子村委会,,220103,0431,220103100210,220,,,,,,,,,2,100,1006,1251,2556,17338,,,
225252,8,125.279389,43.993265,蔡家村委会,,220103,0431,220103100211,220,,,,,,,,,2,100,1006,1251,2556,17338,,,
225253,8,125.267448,44.001338,邱家村委会,,220103,0431,220103100212,220,,,,,,,,,2,100,1006,1251,2556,17338,,,
225254,8,125.242718,44.004403,马家村委会,,220103,0431,220103100213,220,,,,,,,,,2,100,1006,1251,2556,17338,,,
225255,8,125.206493,43.987084,姜家村委会,,220103,0431,220103100215,220,,,,,,,,,2,100,1006,1251,2556,17338,,,
225256,8,125.242718,44.004403,六马村委会,,220103,0431,220103100216,220,,,,,,,,,2,100,1006,1251,2556,17338,,,
225257,8,125.242718,44.004403,孟家村委会,,220103,0431,220103100217,220,,,,,,,,,2,100,1006,1251,2556,17338,,,
225258,8,125.242718,44.004403,台家村委会,,220103,0431,220103100218,220,,,,,,,,,2,100,1006,1251,2556,17338,,,
225259,8,125.47605,44.129161,工农居委会,,220103,0431,220103101001,122,,,,,,,,,2,100,1006,1251,2556,17339,,,
225260,8,125.47605,44.129161,街东居委会,,220103,0431,220103101002,122,,,,,,,,,2,100,1006,1251,2556,17339,,,
225261,8,125.47605,44.129161,站前居委会,,220103,0431,220103101003,122,,,,,,,,,2,100,1006,1251,2556,17339,,,
225262,8,125.47605,44.129161,仓储居委会,,220103,0431,220103101004,122,,,,,,,,,2,100,1006,1251,2556,17339,,,
225263,8,125.47605,44.129161,街西居委会,,220103,0431,220103101005,121,,,,,,,,,2,100,1006,1251,2556,17339,,,
225264,8,125.47605,44.129161,二三八居委会,,220103,0431,220103101006,220,,,,,,,,,2,100,1006,1251,2556,17339,,,
225265,8,125.47605,44.129161,天吉村委会,,220103,0431,220103101200,220,,,,,,,,,2,100,1006,1251,2556,17339,,,
225266,8,125.47605,44.129161,粱家村委会,,220103,0431,220103101201,220,,,,,,,,,2,100,1006,1251,2556,17339,,,
225267,8,125.47605,44.129161,五家子村委会,,220103,0431,220103101202,220,,,,,,,,,2,100,1006,1251,2556,17339,,,
225268,8,125.47605,44.129161,兴顺村委会,,220103,0431,220103101203,220,,,,,,,,,2,100,1006,1251,2556,17339,,,
225269,8,125.47605,44.129161,四家子村委会,,220103,0431,220103101204,220,,,,,,,,,2,100,1006,1251,2556,17339,,,
225270,8,125.47605,44.129161,跃进村委会,,220103,0431,220103101205,220,,,,,,,,,2,100,1006,1251,2556,17339,,,
225271,8,125.47605,44.129161,太平村委会,,220103,0431,220103101206,220,,,,,,,,,2,100,1006,1251,2556,17339,,,
225272,8,125.475154,44.138497,米沙子村委会,,220103,0431,220103101207,220,,,,,,,,,2,100,1006,1251,2556,17339,,,
225273,8,125.47605,44.129161,江东店村委会,,220103,0431,220103101208,220,,,,,,,,,2,100,1006,1251,2556,17339,,,
225274,8,125.47605,44.129161,铁岭村委会,,220103,0431,220103101209,220,,,,,,,,,2,100,1006,1251,2556,17339,,,
225275,8,125.47605,44.129161,岫岩村委会,,220103,0431,220103101210,220,,,,,,,,,2,100,1006,1251,2556,17339,,,
225276,8,125.47605,44.129161,辰光村委会,,220103,0431,220103101211,220,,,,,,,,,2,100,1006,1251,2556,17339,,,
225277,8,125.47605,44.129161,新华村委会,,220103,0431,220103101212,220,,,,,,,,,2,100,1006,1251,2556,17339,,,
225278,8,125.47605,44.129161,唐仗子村委会,,220103,0431,220103101213,220,,,,,,,,,2,100,1006,1251,2556,17339,,,
225279,8,125.47605,44.129161,干务海村委会,,220103,0431,220103101214,220,,,,,,,,,2,100,1006,1251,2556,17339,,,
225280,8,125.47605,44.129161,站北村委会,,220103,0431,220103101215,220,,,,,,,,,2,100,1006,1251,2556,17339,,,
225281,8,125.47605,44.129161,刘家塘坊村委会,,220103,0431,220103101216,220,,,,,,,,,2,100,1006,1251,2556,17339,,,
225282,8,125.47605,44.129161,于家店村委会,,220103,0431,220103101217,220,,,,,,,,,2,100,1006,1251,2556,17339,,,
225283,8,125.47605,44.129161,兰家村委会,,220103,0431,220103101218,220,,,,,,,,,2,100,1006,1251,2556,17339,,,
225284,8,125.47605,44.129161,姜家村委会,,220103,0431,220103101219,220,,,,,,,,,2,100,1006,1251,2556,17339,,,
225285,8,125.47605,44.129161,广富村委会,,220103,0431,220103101220,220,,,,,,,,,2,100,1006,1251,2556,17339,,,
225286,8,125.47605,44.129161,春元村委会,,220103,0431,220103101221,220,,,,,,,,,2,100,1006,1251,2556,17339,,,
225287,8,125.47605,44.129161,乐元村委会,,220103,0431,220103101222,220,,,,,,,,,2,100,1006,1251,2556,17339,,,
225288,8,125.47605,44.129161,黄家村委会,,220103,0431,220103101223,220,,,,,,,,,2,100,1006,1251,2556,17339,,,
225289,8,125.47605,44.129161,良种场村委会,,220103,0431,220103101224,220,,,,,,,,,2,100,1006,1251,2556,17339,,,
225290,8,125.47605,44.129161,南王家村委会,,220103,0431,220103101226,220,,,,,,,,,2,100,1006,1251,2556,17339,,,
225291,8,125.47605,44.129161,别家村委会,,220103,0431,220103101227,220,,,,,,,,,2,100,1006,1251,2556,17339,,,
225292,8,125.47605,44.129161,高家村委会,,220103,0431,220103101228,220,,,,,,,,,2,100,1006,1251,2556,17339,,,
225293,8,125.47605,44.129161,刘家油房村委会,,220103,0431,220103101229,220,,,,,,,,,2,100,1006,1251,2556,17339,,,
225294,8,125.353482,44.144111,开拓居委会,,220103,0431,220103102001,121,,,,,,,,,2,100,1006,1251,2556,17340,,,
225295,8,125.353482,44.144111,志成居委会,,220103,0431,220103102002,121,,,,,,,,,2,100,1006,1251,2556,17340,,,
225296,8,125.353482,44.144111,发达居委会,,220103,0431,220103102003,121,,,,,,,,,2,100,1006,1251,2556,17340,,,
225297,8,125.353482,44.144111,腾飞居委会,,220103,0431,220103102004,121,,,,,,,,,2,100,1006,1251,2556,17340,,,
225298,8,125.353482,44.144111,万宝村委会,,220103,0431,220103102200,121,,,,,,,,,2,100,1006,1251,2556,17340,,,
225299,8,125.353482,44.144111,前进村委会,,220103,0431,220103102201,220,,,,,,,,,2,100,1006,1251,2556,17340,,,
225300,8,125.353482,44.144111,东升村委会,,220103,0431,220103102202,220,,,,,,,,,2,100,1006,1251,2556,17340,,,
225301,8,125.353482,44.144111,顺山村委会,,220103,0431,220103102203,220,,,,,,,,,2,100,1006,1251,2556,17340,,,
225302,8,125.353482,44.144111,广太村委会,,220103,0431,220103102204,220,,,,,,,,,2,100,1006,1251,2556,17340,,,
225303,8,125.353482,44.144111,刘城村委会,,220103,0431,220103102205,220,,,,,,,,,2,100,1006,1251,2556,17340,,,
225304,8,125.353482,44.144111,万祥村委会,,220103,0431,220103102206,220,,,,,,,,,2,100,1006,1251,2556,17340,,,
225305,8,125.353482,44.144111,善人村委会,,220103,0431,220103102207,220,,,,,,,,,2,100,1006,1251,2556,17340,,,
225306,8,125.353482,44.144111,凡家村委会,,220103,0431,220103102208,220,,,,,,,,,2,100,1006,1251,2556,17340,,,
225307,8,125.353482,44.144111,山西村委会,,220103,0431,220103102209,220,,,,,,,,,2,100,1006,1251,2556,17340,,,
225308,8,125.353482,44.144111,曾家村委会,,220103,0431,220103102210,220,,,,,,,,,2,100,1006,1251,2556,17340,,,
225309,8,125.353482,44.144111,大王家村委会,,220103,0431,220103102211,220,,,,,,,,,2,100,1006,1251,2556,17340,,,
225310,8,125.353482,44.144111,赵家村委会,,220103,0431,220103102212,220,,,,,,,,,2,100,1006,1251,2556,17340,,,
225311,8,125.353482,44.144111,富强村委会,,220103,0431,220103102213,220,,,,,,,,,2,100,1006,1251,2556,17340,,,
225312,8,125.353482,44.144111,欢子台村委会,,220103,0431,220103102214,220,,,,,,,,,2,100,1006,1251,2556,17340,,,
225313,8,125.353482,44.144111,代家村委会,,220103,0431,220103102215,220,,,,,,,,,2,100,1006,1251,2556,17340,,,
225314,8,125.17976,44.061441,合隆居委会（合隆经济开发区）（省级）,,220103,0431,220103171100,121,,,,,,,,,2,100,1006,1251,2556,17341,,,
225315,8,125.181359,44.060011,合心村委会,,220103,0431,220103171200,121,,,,,,,,,2,100,1006,1251,2556,17341,,,
225316,8,125.17976,44.061441,朱家园子村委会（合隆经济开发区）（省级）,,220103,0431,220103171300,122,,,,,,,,,2,100,1006,1251,2556,17341,,,
225317,8,125.17976,44.061441,烧锅局子村委会（合隆经济开发区）（省级）,,220103,0431,220103171301,220,,,,,,,,,2,100,1006,1251,2556,17341,,,
225318,8,125.17976,44.061441,孙家窝堡村委会（合隆经济开发区）（省级）,,220103,0431,220103171302,220,,,,,,,,,2,100,1006,1251,2556,17341,,,
225319,8,125.17976,44.061441,迎新村委会（合隆经济开发区）（省级）,,220103,0431,220103171303,220,,,,,,,,,2,100,1006,1251,2556,17341,,,
225320,8,125.17976,44.061441,邓家屯村委会（合隆经济开发区）（省级）,,220103,0431,220103171304,220,,,,,,,,,2,100,1006,1251,2556,17341,,,
225321,8,125.17976,44.061441,白家营子村委会（合隆经济开发区）（省级）,,220103,0431,220103171305,220,,,,,,,,,2,100,1006,1251,2556,17341,,,
225322,8,125.17976,44.061441,谭家屯村委会（合隆经济开发区）（省级）,,220103,0431,220103171306,122,,,,,,,,,2,100,1006,1251,2556,17341,,,
225323,8,125.17976,44.061441,陈家店村委会（合隆经济开发区）（省级）,,220103,0431,220103171307,220,,,,,,,,,2,100,1006,1251,2556,17341,,,
225324,8,125.17976,44.061441,放牛窝堡村委会（合隆经济开发区）（省级）,,220103,0431,220103171308,220,,,,,,,,,2,100,1006,1251,2556,17341,,,
225325,8,125.17976,44.061441,烧锅岭村委会（合隆经济开发区）（省级）,,220103,0431,220103171309,220,,,,,,,,,2,100,1006,1251,2556,17341,,,
225326,8,125.17976,44.061441,赵家粉房村委会（合隆经济开发区）（省级）,,220103,0431,220103171310,122,,,,,,,,,2,100,1006,1251,2556,17341,,,
225327,8,125.17976,44.061441,八家子村委会（合隆经济开发区）（省级）,,220103,0431,220103171311,220,,,,,,,,,2,100,1006,1251,2556,17341,,,
225328,8,125.17976,44.061441,韦家窝堡村委会（合隆经济开发区）（省级）,,220103,0431,220103171312,220,,,,,,,,,2,100,1006,1251,2556,17341,,,
225329,8,125.17976,44.061441,战家窝堡村委会（合隆经济开发区）（省级）,,220103,0431,220103171313,220,,,,,,,,,2,100,1006,1251,2556,17341,,,
225330,8,125.207897,44.044241,孙菜园子村委会（合隆经济开发区）（省级）,,220103,0431,220103171314,122,,,,,,,,,2,100,1006,1251,2556,17341,,,
225331,8,125.17976,44.061441,于家店村委会（合隆经济开发区）（省级）,,220103,0431,220103171315,220,,,,,,,,,2,100,1006,1251,2556,17341,,,
225332,8,125.17976,44.061441,国家屯村委会（合隆经济开发区）（省级）,,220103,0431,220103171316,220,,,,,,,,,2,100,1006,1251,2556,17341,,,
225333,8,125.17976,44.061441,红星村委会（合隆经济开发区）（省级）,,220103,0431,220103171317,220,,,,,,,,,2,100,1006,1251,2556,17341,,,
225334,8,125.17976,44.061441,谷家岭村委会（合隆经济开发区）（省级）,,220103,0431,220103171318,220,,,,,,,,,2,100,1006,1251,2556,17341,,,
225335,8,125.274357,43.849974,东田社区,,220104,0431,220104001001,111,,,,,,,,,2,100,1006,1251,2557,17342,,,
225336,8,125.254194,43.845337,孟家社区,,220104,0431,220104001002,111,,,,,,,,,2,100,1006,1251,2557,17342,,,
225337,8,125.284505,43.843998,东光社区,,220104,0431,220104001003,111,,,,,,,,,2,100,1006,1251,2557,17342,,,
225338,8,125.288319,43.833513,吉福社区,,220104,0431,220104001004,111,,,,,,,,,2,100,1006,1251,2557,17342,,,
225339,8,125.31918,43.856667,湖光社区,,220104,0431,220104001005,111,,,,,,,,,2,100,1006,1251,2557,17342,,,
225340,8,125.286836,43.840216,宇光社区,,220104,0431,220104001006,111,,,,,,,,,2,100,1006,1251,2557,17342,,,
225341,8,125.268415,43.847813,华宇社区,,220104,0431,220104001007,111,,,,,,,,,2,100,1006,1251,2557,17342,,,
225342,8,125.288319,43.833513,文苑社区,,220104,0431,220104001008,111,,,,,,,,,2,100,1006,1251,2557,17342,,,
225343,8,125.313046,43.865431,西康路西社区,,220104,0431,220104002001,111,,,,,,,,,2,100,1006,1251,2557,17343,,,
225344,8,125.323078,43.860092,自由大路社区,,220104,0431,220104002002,111,,,,,,,,,2,100,1006,1251,2557,17343,,,
225345,8,125.323355,43.868912,同光路东社区,,220104,0431,220104002003,111,,,,,,,,,2,100,1006,1251,2557,17343,,,
225346,8,125.315873,43.868799,同光路西社区,,220104,0431,220104002004,111,,,,,,,,,2,100,1006,1251,2557,17343,,,
225347,8,125.315539,43.865474,西康路东社区,,220104,0431,220104002005,111,,,,,,,,,2,100,1006,1251,2557,17343,,,
225348,8,125.31918,43.856667,湖光社区,,220104,0431,220104002006,111,,,,,,,,,2,100,1006,1251,2557,17343,,,
225349,8,125.318526,43.85826,科技花园社区,,220104,0431,220104002007,111,,,,,,,,,2,100,1006,1251,2557,17343,,,
225350,8,125.300443,43.84952,湖苑社区,,220104,0431,220104003001,111,,,,,,,,,2,100,1006,1251,2557,17344,,,
225351,8,125.322534,43.846682,湖滨社区,,220104,0431,220104003002,111,,,,,,,,,2,100,1006,1251,2557,17344,,,
225352,8,125.303923,43.84835,湖东社区,,220104,0431,220104003003,111,,,,,,,,,2,100,1006,1251,2557,17344,,,
225353,8,125.305668,43.825294,卫星路社区,,220104,0431,220104003004,111,,,,,,,,,2,100,1006,1251,2557,17344,,,
225354,8,125.297379,43.839335,二二八社区,,220104,0431,220104003005,111,,,,,,,,,2,100,1006,1251,2557,17344,,,
225355,8,125.320963,43.841274,长飞社区,,220104,0431,220104003006,111,,,,,,,,,2,100,1006,1251,2557,17344,,,
225356,8,125.323486,43.854449,光机社区,,220104,0431,220104003007,111,,,,,,,,,2,100,1006,1251,2557,17344,,,
225357,8,125.313145,43.877166,义和社区,,220104,0431,220104004001,111,,,,,,,,,2,100,1006,1251,2557,17345,,,
225358,8,125.320433,43.872938,惠民社区,,220104,0431,220104004003,111,,,,,,,,,2,100,1006,1251,2557,17345,,,
225359,8,125.311023,43.885824,杏花村社区,,220104,0431,220104004005,111,,,,,,,,,2,100,1006,1251,2557,17345,,,
225360,8,125.321383,43.872545,牡丹园社区,,220104,0431,220104004006,111,,,,,,,,,2,100,1006,1251,2557,17345,,,
225361,8,125.311223,43.890615,新华社区,,220104,0431,220104005001,111,,,,,,,,,2,100,1006,1251,2557,17346,,,
225362,8,125.318479,43.891629,北安社区,,220104,0431,220104005002,111,,,,,,,,,2,100,1006,1251,2557,17346,,,
225363,8,125.319914,43.886118,光明社区,,220104,0431,220104005003,111,,,,,,,,,2,100,1006,1251,2557,17346,,,
225364,8,125.31438,43.89213,崇智社区,,220104,0431,220104005004,111,,,,,,,,,2,100,1006,1251,2557,17346,,,
225365,8,125.296406,43.88232,西朝阳社区,,220104,0431,220104006001,111,,,,,,,,,2,100,1006,1251,2557,17347,,,
225366,8,125.297691,43.882932,万宝社区,,220104,0431,220104006002,111,,,,,,,,,2,100,1006,1251,2557,17347,,,
225367,8,125.308222,43.89302,青云社区,,220104,0431,220104006003,111,,,,,,,,,2,100,1006,1251,2557,17347,,,
225368,8,125.299986,43.88843,南昌社区,,220104,0431,220104006004,111,,,,,,,,,2,100,1006,1251,2557,17347,,,
225369,8,125.302979,43.891192,铁路社区,,220104,0431,220104006005,111,,,,,,,,,2,100,1006,1251,2557,17347,,,
225370,8,125.301006,43.892481,普庆社区,,220104,0431,220104006006,111,,,,,,,,,2,100,1006,1251,2557,17347,,,
225371,8,125.292938,43.880168,昌平社区,,220104,0431,220104007001,111,,,,,,,,,2,100,1006,1251,2557,17348,,,
225372,8,125.304108,43.871908,天宝社区,,220104,0431,220104007002,111,,,,,,,,,2,100,1006,1251,2557,17348,,,
225373,8,125.302463,43.870371,富锦社区,,220104,0431,220104007003,111,,,,,,,,,2,100,1006,1251,2557,17348,,,
225374,8,125.30081,43.865616,延安社区,,220104,0431,220104007004,111,,,,,,,,,2,100,1006,1251,2557,17348,,,
225375,8,125.22812,43.83305,大兴社区,,220106,0431,220104007005,111,,,,,,,,,2,100,1006,1251,2557,17348,,,
225376,8,125.296951,43.859578,同德社区,,220104,0431,220104007006,111,,,,,,,,,2,100,1006,1251,2557,17348,,,
225377,8,125.295936,43.871085,德昌社区,,220104,0431,220104007007,111,,,,,,,,,2,100,1006,1251,2557,17348,,,
225378,8,125.287442,43.866218,建工社区,,220104,0431,220104007008,111,,,,,,,,,2,100,1006,1251,2557,17348,,,
225379,8,125.288289,43.874058,开工社区,,220104,0431,220104007009,111,,,,,,,,,2,100,1006,1251,2557,17348,,,
225380,8,125.290428,43.860629,长久路社区,,220104,0431,220104008001,111,,,,,,,,,2,100,1006,1251,2557,17349,,,
225381,8,125.287585,43.855758,宽平大路社区,,220104,0431,220104008002,111,,,,,,,,,2,100,1006,1251,2557,17349,,,
225382,8,125.278492,43.860984,集安路社区,,220104,0431,220104008003,111,,,,,,,,,2,100,1006,1251,2557,17349,,,
225383,8,125.280204,43.867058,进化街社区,,220104,0431,220104008004,111,,,,,,,,,2,100,1006,1251,2557,17349,,,
225384,8,125.266849,43.852994,开运街社区,,220104,0431,220104008006,111,,,,,,,,,2,100,1006,1251,2557,17349,,,
225385,8,125.275154,43.856247,抚松路社区,,220104,0431,220104008007,111,,,,,,,,,2,100,1006,1251,2557,17349,,,
225386,8,125.273159,43.852794,富豪社区,,220104,0431,220104008008,111,,,,,,,,,2,100,1006,1251,2557,17349,,,
225387,8,125.205164,43.79635,范家村委会,,220104,0431,220104009200,220,,,,,,,,,2,100,1006,1251,2557,17350,,,
225388,8,125.205164,43.79635,向阳村委会,,220104,0431,220104009208,111,,,,,,,,,2,100,1006,1251,2557,17350,,,
225389,8,125.213985,43.800616,双山村委会（长春工业经济开发区）（省级）,,220104,0431,220104009305,111,,,,,,,,,2,100,1006,1251,2557,17350,,,
225390,8,125.205164,43.79635,宋家村委会（长春工业经济开发区）（省级）,,220104,0431,220104009306,112,,,,,,,,,2,100,1006,1251,2557,17350,,,
225391,8,125.193176,43.790433,迎新村委会（长春工业经济开发区）（省级）,,220104,0431,220104009307,112,,,,,,,,,2,100,1006,1251,2557,17350,,,
225392,8,125.205164,43.79635,盛家村委会,,220104,0431,220104009308,220,,,,,,,,,2,100,1006,1251,2557,17350,,,
225393,8,125.302328,43.572881,乐山村委会,,220104,0431,220104100200,122,,,,,,,,,2,100,1006,1251,2557,17351,,,
225394,8,125.302328,43.572881,二道村委会,,220104,0431,220104100201,220,,,,,,,,,2,100,1006,1251,2557,17351,,,
225395,8,125.292413,43.480379,长红村委会,,220104,0431,220104100202,220,,,,,,,,,2,100,1006,1251,2557,17351,,,
225396,8,125.302328,43.572881,晓光村委会,,220104,0431,220104100203,220,,,,,,,,,2,100,1006,1251,2557,17351,,,
225397,8,125.30562,43.546155,长胜村委会,,220104,0431,220104100204,220,,,,,,,,,2,100,1006,1251,2557,17351,,,
225398,8,125.302328,43.572881,松林村委会,,220104,0431,220104100205,220,,,,,,,,,2,100,1006,1251,2557,17351,,,
225399,8,125.302328,43.572881,糖坊村委会,,220104,0431,220104100206,220,,,,,,,,,2,100,1006,1251,2557,17351,,,
225400,8,125.302328,43.572881,辛屯村委会,,220104,0431,220104100207,220,,,,,,,,,2,100,1006,1251,2557,17351,,,
225401,8,125.302328,43.572881,杨木村委会,,220104,0431,220104100208,220,,,,,,,,,2,100,1006,1251,2557,17351,,,
225402,8,125.302328,43.572881,莲花村委会,,220104,0431,220104100209,220,,,,,,,,,2,100,1006,1251,2557,17351,,,
225403,8,125.302328,43.572881,兴中村委会,,220104,0431,220104100210,220,,,,,,,,,2,100,1006,1251,2557,17351,,,
225404,8,125.302328,43.572881,长兴村委会,,220104,0431,220104100211,220,,,,,,,,,2,100,1006,1251,2557,17351,,,
225405,8,125.302328,43.572881,华兴村委会,,220104,0431,220104100212,121,,,,,,,,,2,100,1006,1251,2557,17351,,,
225406,8,125.307514,43.737942,长春堡村委会,,220104,0431,220104101200,121,,,,,,,,,2,100,1006,1251,2557,17352,,,
225407,8,125.307514,43.737942,平安村委会,,220104,0431,220104101201,220,,,,,,,,,2,100,1006,1251,2557,17352,,,
225408,8,125.307514,43.737942,向阳村委会,,220104,0431,220104101202,220,,,,,,,,,2,100,1006,1251,2557,17352,,,
225409,8,125.307514,43.737942,长岭子村委会,,220104,0431,220104101203,220,,,,,,,,,2,100,1006,1251,2557,17352,,,
225410,8,125.326567,43.738675,柳家村委会,,220104,0431,220104101204,220,,,,,,,,,2,100,1006,1251,2557,17352,,,
225411,8,125.314449,43.759767,义和村委会,,220104,0431,220104101205,220,,,,,,,,,2,100,1006,1251,2557,17352,,,
225412,8,125.293951,43.709851,农丰村委会,,220104,0431,220104101206,220,,,,,,,,,2,100,1006,1251,2557,17352,,,
225413,8,125.368124,43.871995,鑫旺社区,,220105,0431,220105001001,111,,,,,,,,,2,100,1006,1251,2558,17353,,,
225414,8,125.37347,43.870771,公平社区,,220105,0431,220105001002,111,,,,,,,,,2,100,1006,1251,2558,17353,,,
225415,8,125.381425,43.8863,光荣社区,,220105,0431,220105001003,111,,,,,,,,,2,100,1006,1251,2558,17353,,,
225416,8,125.381508,43.879281,亚泰社区,,220105,0431,220105001004,111,,,,,,,,,2,100,1006,1251,2558,17353,,,
225417,8,125.379337,43.872769,万通社区,,220105,0431,220105001005,111,,,,,,,,,2,100,1006,1251,2558,17353,,,
225418,8,125.367743,43.880547,双安社区,,220105,0431,220105001006,111,,,,,,,,,2,100,1006,1251,2558,17353,,,
225419,8,125.353975,43.88296,沿河社区,,220105,0431,220105002001,111,,,,,,,,,2,100,1006,1251,2558,17354,,,
225420,8,125.366983,43.878684,安乐社区,,220105,0431,220105002002,111,,,,,,,,,2,100,1006,1251,2558,17354,,,
225421,8,125.359353,43.87895,丹阳社区,,220105,0431,220105002003,111,,,,,,,,,2,100,1006,1251,2558,17354,,,
225422,8,125.363317,43.873465,万科社区,,220105,0431,220105002004,111,,,,,,,,,2,100,1006,1251,2558,17354,,,
225423,8,125.3632,43.875109,热电社区,,220105,0431,220105002005,111,,,,,,,,,2,100,1006,1251,2558,17354,,,
225424,8,125.384066,43.884776,民丰社区,,220105,0431,220105003001,111,,,,,,,,,2,100,1006,1251,2558,17355,,,
225425,8,125.387241,43.878606,福安社区,,220105,0431,220105003002,111,,,,,,,,,2,100,1006,1251,2558,17355,,,
225426,8,125.391092,43.868329,宏盛社区,,220105,0431,220105003003,111,,,,,,,,,2,100,1006,1251,2558,17355,,,
225427,8,125.386553,43.870813,兴隆社区,,220105,0431,220105003004,111,,,,,,,,,2,100,1006,1251,2558,17355,,,
225428,8,125.38387,43.872378,岭东社区,,220105,0431,220105003005,111,,,,,,,,,2,100,1006,1251,2558,17355,,,
225429,8,125.390753,43.884879,长拖社区,,220105,0431,220105003006,111,,,,,,,,,2,100,1006,1251,2558,17355,,,
225430,8,125.38832,43.893655,四通社区,,220105,0431,220105003007,111,,,,,,,,,2,100,1006,1251,2558,17355,,,
225431,8,125.385846,43.866382,吉通社区,,220105,0431,220105003008,111,,,,,,,,,2,100,1006,1251,2558,17355,,,
225432,8,125.386515,43.879734,丰泰社区,,220105,0431,220105003009,111,,,,,,,,,2,100,1006,1251,2558,17355,,,
225433,8,125.386338,43.897556,吉星社区,,220105,0431,220105003010,111,,,,,,,,,2,100,1006,1251,2558,17355,,,
225434,8,125.386634,43.870801,同兴社区,,220105,0431,220105003011,111,,,,,,,,,2,100,1006,1251,2558,17355,,,
225435,8,125.355907,43.884958,滨河社区,,220105,0431,220105004001,111,,,,,,,,,2,100,1006,1251,2558,17356,,,
225436,8,125.368076,43.888614,绿安社区,,220105,0431,220105004002,111,,,,,,,,,2,100,1006,1251,2558,17356,,,
225437,8,125.371956,43.88901,吉柴社区,,220105,0431,220105004003,111,,,,,,,,,2,100,1006,1251,2558,17356,,,
225438,8,125.371765,43.895786,东新社区,,220105,0431,220105004004,111,,,,,,,,,2,100,1006,1251,2558,17356,,,
225439,8,125.36828,43.892607,十委社区,,220105,0431,220105004005,111,,,,,,,,,2,100,1006,1251,2558,17356,,,
225440,8,125.381802,43.888449,紫盈社区,,220105,0431,220105004006,111,,,,,,,,,2,100,1006,1251,2558,17356,,,
225441,8,125.380935,43.896003,蓝山社区,,220105,0431,220105004007,111,,,,,,,,,2,100,1006,1251,2558,17356,,,
225442,8,125.378648,43.935213,新苑社区,,220105,0431,220105005001,111,,,,,,,,,2,100,1006,1251,2558,17357,,,
225443,8,125.397354,43.919852,新开社区,,220105,0431,220105005002,111,,,,,,,,,2,100,1006,1251,2558,17357,,,
225444,8,125.397398,43.920164,新泽社区,,220105,0431,220105005004,111,,,,,,,,,2,100,1006,1251,2558,17357,,,
225445,8,125.397398,43.920164,长江村委会,,220105,0431,220105005200,111,,,,,,,,,2,100,1006,1251,2558,17357,,,
225446,8,125.371064,43.923907,同康社区,,220105,0431,220105006001,111,,,,,,,,,2,100,1006,1251,2558,17358,,,
225447,8,125.37998,43.918813,东荣社区,,220105,0431,220105006002,111,,,,,,,,,2,100,1006,1251,2558,17358,,,
225448,8,125.372766,43.919875,泰和社区,,220105,0431,220105006003,111,,,,,,,,,2,100,1006,1251,2558,17358,,,
225449,8,125.386768,43.918147,太有社区,,220105,0431,220105006004,111,,,,,,,,,2,100,1006,1251,2558,17358,,,
225450,8,125.375383,43.940704,康桥社区,,220105,0431,220105006005,111,,,,,,,,,2,100,1006,1251,2558,17358,,,
225451,8,125.374183,43.912123,英俊社区,,220105,0431,220105006006,111,,,,,,,,,2,100,1006,1251,2558,17358,,,
225452,8,125.373291,43.905971,东梅社区,,220105,0431,220105006007,111,,,,,,,,,2,100,1006,1251,2558,17358,,,
225453,8,125.373495,43.902797,东顺社区,,220105,0431,220105006008,111,,,,,,,,,2,100,1006,1251,2558,17358,,,
225454,8,125.372012,43.933987,银竹社区,,220105,0431,220105006009,111,,,,,,,,,2,100,1006,1251,2558,17358,,,
225455,8,125.411217,43.884774,金橄榄社区,,220105,0431,220105007001,111,,,,,,,,,2,100,1006,1251,2558,17359,,,
225456,8,125.422132,43.891689,凯利社区,,220105,0431,220105007002,111,,,,,,,,,2,100,1006,1251,2558,17359,,,
225457,8,125.422132,43.891689,城建社区,,220105,0431,220105007003,111,,,,,,,,,2,100,1006,1251,2558,17359,,,
225458,8,125.421465,43.902547,长青村委会,,220105,0431,220105007200,111,,,,,,,,,2,100,1006,1251,2558,17359,,,
225459,8,125.470344,43.865983,三道居委会,,220105,0431,220105100001,111,,,,,,,,,2,100,1006,1251,2558,17360,,,
225460,8,125.470344,43.865983,和平村委会,,220105,0431,220105100200,112,,,,,,,,,2,100,1006,1251,2558,17360,,,
225461,8,125.49374,43.915788,卫星村委会,,220105,0431,220105100201,111,,,,,,,,,2,100,1006,1251,2558,17360,,,
225462,8,125.52204,43.919163,四合村委会,,220105,0431,220105100202,112,,,,,,,,,2,100,1006,1251,2558,17360,,,
225463,8,125.470344,43.865983,香水村委会,,220105,0431,220105100203,112,,,,,,,,,2,100,1006,1251,2558,17360,,,
225464,8,125.435089,43.928983,苇子村委会,,220105,0431,220105100205,112,,,,,,,,,2,100,1006,1251,2558,17360,,,
225465,8,125.548588,43.861477,胡家村委会,,220105,0431,220105100208,122,,,,,,,,,2,100,1006,1251,2558,17360,,,
225466,8,125.699561,43.805632,钱家村委会,,220105,0431,220105173200,220,,,,,,,,,2,100,1006,1251,2558,17361,,,
225467,8,125.653733,43.818835,四刘村委会,,220105,0431,220105173201,220,,,,,,,,,2,100,1006,1251,2558,17361,,,
225468,8,125.699561,43.805632,同心村委会,,220105,0431,220105173202,220,,,,,,,,,2,100,1006,1251,2558,17361,,,
225469,8,125.686311,43.810529,兰家村委会,,220105,0431,220105173203,220,,,,,,,,,2,100,1006,1251,2558,17361,,,
225470,8,125.643626,43.812114,腰站村委会,,220105,0431,220105173204,220,,,,,,,,,2,100,1006,1251,2558,17361,,,
225471,8,125.699561,43.805632,龙王村委会,,220105,0431,220105173205,220,,,,,,,,,2,100,1006,1251,2558,17361,,,
225472,8,125.699561,43.805632,林山村委会,,220105,0431,220105173206,220,,,,,,,,,2,100,1006,1251,2558,17361,,,
225473,8,125.699561,43.805632,联丰村委会,,220105,0431,220105173207,220,,,,,,,,,2,100,1006,1251,2558,17361,,,
225474,8,125.626947,43.830021,东风村委会,,220105,0431,220105173208,121,,,,,,,,,2,100,1006,1251,2558,17361,,,
225475,8,125.699561,43.805632,太安村委会,,220105,0431,220105173210,220,,,,,,,,,2,100,1006,1251,2558,17361,,,
225476,8,125.54513,43.871056,火石村委会,,220105,0431,220105174201,220,,,,,,,,,2,100,1006,1251,2558,17362,,,
225477,8,125.54513,43.871056,新立村委会,,220105,0431,220105174202,220,,,,,,,,,2,100,1006,1251,2558,17362,,,
225478,8,125.54513,43.871056,勤劳村委会,,220105,0431,220105174203,220,,,,,,,,,2,100,1006,1251,2558,17362,,,
225479,8,125.54513,43.871056,双山村委会,,220105,0431,220105174207,220,,,,,,,,,2,100,1006,1251,2558,17362,,,
225480,8,125.562213,43.855509,泉眼村委会,,220105,0431,220105174209,121,,,,,,,,,2,100,1006,1251,2558,17362,,,
225481,8,125.54513,43.871056,岗子村委会,,220105,0431,220105174210,220,,,,,,,,,2,100,1006,1251,2558,17362,,,
225482,8,125.54513,43.871056,赵家村委会,,220105,0431,220105174211,220,,,,,,,,,2,100,1006,1251,2558,17362,,,
225483,8,125.54513,43.871056,流沙村委会,,220105,0431,220105174212,220,,,,,,,,,2,100,1006,1251,2558,17362,,,
225484,8,125.780784,43.830351,莫家村委会,,220105,0431,220105270200,220,,,,,,,,,2,100,1006,1251,2558,17363,,,
225485,8,125.780784,43.830351,十间村委会,,220105,0431,220105270201,220,,,,,,,,,2,100,1006,1251,2558,17363,,,
225486,8,125.780784,43.830351,青山村委会,,220105,0431,220105270202,220,,,,,,,,,2,100,1006,1251,2558,17363,,,
225487,8,125.780784,43.830351,杂木村委会,,220105,0431,220105270203,220,,,,,,,,,2,100,1006,1251,2558,17363,,,
225488,8,125.780784,43.830351,四家村委会,,220105,0431,220105270204,210,,,,,,,,,2,100,1006,1251,2558,17363,,,
225489,8,125.780784,43.830351,创新村委会,,220105,0431,220105270205,220,,,,,,,,,2,100,1006,1251,2558,17363,,,
225490,8,125.758468,43.792192,光辉村委会,,220105,0431,220105270206,220,,,,,,,,,2,100,1006,1251,2558,17363,,,
225491,8,125.780784,43.830351,新光村委会,,220105,0431,220105270207,220,,,,,,,,,2,100,1006,1251,2558,17363,,,
225492,8,125.247398,43.896477,爱民社区,,220106,0431,220106001001,111,,,,,,,,,2,100,1006,1251,2559,17364,,,
225493,8,125.25262,43.89343,互助社区,,220106,0431,220106001002,111,,,,,,,,,2,100,1006,1251,2559,17364,,,
225494,8,125.260827,43.891168,绿化社区,,220106,0431,220106001003,111,,,,,,,,,2,100,1006,1251,2559,17364,,,
225495,8,125.260828,43.896047,和平社区,,220106,0431,220106001004,111,,,,,,,,,2,100,1006,1251,2559,17364,,,
225496,8,125.268947,43.899551,延寿社区,,220106,0431,220106001005,111,,,,,,,,,2,100,1006,1251,2559,17364,,,
225497,8,125.264114,43.887003,春城社区,,220106,0431,220106001006,111,,,,,,,,,2,100,1006,1251,2559,17364,,,
225498,8,125.266567,43.891276,万福社区,,220106,0431,220106001007,111,,,,,,,,,2,100,1006,1251,2559,17364,,,
225499,8,125.246016,43.886706,风和日丽社区,,220106,0431,220106001010,111,,,,,,,,,2,100,1006,1251,2559,17364,,,
225500,8,125.281116,43.877761,景阳社区,,220106,0431,220106003001,111,,,,,,,,,2,100,1006,1251,2559,17365,,,
225501,8,125.278003,43.871896,红旗社区,,220106,0431,220106003002,111,,,,,,,,,2,100,1006,1251,2559,17365,,,
225502,8,125.270305,43.880805,旺达社区,,220106,0431,220106003003,111,,,,,,,,,2,100,1006,1251,2559,17365,,,
225503,8,125.285291,43.878332,雷锋社区,,220106,0431,220106003004,111,,,,,,,,,2,100,1006,1251,2559,17365,,,
225504,8,125.267099,43.878219,新奥蓝城社区,,220106,0431,220106003005,111,,,,,,,,,2,100,1006,1251,2559,17365,,,
225505,8,125.274856,43.882007,海迎社区,,220106,0431,220106003014,111,,,,,,,,,2,100,1006,1251,2559,17365,,,
225506,8,125.28664,43.916752,银融社区,,220106,0431,220106005001,111,,,,,,,,,2,100,1006,1251,2559,17366,,,
225507,8,125.289978,43.923749,宇航社区,,220106,0431,220106005002,111,,,,,,,,,2,100,1006,1251,2559,17366,,,
225508,8,125.290438,43.914631,星驰社区,,220106,0431,220106005003,111,,,,,,,,,2,100,1006,1251,2559,17366,,,
225509,8,125.286505,43.912906,教师社区,,220106,0431,220106005004,111,,,,,,,,,2,100,1006,1251,2559,17366,,,
225510,8,125.308304,43.915737,东方社区,,220106,0431,220106005005,111,,,,,,,,,2,100,1006,1251,2559,17366,,,
225511,8,125.287464,43.920437,杨蒲社区,,220106,0431,220106005006,111,,,,,,,,,2,100,1006,1251,2559,17366,,,
225512,8,125.278592,43.912564,新竹社区,,220106,0431,220106005007,111,,,,,,,,,2,100,1006,1251,2559,17366,,,
225513,8,125.301994,43.919348,台北社区,,220106,0431,220106005008,111,,,,,,,,,2,100,1006,1251,2559,17366,,,
225514,8,125.283051,43.893201,升阳社区,,220106,0431,220106006006,111,,,,,,,,,2,100,1006,1251,2559,17367,,,
225515,8,125.289052,43.892717,蓝天社区,,220106,0431,220106006007,111,,,,,,,,,2,100,1006,1251,2559,17367,,,
225516,8,125.27667,43.895103,花园社区,,220106,0431,220106006009,111,,,,,,,,,2,100,1006,1251,2559,17367,,,
225517,8,125.28792,43.878877,庆阳社区,,220106,0431,220106006010,111,,,,,,,,,2,100,1006,1251,2559,17367,,,
225518,8,125.287174,43.888306,建阳社区,,220106,0431,220106006011,111,,,,,,,,,2,100,1006,1251,2559,17367,,,
225519,8,125.280236,43.896762,春草社区,,220106,0431,220106006012,111,,,,,,,,,2,100,1006,1251,2559,17367,,,
225520,8,125.276988,43.886199,信阳社区,,220106,0431,220106006013,111,,,,,,,,,2,100,1006,1251,2559,17367,,,
225521,8,125.281532,43.884865,中天社区,,220106,0431,220106006015,111,,,,,,,,,2,100,1006,1251,2559,17367,,,
225522,8,125.281532,43.884865,吾悦社区,,220106,0431,220106006016,111,,,,,,,,,2,100,1006,1251,2559,17367,,,
225523,8,125.313613,43.90086,芙蓉社区,,220103,0431,220106007009,111,,,,,,,,,2,100,1006,1251,2559,17368,,,
225524,8,125.29955,43.9034,春阳社区,,220106,0431,220106007010,111,,,,,,,,,2,100,1006,1251,2559,17368,,,
225525,8,125.29511,43.901938,崇文社区,,220106,0431,220106007011,111,,,,,,,,,2,100,1006,1251,2559,17368,,,
225526,8,125.288689,43.908118,青川社区,,220106,0431,220106007012,111,,,,,,,,,2,100,1006,1251,2559,17368,,,
225527,8,125.288297,43.906383,龙泉社区,,220106,0431,220106007013,111,,,,,,,,,2,100,1006,1251,2559,17368,,,
225528,8,125.284111,43.922114,青蒲社区,,220106,0431,220106007014,111,,,,,,,,,2,100,1006,1251,2559,17368,,,
225529,8,125.281857,43.903012,大房身社区,,220106,0431,220106010001,111,,,,,,,,,2,100,1006,1251,2559,17369,,,
225530,8,125.275784,43.908091,小房身社区,,220106,0431,220106010002,111,,,,,,,,,2,100,1006,1251,2559,17369,,,
225531,8,125.277661,43.919112,万嘉花园社区,,220106,0431,220106010003,111,,,,,,,,,2,100,1006,1251,2559,17369,,,
225532,8,125.271748,43.90851,林园社区,,220106,0431,220106010004,111,,,,,,,,,2,100,1006,1251,2559,17369,,,
225533,8,125.278985,43.916726,南航社区,,220106,0431,220106010005,111,,,,,,,,,2,100,1006,1251,2559,17369,,,
225534,8,125.238455,43.910842,迎宾路社区,,220106,0431,220106010006,111,,,,,,,,,2,100,1006,1251,2559,17369,,,
225535,8,125.278985,43.916726,万盛社区,,220106,0431,220106010007,111,,,,,,,,,2,100,1006,1251,2559,17369,,,
225536,8,125.278985,43.916726,香江社区,,220106,0431,220106010008,111,,,,,,,,,2,100,1006,1251,2559,17369,,,
225537,8,125.278985,43.916726,杨家村委会,,220106,0431,220106010200,111,,,,,,,,,2,100,1006,1251,2559,17369,,,
225538,8,125.278985,43.916726,车家村委会,,220106,0431,220106010201,111,,,,,,,,,2,100,1006,1251,2559,17369,,,
225539,8,125.278985,43.916726,四季青村委会,,220106,0431,220106010202,112,,,,,,,,,2,100,1006,1251,2559,17369,,,
225540,8,125.237391,43.878001,上海城社区,,220106,0431,220106011001,111,,,,,,,,,2,100,1006,1251,2559,17370,,,
225541,8,125.223071,43.860521,博众社区,,220106,0431,220106011002,111,,,,,,,,,2,100,1006,1251,2559,17370,,,
225542,8,125.215042,43.868207,解放社区,,220106,0431,220106011003,111,,,,,,,,,2,100,1006,1251,2559,17370,,,
225543,8,125.194677,43.853127,梧桐社区,,220106,0431,220106011004,111,,,,,,,,,2,100,1006,1251,2559,17370,,,
225544,8,125.22935,43.865868,一汽自立社区,,220106,0431,220106011005,111,,,,,,,,,2,100,1006,1251,2559,17370,,,
225545,8,125.228176,43.857539,一汽金色欧城社区,,220106,0431,220106011006,111,,,,,,,,,2,100,1006,1251,2559,17370,,,
225546,8,125.200349,43.854227,一汽家园社区,,220106,0431,220106011007,111,,,,,,,,,2,100,1006,1251,2559,17370,,,
225547,8,125.185594,43.857921,蓝调倾城社区,,220106,0431,220106011008,111,,,,,,,,,2,100,1006,1251,2559,17370,,,
225548,8,125.185594,43.857921,车城社区,,220106,0431,220106011009,111,,,,,,,,,2,100,1006,1251,2559,17370,,,
225549,8,125.185594,43.857921,康城社区,,220106,0431,220106011010,111,,,,,,,,,2,100,1006,1251,2559,17370,,,
225550,8,125.185594,43.857921,西城家园社区,,220106,0431,220106011011,111,,,,,,,,,2,100,1006,1251,2559,17370,,,
225551,8,125.185594,43.857921,锦秀社区,,220106,0431,220106011012,111,,,,,,,,,2,100,1006,1251,2559,17370,,,
225552,8,125.225753,43.863182,同心村委会,,220106,0431,220106011200,112,,,,,,,,,2,100,1006,1251,2559,17370,,,
225553,8,125.229971,43.899601,兴隆村委会,,220106,0431,220106011201,112,,,,,,,,,2,100,1006,1251,2559,17370,,,
225554,8,125.193801,43.858391,双丰村委会,,220106,0431,220106011202,112,,,,,,,,,2,100,1006,1251,2559,17370,,,
225555,8,125.12386,43.969447,新农家村委会,,220106,0431,220106100200,220,,,,,,,,,2,100,1006,1251,2559,17371,,,
225556,8,125.119394,43.985006,东安村委会,,220106,0431,220106100201,220,,,,,,,,,2,100,1006,1251,2559,17371,,,
225557,8,125.142217,43.951509,于家村委会,,220106,0431,220106100202,220,,,,,,,,,2,100,1006,1251,2559,17371,,,
225558,8,125.142217,43.951509,永跃村委会,,220106,0431,220106100203,220,,,,,,,,,2,100,1006,1251,2559,17371,,,
225559,8,125.094004,43.962141,哈达村委会,,220106,0431,220106100204,220,,,,,,,,,2,100,1006,1251,2559,17371,,,
225560,8,125.142217,43.951509,岳家村委会,,220106,0431,220106100205,220,,,,,,,,,2,100,1006,1251,2559,17371,,,
225561,8,125.142217,43.951509,三间村委会,,220106,0431,220106100206,111,,,,,,,,,2,100,1006,1251,2559,17371,,,
225562,8,125.185508,43.858169,开源村委会,,220106,0431,220106101200,112,,,,,,,,,2,100,1006,1251,2559,17372,,,
225563,8,125.185508,43.858169,双龙村委会,,220106,0431,220106101201,111,,,,,,,,,2,100,1006,1251,2559,17372,,,
225564,8,125.185508,43.858169,裴家村委会,,220106,0431,220106101203,112,,,,,,,,,2,100,1006,1251,2559,17372,,,
225565,8,125.177434,43.89329,民丰村委会,,220106,0431,220106101204,112,,,,,,,,,2,100,1006,1251,2559,17372,,,
225566,8,125.242057,43.884674,雁鸣湖社区,,220106,0431,220106102006,111,,,,,,,,,2,100,1006,1251,2559,17373,,,
225567,8,125.242057,43.884674,聚富社区,,220106,0431,220106102007,111,,,,,,,,,2,100,1006,1251,2559,17373,,,
225568,8,125.242057,43.884674,隆跃社区,,220106,0431,220106102008,111,,,,,,,,,2,100,1006,1251,2559,17373,,,
225569,8,125.242057,43.884674,红民村委会,,220106,0431,220106102202,112,,,,,,,,,2,100,1006,1251,2559,17373,,,
225570,8,125.242057,43.884674,四间村委会,,220106,0431,220106102204,111,,,,,,,,,2,100,1006,1251,2559,17373,,,
225571,8,125.242057,43.884674,大营子村委会,,220106,0431,220106102205,112,,,,,,,,,2,100,1006,1251,2559,17373,,,
225572,8,125.242057,43.884674,跃进村委会,,220106,0431,220106102207,112,,,,,,,,,2,100,1006,1251,2559,17373,,,
225573,8,125.166601,43.960365,新立村,,220106,0431,220106400302,111,,,,,,,,,2,100,1006,1251,2559,17374,,,
225574,8,125.692557,43.53175,幸福社区,,220112,0431,220112001001,111,,,,,,,,,2,100,1006,1251,2560,17375,,,
225575,8,125.667146,43.531697,南岗社区,,220112,0431,220112001002,111,,,,,,,,,2,100,1006,1251,2560,17375,,,
225576,8,125.679541,43.527079,东桥社区,,220112,0431,220112001003,111,,,,,,,,,2,100,1006,1251,2560,17375,,,
225577,8,125.661449,43.517614,春阳社区,,220112,0431,220112001004,111,,,,,,,,,2,100,1006,1251,2560,17375,,,
225578,8,125.665231,43.522539,华泰社区,,220112,0431,220112001005,111,,,,,,,,,2,100,1006,1251,2560,17375,,,
225579,8,125.662584,43.51799,通阳社区,,220112,0431,220112001006,111,,,,,,,,,2,100,1006,1251,2560,17375,,,
225580,8,125.689316,43.54076,北山社区,,220112,0431,220112001007,111,,,,,,,,,2,100,1006,1251,2560,17375,,,
225581,8,125.671886,43.528497,石桥社区,,220112,0431,220112001008,111,,,,,,,,,2,100,1006,1251,2560,17375,,,
225582,8,125.663665,43.537134,长山社区,,220112,0431,220112001009,111,,,,,,,,,2,100,1006,1251,2560,17375,,,
225583,8,125.665563,43.528993,柏山社区,,220112,0431,220112001010,111,,,,,,,,,2,100,1006,1251,2560,17375,,,
225584,8,125.65241,43.524103,博山社区,,220112,0431,220112001011,111,,,,,,,,,2,100,1006,1251,2560,17375,,,
225585,8,125.65556,43.530702,清江社区,,220112,0431,220112001012,111,,,,,,,,,2,100,1006,1251,2560,17375,,,
225586,8,125.667146,43.531697,前进村委会,,220112,0431,220112001200,112,,,,,,,,,2,100,1006,1251,2560,17375,,,
225587,8,125.667146,43.531697,永红村委会,,220112,0431,220112001201,111,,,,,,,,,2,100,1006,1251,2560,17375,,,
225588,8,125.667146,43.531697,于家村委会,,220112,0431,220112001202,112,,,,,,,,,2,100,1006,1251,2560,17375,,,
225589,8,125.684212,43.529781,园艺场（特殊村委会）,,220112,0431,220112001203,111,,,,,,,,,2,100,1006,1251,2560,17375,,,
225590,8,125.69726,43.52377,双桥村委会,,220112,0431,220112002200,112,,,,,,,,,2,100,1006,1251,2560,17376,,,
225591,8,125.713339,43.526686,甩湾村委会,,220112,0431,220112002201,112,,,,,,,,,2,100,1006,1251,2560,17376,,,
225592,8,125.649286,43.509345,城郊村委会,,220112,0431,220112002202,111,,,,,,,,,2,100,1006,1251,2560,17376,,,
225593,8,125.7157,43.571399,双湾村委会,,220112,0431,220112002203,220,,,,,,,,,2,100,1006,1251,2560,17376,,,
225594,8,125.694562,43.562366,宋家村委会,,220112,0431,220112002204,220,,,,,,,,,2,100,1006,1251,2560,17376,,,
225595,8,125.664662,43.525311,林家村委会,,220112,0431,220112002205,220,,,,,,,,,2,100,1006,1251,2560,17376,,,
225596,8,125.664662,43.525311,东方村委会,,220112,0431,220112002206,220,,,,,,,,,2,100,1006,1251,2560,17376,,,
225597,8,125.659493,43.571763,梨树村委会,,220112,0431,220112002207,220,,,,,,,,,2,100,1006,1251,2560,17376,,,
225598,8,125.758256,43.57601,小龙村委会,,220112,0431,220112002208,220,,,,,,,,,2,100,1006,1251,2560,17376,,,
225599,8,125.690097,43.489603,杜家村委会,,220112,0431,220112002209,220,,,,,,,,,2,100,1006,1251,2560,17376,,,
225600,8,125.713827,43.500314,常明村委会,,220112,0431,220112002210,220,,,,,,,,,2,100,1006,1251,2560,17376,,,
225601,8,125.653655,43.625515,黑鱼村委会,,220112,0431,220112002211,220,,,,,,,,,2,100,1006,1251,2560,17376,,,
225602,8,125.698486,43.601795,杨家村委会,,220112,0431,220112002212,220,,,,,,,,,2,100,1006,1251,2560,17376,,,
225603,8,125.654824,43.586908,莲花村委会,,220112,0431,220112002213,220,,,,,,,,,2,100,1006,1251,2560,17376,,,
225604,8,125.679405,43.614041,新阳村委会,,220112,0431,220112002214,220,,,,,,,,,2,100,1006,1251,2560,17376,,,
225605,8,125.723204,43.466704,尚家村委会,,220112,0431,220112002215,220,,,,,,,,,2,100,1006,1251,2560,17376,,,
225606,8,125.535479,43.680695,仁合社区,,220112,0431,220112003001,111,,,,,,,,,2,100,1006,1251,2560,17377,,,
225607,8,125.690771,43.747202,新安社区,,220112,0431,220112003002,220,,,,,,,,,2,100,1006,1251,2560,17377,,,
225608,8,125.548871,43.665431,奢岭村委会,,220112,0431,220112003200,111,,,,,,,,,2,100,1006,1251,2560,17377,,,
225609,8,125.548871,43.665431,新兴村委会,,220112,0431,220112003201,220,,,,,,,,,2,100,1006,1251,2560,17377,,,
225610,8,125.548871,43.665431,前城村委会,,220112,0431,220112003202,220,,,,,,,,,2,100,1006,1251,2560,17377,,,
225611,8,125.548871,43.665431,五星村委会,,220112,0431,220112003203,220,,,,,,,,,2,100,1006,1251,2560,17377,,,
225612,8,125.548871,43.665431,新民村委会,,220112,0431,220112003204,220,,,,,,,,,2,100,1006,1251,2560,17377,,,
225613,8,125.548871,43.665431,双榆村委会,,220112,0431,220112003205,220,,,,,,,,,2,100,1006,1251,2560,17377,,,
225614,8,125.548871,43.665431,爱国村委会,,220112,0431,220112003206,220,,,,,,,,,2,100,1006,1251,2560,17377,,,
225615,8,125.548871,43.665431,团结村委会,,220112,0431,220112003207,220,,,,,,,,,2,100,1006,1251,2560,17377,,,
225616,8,125.548871,43.665431,九三村委会,,220112,0431,220112003208,220,,,,,,,,,2,100,1006,1251,2560,17377,,,
225617,8,125.548871,43.665431,普安村委会,,220112,0431,220112003209,220,,,,,,,,,2,100,1006,1251,2560,17377,,,
225618,8,125.548871,43.665431,幸福村委会,,220112,0431,220112003210,112,,,,,,,,,2,100,1006,1251,2560,17377,,,
225619,8,125.548871,43.665431,新安村委会,,220112,0431,220112003211,220,,,,,,,,,2,100,1006,1251,2560,17377,,,
225620,8,125.548871,43.665431,山咀村委会,,220112,0431,220112003212,220,,,,,,,,,2,100,1006,1251,2560,17377,,,
225621,8,125.548871,43.665431,东营村委会,,220112,0431,220112003213,220,,,,,,,,,2,100,1006,1251,2560,17377,,,
225622,8,125.548871,43.665431,向阳村委会,,220112,0431,220112003214,220,,,,,,,,,2,100,1006,1251,2560,17377,,,
225623,8,125.548871,43.665431,双胜村委会,,220112,0431,220112003215,220,,,,,,,,,2,100,1006,1251,2560,17377,,,
225624,8,125.548871,43.665431,裴家村委会,,220112,0431,220112003216,220,,,,,,,,,2,100,1006,1251,2560,17377,,,
225625,8,125.548871,43.665431,罗家村委会,,220112,0431,220112003217,220,,,,,,,,,2,100,1006,1251,2560,17377,,,
225626,8,125.548871,43.665431,徐家村委会,,220112,0431,220112003218,220,,,,,,,,,2,100,1006,1251,2560,17377,,,
225627,8,125.548871,43.665431,马场村委会,,220112,0431,220112003219,220,,,,,,,,,2,100,1006,1251,2560,17377,,,
225628,8,125.548871,43.665431,西顺村委会,,220112,0431,220112003220,220,,,,,,,,,2,100,1006,1251,2560,17377,,,
225629,8,125.692201,43.77957,大屯村委会,,220112,0431,220112003221,220,,,,,,,,,2,100,1006,1251,2560,17377,,,
225630,8,125.548871,43.665431,跃进村委会,,220112,0431,220112003222,220,,,,,,,,,2,100,1006,1251,2560,17377,,,
225631,8,125.923166,43.420129,新城社区,,220112,0431,220112004001,111,,,,,,,,,2,100,1006,1251,2560,17378,,,
225632,8,125.922758,43.42051,佟家社区,,220112,0431,220112004002,220,,,,,,,,,2,100,1006,1251,2560,17378,,,
225633,8,125.922758,43.42051,羊圈村委会,,220112,0431,220112004200,220,,,,,,,,,2,100,1006,1251,2560,17378,,,
225634,8,125.943615,43.337157,五家村委会,,220112,0431,220112004201,220,,,,,,,,,2,100,1006,1251,2560,17378,,,
225635,8,125.922758,43.42051,万宝村委会,,220112,0431,220112004202,220,,,,,,,,,2,100,1006,1251,2560,17378,,,
225636,8,125.922758,43.42051,宝善村委会,,220112,0431,220112004203,220,,,,,,,,,2,100,1006,1251,2560,17378,,,
225637,8,125.922758,43.42051,三家村委会,,220112,0431,220112004204,220,,,,,,,,,2,100,1006,1251,2560,17378,,,
225638,8,125.922758,43.42051,八面村委会,,220112,0431,220112004205,220,,,,,,,,,2,100,1006,1251,2560,17378,,,
225639,8,125.922758,43.42051,柳树村委会,,220112,0431,220112004206,220,,,,,,,,,2,100,1006,1251,2560,17378,,,
225640,8,125.922758,43.42051,立新村委会,,220112,0431,220112004207,220,,,,,,,,,2,100,1006,1251,2560,17378,,,
225641,8,125.922758,43.42051,大将村委会,,220112,0431,220112004208,220,,,,,,,,,2,100,1006,1251,2560,17378,,,
225642,8,125.845241,43.41685,朝阳村委会,,220112,0431,220112004209,220,,,,,,,,,2,100,1006,1251,2560,17378,,,
225643,8,125.922758,43.42051,新开村委会,,220112,0431,220112004210,220,,,,,,,,,2,100,1006,1251,2560,17378,,,
225644,8,125.922758,43.42051,沿河村委会,,220112,0431,220112004211,220,,,,,,,,,2,100,1006,1251,2560,17378,,,
225645,8,125.922758,43.42051,烧锅村委会,,220112,0431,220112004212,112,,,,,,,,,2,100,1006,1251,2560,17378,,,
225646,8,125.922758,43.42051,三专村委会,,220112,0431,220112004213,220,,,,,,,,,2,100,1006,1251,2560,17378,,,
225647,8,125.922758,43.42051,羊专村委会,,220112,0431,220112004214,220,,,,,,,,,2,100,1006,1251,2560,17378,,,
225648,8,125.789124,43.46871,隆兴村委会,,220112,0431,220112004215,220,,,,,,,,,2,100,1006,1251,2560,17378,,,
225649,8,125.922758,43.42051,大龙村委会,,220112,0431,220112004216,220,,,,,,,,,2,100,1006,1251,2560,17378,,,
225650,8,125.76175,43.4688,卢家村委会,,220112,0431,220112004217,220,,,,,,,,,2,100,1006,1251,2560,17378,,,
225651,8,125.822937,43.455783,东升村委会,,220112,0431,220112004218,220,,,,,,,,,2,100,1006,1251,2560,17378,,,
225652,8,125.814249,43.457855,新风村委会,,220112,0431,220112004219,220,,,,,,,,,2,100,1006,1251,2560,17378,,,
225653,8,125.922758,43.42051,庄家村委会,,220112,0431,220112004220,220,,,,,,,,,2,100,1006,1251,2560,17378,,,
225654,8,125.922758,43.42051,阳平村委会,,220112,0431,220112004221,220,,,,,,,,,2,100,1006,1251,2560,17378,,,
225655,8,125.922758,43.42051,佟家村委会,,220112,0431,220112004222,220,,,,,,,,,2,100,1006,1251,2560,17378,,,
225656,8,125.922758,43.42051,靠山村委会,,220112,0431,220112004223,220,,,,,,,,,2,100,1006,1251,2560,17378,,,
225657,8,125.922758,43.42051,樊家村委会,,220112,0431,220112004224,220,,,,,,,,,2,100,1006,1251,2560,17378,,,
225658,8,125.863748,43.60482,长岭社区,,220112,0431,220112100001,220,,,,,,,,,2,100,1006,1251,2560,17379,,,
225659,8,125.712712,43.686438,齐家村委会,,220112,0431,220112100200,121,,,,,,,,,2,100,1006,1251,2560,17379,,,
225660,8,125.715109,43.711018,管家村委会,,220112,0431,220112100201,122,,,,,,,,,2,100,1006,1251,2560,17379,,,
225661,8,125.715109,43.711018,关家村委会,,220112,0431,220112100202,122,,,,,,,,,2,100,1006,1251,2560,17379,,,
225662,8,125.711967,43.688942,四屯村委会,,220112,0431,220112100203,220,,,,,,,,,2,100,1006,1251,2560,17379,,,
225663,8,125.711967,43.688942,官地村委会,,220112,0431,220112100204,220,,,,,,,,,2,100,1006,1251,2560,17379,,,
225664,8,125.711967,43.688942,卧龙村委会,,220112,0431,220112100205,220,,,,,,,,,2,100,1006,1251,2560,17379,,,
225665,8,125.711967,43.688942,永安村委会,,220112,0431,220112100206,220,,,,,,,,,2,100,1006,1251,2560,17379,,,
225666,8,125.711967,43.688942,范家村委会,,220112,0431,220112100207,220,,,,,,,,,2,100,1006,1251,2560,17379,,,
225667,8,125.711967,43.688942,长泡村委会,,220112,0431,220112100208,220,,,,,,,,,2,100,1006,1251,2560,17379,,,
225668,8,125.711967,43.688942,广生村委会,,220112,0431,220112100209,220,,,,,,,,,2,100,1006,1251,2560,17379,,,
225669,8,125.711967,43.688942,李家村委会,,220112,0431,220112100210,220,,,,,,,,,2,100,1006,1251,2560,17379,,,
225670,8,125.711967,43.688942,曙光村委会,,220112,0431,220112100211,220,,,,,,,,,2,100,1006,1251,2560,17379,,,
225671,8,125.711967,43.688942,长岭村委会,,220112,0431,220112100212,220,,,,,,,,,2,100,1006,1251,2560,17379,,,
225672,8,125.711967,43.688942,张家村委会,,220112,0431,220112100213,220,,,,,,,,,2,100,1006,1251,2560,17379,,,
225673,8,125.859922,43.655693,三姓村委会,,220112,0431,220112100214,220,,,,,,,,,2,100,1006,1251,2560,17379,,,
225674,8,125.711967,43.688942,长兴村委会,,220112,0431,220112100215,220,,,,,,,,,2,100,1006,1251,2560,17379,,,
225675,8,125.711967,43.688942,贾家村委会,,220112,0431,220112100216,220,,,,,,,,,2,100,1006,1251,2560,17379,,,
225676,8,125.711967,43.688942,双顶村委会,,220112,0431,220112100217,220,,,,,,,,,2,100,1006,1251,2560,17379,,,
225677,8,125.711967,43.688942,郭家村委会,,220112,0431,220112100218,220,,,,,,,,,2,100,1006,1251,2560,17379,,,
225678,8,125.711967,43.688942,下河村委会,,220112,0431,220112100219,220,,,,,,,,,2,100,1006,1251,2560,17379,,,
225679,8,125.711967,43.688942,官马村委会,,220112,0431,220112100220,220,,,,,,,,,2,100,1006,1251,2560,17379,,,
225680,8,125.736247,43.311862,土顶社区,,220112,0431,220112101001,220,,,,,,,,,2,100,1006,1251,2560,17380,,,
225681,8,125.73774,43.404808,贺家村委会,,220112,0431,220112101200,220,,,,,,,,,2,100,1006,1251,2560,17380,,,
225682,8,125.73774,43.404808,沃土村委会,,220112,0431,220112101201,220,,,,,,,,,2,100,1006,1251,2560,17380,,,
225683,8,125.73774,43.404808,长山村委会,,220112,0431,220112101202,220,,,,,,,,,2,100,1006,1251,2560,17380,,,
225684,8,125.73774,43.404808,二道村委会,,220112,0431,220112101203,220,,,,,,,,,2,100,1006,1251,2560,17380,,,
225685,8,125.73774,43.404808,桦木村委会,,220112,0431,220112101204,220,,,,,,,,,2,100,1006,1251,2560,17380,,,
225686,8,125.73774,43.404808,将军村委会,,220112,0431,220112101205,220,,,,,,,,,2,100,1006,1251,2560,17380,,,
225687,8,125.73774,43.404808,小河村委会,,220112,0431,220112101206,220,,,,,,,,,2,100,1006,1251,2560,17380,,,
225688,8,125.73774,43.404808,小石村委会,,220112,0431,220112101207,220,,,,,,,,,2,100,1006,1251,2560,17380,,,
225689,8,125.73774,43.404808,板石村委会,,220112,0431,220112101208,220,,,,,,,,,2,100,1006,1251,2560,17380,,,
225690,8,125.73774,43.404808,太平村委会,,220112,0431,220112101209,220,,,,,,,,,2,100,1006,1251,2560,17380,,,
225691,8,125.73774,43.404808,田家村委会,,220112,0431,220112101210,121,,,,,,,,,2,100,1006,1251,2560,17380,,,
225692,8,125.73774,43.404808,土顶村委会,,220112,0431,220112101211,220,,,,,,,,,2,100,1006,1251,2560,17380,,,
225693,8,125.73774,43.404808,一面山村委会,,220112,0431,220112101212,220,,,,,,,,,2,100,1006,1251,2560,17380,,,
225694,8,125.73774,43.404808,三道村委会,,220112,0431,220112101213,220,,,,,,,,,2,100,1006,1251,2560,17380,,,
225695,8,125.73774,43.404808,土门村委会,,220112,0431,220112101214,220,,,,,,,,,2,100,1006,1251,2560,17380,,,
225696,8,125.73774,43.404808,太阳村委会,,220112,0431,220112101215,220,,,,,,,,,2,100,1006,1251,2560,17380,,,
225697,8,125.73774,43.404808,白杨树村委会,,220112,0431,220112101216,220,,,,,,,,,2,100,1006,1251,2560,17380,,,
225698,8,125.73774,43.404808,长炮村委会,,220112,0431,220112101217,220,,,,,,,,,2,100,1006,1251,2560,17380,,,
225699,8,125.73774,43.404808,齐瓦房村委会,,220112,0431,220112101218,220,,,,,,,,,2,100,1006,1251,2560,17380,,,
225700,8,125.73774,43.404808,肚带河村委会,,220112,0431,220112101219,220,,,,,,,,,2,100,1006,1251,2560,17380,,,
225701,8,125.73774,43.404808,治国村委会,,220112,0431,220112101220,220,,,,,,,,,2,100,1006,1251,2560,17380,,,
225702,8,125.73774,43.404808,新村村委会,,220112,0431,220112101221,220,,,,,,,,,2,100,1006,1251,2560,17380,,,
225703,8,125.485698,43.565499,鹿缘社区,,220112,0431,220112102001,121,,,,,,,,,2,100,1006,1251,2560,17381,,,
225704,8,125.485698,43.565499,镇区村委会,,220112,0431,220112102200,220,,,,,,,,,2,100,1006,1251,2560,17381,,,
225705,8,125.485698,43.565499,刘家村委会,,220112,0431,220112102201,122,,,,,,,,,2,100,1006,1251,2560,17381,,,
225706,8,125.485698,43.565499,王西村委会,,220112,0431,220112102202,220,,,,,,,,,2,100,1006,1251,2560,17381,,,
225707,8,125.485698,43.565499,鹿乡村委会,,220112,0431,220112102203,220,,,,,,,,,2,100,1006,1251,2560,17381,,,
225708,8,125.485698,43.565499,崔家村委会,,220112,0431,220112102204,220,,,,,,,,,2,100,1006,1251,2560,17381,,,
225709,8,125.485698,43.565499,蔡家村委会,,220112,0431,220112102205,220,,,,,,,,,2,100,1006,1251,2560,17381,,,
225710,8,125.485698,43.565499,育民村委会,,220112,0431,220112102206,220,,,,,,,,,2,100,1006,1251,2560,17381,,,
225711,8,125.485698,43.565499,信家村委会,,220112,0431,220112102208,220,,,,,,,,,2,100,1006,1251,2560,17381,,,
225712,8,125.485698,43.565499,石灰村委会,,220112,0431,220112102209,220,,,,,,,,,2,100,1006,1251,2560,17381,,,
225713,8,125.485698,43.565499,丁家村委会,,220112,0431,220112102210,220,,,,,,,,,2,100,1006,1251,2560,17381,,,
225714,8,125.485698,43.565499,方家村委会,,220112,0431,220112102211,220,,,,,,,,,2,100,1006,1251,2560,17381,,,
225715,8,125.485698,43.565499,石溪村委会,,220112,0431,220112102212,220,,,,,,,,,2,100,1006,1251,2560,17381,,,
225716,8,125.485698,43.565499,尖山村委会,,220112,0431,220112102213,220,,,,,,,,,2,100,1006,1251,2560,17381,,,
225717,8,125.485698,43.565499,红土村委会,,220112,0431,220112102214,220,,,,,,,,,2,100,1006,1251,2560,17381,,,
225718,8,125.485698,43.565499,黑顶村委会,,220112,0431,220112102215,220,,,,,,,,,2,100,1006,1251,2560,17381,,,
225719,8,125.485698,43.565499,黄家村委会,,220112,0431,220112102216,220,,,,,,,,,2,100,1006,1251,2560,17381,,,
225720,8,125.485698,43.565499,常家村委会,,220112,0431,220112102217,220,,,,,,,,,2,100,1006,1251,2560,17381,,,
225721,8,125.485698,43.565499,杏树村委会,,220112,0431,220112102218,220,,,,,,,,,2,100,1006,1251,2560,17381,,,
225722,8,125.588202,43.577999,大营村委会,,220112,0431,220112270300,210,,,,,,,,,2,100,1006,1251,2560,17382,,,
225723,8,125.588202,43.577999,鲁家村委会,,220112,0431,220112270301,210,,,,,,,,,2,100,1006,1251,2560,17382,,,
225724,8,125.588202,43.577999,庞家村委会,,220112,0431,220112270302,220,,,,,,,,,2,100,1006,1251,2560,17382,,,
225725,8,125.588202,43.577999,新胜村委会,,220112,0431,220112270303,220,,,,,,,,,2,100,1006,1251,2560,17382,,,
225726,8,125.588202,43.577999,尹家村委会,,220112,0431,220112270304,220,,,,,,,,,2,100,1006,1251,2560,17382,,,
225727,8,125.588202,43.577999,黄金村委会,,220112,0431,220112270305,220,,,,,,,,,2,100,1006,1251,2560,17382,,,
225728,8,125.822753,44.146816,西城社区,,220113,0431,220113001001,111,,,,,,,,,2,100,1006,1251,2561,17383,,,
225729,8,125.841962,44.152656,新风社区,,220113,0431,220113001003,111,,,,,,,,,2,100,1006,1251,2561,17383,,,
225730,8,125.830952,44.156592,光明社区,,220113,0431,220113001005,111,,,,,,,,,2,100,1006,1251,2561,17383,,,
225731,8,125.83716,44.157602,民乐社区,,220113,0431,220113001006,111,,,,,,,,,2,100,1006,1251,2561,17383,,,
225732,8,125.837706,44.153267,育才社区,,220113,0431,220113001009,111,,,,,,,,,2,100,1006,1251,2561,17383,,,
225733,8,125.82891,44.143418,嘉鹏社区,,220113,0431,220113001016,111,,,,,,,,,2,100,1006,1251,2561,17383,,,
225734,8,125.836512,44.142786,公园社区,,220113,0431,220113001017,111,,,,,,,,,2,100,1006,1251,2561,17383,,,
225735,8,125.843725,44.153818,沿河社区,,220113,0431,220113001018,111,,,,,,,,,2,100,1006,1251,2561,17383,,,
225736,8,125.837491,44.138682,福星社区,,220113,0431,220113001021,111,,,,,,,,,2,100,1006,1251,2561,17383,,,
225737,8,125.836973,44.132542,福临社区,,220113,0431,220113001022,111,,,,,,,,,2,100,1006,1251,2561,17383,,,
225738,8,125.839869,44.14484,前进村委会,,220113,0431,220113001200,112,,,,,,,,,2,100,1006,1251,2561,17383,,,
225739,8,125.858315,44.165507,向阳村委会,,220113,0431,220113001201,112,,,,,,,,,2,100,1006,1251,2561,17383,,,
225740,8,125.851811,44.157681,东山村委会,,220113,0431,220113001202,112,,,,,,,,,2,100,1006,1251,2561,17383,,,
225741,8,125.839869,44.14484,上台村委会,,220113,0431,220113001203,112,,,,,,,,,2,100,1006,1251,2561,17383,,,
225742,8,125.839869,44.14484,后小屯村委会,,220113,0431,220113001204,112,,,,,,,,,2,100,1006,1251,2561,17383,,,
225743,8,125.919857,44.162911,营城社区,,220113,0431,220113002003,111,,,,,,,,,2,100,1006,1251,2561,17384,,,
225744,8,125.848542,44.161908,利民社区,,220113,0431,220113002011,111,,,,,,,,,2,100,1006,1251,2561,17384,,,
225745,8,125.897434,44.126246,兴华社区,,220113,0431,220113002014,111,,,,,,,,,2,100,1006,1251,2561,17384,,,
225746,8,125.872099,44.157269,火石岭村委会,,220113,0431,220113002200,112,,,,,,,,,2,100,1006,1251,2561,17384,,,
225747,8,125.872099,44.157269,营城村委会,,220113,0431,220113002201,112,,,,,,,,,2,100,1006,1251,2561,17384,,,
225748,8,125.821332,44.136123,新洲社区,,220113,0431,220113003001,111,,,,,,,,,2,100,1006,1251,2561,17385,,,
225749,8,125.830968,44.154649,文体社区,,220113,0431,220113003002,111,,,,,,,,,2,100,1006,1251,2561,17385,,,
225750,8,125.835605,44.167956,马家岗子村委会,,220113,0431,220113003200,220,,,,,,,,,2,100,1006,1251,2561,17385,,,
225751,8,125.797228,44.189253,莲花泡村委会,,220113,0431,220113003201,220,,,,,,,,,2,100,1006,1251,2561,17385,,,
225752,8,125.830968,44.154649,拉他泡村委会,,220113,0431,220113003202,220,,,,,,,,,2,100,1006,1251,2561,17385,,,
225753,8,125.824223,44.161365,新合村委会,,220113,0431,220113003203,112,,,,,,,,,2,100,1006,1251,2561,17385,,,
225754,8,125.830968,44.154649,沿河村委会,,220113,0431,220113003204,220,,,,,,,,,2,100,1006,1251,2561,17385,,,
225755,8,125.830968,44.154649,永富村委会,,220113,0431,220113003205,220,,,,,,,,,2,100,1006,1251,2561,17385,,,
225756,8,125.830968,44.154649,小河沿子村委会,,220113,0431,220113003206,112,,,,,,,,,2,100,1006,1251,2561,17385,,,
225757,8,125.830968,44.154649,吴家店村委会,,220113,0431,220113003207,220,,,,,,,,,2,100,1006,1251,2561,17385,,,
225758,8,125.830968,44.154649,聂家村委会,,220113,0431,220113003208,220,,,,,,,,,2,100,1006,1251,2561,17385,,,
225759,8,125.830968,44.154649,杨木林子村委会,,220113,0431,220113003209,112,,,,,,,,,2,100,1006,1251,2561,17385,,,
225760,8,125.830968,44.154649,新立村委会,,220113,0431,220113003210,112,,,,,,,,,2,100,1006,1251,2561,17385,,,
225761,8,125.830968,44.154649,唐家村委会,,220113,0431,220113003211,220,,,,,,,,,2,100,1006,1251,2561,17385,,,
225762,8,125.830968,44.154649,杨家村委会,,220113,0431,220113003212,220,,,,,,,,,2,100,1006,1251,2561,17385,,,
225763,8,125.830968,44.154649,头道沟村委会,,220113,0431,220113003213,220,,,,,,,,,2,100,1006,1251,2561,17385,,,
225764,8,125.804847,44.031899,新城社区,,220113,0431,220113004001,111,,,,,,,,,2,100,1006,1251,2561,17386,,,
225765,8,125.804785,44.033102,福园社区,,220113,0431,220113004002,111,,,,,,,,,2,100,1006,1251,2561,17386,,,
225766,8,125.807236,44.026325,福城社区,,220113,0431,220113004003,111,,,,,,,,,2,100,1006,1251,2561,17386,,,
225767,8,125.804785,44.033102,西营城村委会,,220113,0431,220113004200,112,,,,,,,,,2,100,1006,1251,2561,17386,,,
225768,8,125.804785,44.033102,杨家岗子村委会,,220113,0431,220113004201,220,,,,,,,,,2,100,1006,1251,2561,17386,,,
225769,8,125.804785,44.033102,榛杆泡村委会,,220113,0431,220113004202,220,,,,,,,,,2,100,1006,1251,2561,17386,,,
225770,8,125.804785,44.033102,石头口门村委会,,220113,0431,220113004203,220,,,,,,,,,2,100,1006,1251,2561,17386,,,
225771,8,125.804785,44.033102,烧锅村委会,,220113,0431,220113004204,220,,,,,,,,,2,100,1006,1251,2561,17386,,,
225772,8,125.804785,44.033102,盘道岭村委会,,220113,0431,220113004205,220,,,,,,,,,2,100,1006,1251,2561,17386,,,
225773,8,125.804785,44.033102,董家村委会,,220113,0431,220113004206,220,,,,,,,,,2,100,1006,1251,2561,17386,,,
225774,8,125.804785,44.033102,榆树棵村委会,,220113,0431,220113004207,220,,,,,,,,,2,100,1006,1251,2561,17386,,,
225775,8,125.804785,44.033102,万家村委会,,220113,0431,220113004208,220,,,,,,,,,2,100,1006,1251,2561,17386,,,
225776,8,125.804785,44.033102,古榆树村委会,,220113,0431,220113004209,220,,,,,,,,,2,100,1006,1251,2561,17386,,,
225777,8,125.804785,44.033102,石人沟村委会,,220113,0431,220113004210,220,,,,,,,,,2,100,1006,1251,2561,17386,,,
225778,8,125.804785,44.033102,榆树岗村委会,,220113,0431,220113004211,220,,,,,,,,,2,100,1006,1251,2561,17386,,,
225779,8,125.804785,44.033102,官马山村委会,,220113,0431,220113004212,220,,,,,,,,,2,100,1006,1251,2561,17386,,,
225780,8,126.050125,44.099098,土们岭居委会,,220113,0431,220113005001,111,,,,,,,,,2,100,1006,1251,2561,17387,,,
225781,8,126.010342,44.164916,李家村委会,,220113,0431,220113005200,220,,,,,,,,,2,100,1006,1251,2561,17387,,,
225782,8,126.033,44.11899,马鞍山村委会,,220113,0431,220113005201,220,,,,,,,,,2,100,1006,1251,2561,17387,,,
225783,8,125.967534,44.137521,丁家村委会,,220113,0431,220113005202,220,,,,,,,,,2,100,1006,1251,2561,17387,,,
225784,8,125.996898,44.085249,尤家村委会,,220113,0431,220113005203,220,,,,,,,,,2,100,1006,1251,2561,17387,,,
225785,8,126.027736,44.088896,南苇村委会,,220113,0431,220113005204,220,,,,,,,,,2,100,1006,1251,2561,17387,,,
225786,8,126.050125,44.099098,土们岭村委会,,220113,0431,220113005205,111,,,,,,,,,2,100,1006,1251,2561,17387,,,
225787,8,126.049285,44.106176,民主村委会,,220113,0431,220113005206,220,,,,,,,,,2,100,1006,1251,2561,17387,,,
225788,8,125.915371,44.094477,二道沟村委会,,220113,0431,220113005207,220,,,,,,,,,2,100,1006,1251,2561,17387,,,
225789,8,125.896421,44.114199,小二道沟村委会,,220113,0431,220113005208,220,,,,,,,,,2,100,1006,1251,2561,17387,,,
225790,8,125.93006,44.123916,荒山村委会,,220113,0431,220113005209,220,,,,,,,,,2,100,1006,1251,2561,17387,,,
225791,8,125.968096,44.070581,半拉山子村委会,,220113,0431,220113005210,220,,,,,,,,,2,100,1006,1251,2561,17387,,,
225792,8,125.948138,44.020554,石龙村委会,,220113,0431,220113005211,220,,,,,,,,,2,100,1006,1251,2561,17387,,,
225793,8,125.895315,44.047466,南林子村委会,,220113,0431,220113005212,220,,,,,,,,,2,100,1006,1251,2561,17387,,,
225794,8,125.919239,44.05982,大屯村委会,,220113,0431,220113005213,220,,,,,,,,,2,100,1006,1251,2561,17387,,,
225795,8,125.891457,44.067947,罗群村委会,,220113,0431,220113005214,220,,,,,,,,,2,100,1006,1251,2561,17387,,,
225796,8,125.951668,44.113561,山咀村委会,,220113,0431,220113005215,220,,,,,,,,,2,100,1006,1251,2561,17387,,,
225797,8,125.896258,44.209117,苇子沟居委会,,220113,0431,220113006001,111,,,,,,,,,2,100,1006,1251,2561,17388,,,
225798,8,125.862862,44.211873,杨家烧锅村委会,,220113,0431,220113006200,111,,,,,,,,,2,100,1006,1251,2561,17388,,,
225799,8,125.925741,44.214759,庙沟村委会,,220113,0431,220113006201,220,,,,,,,,,2,100,1006,1251,2561,17388,,,
225800,8,125.914067,44.240188,西地村委会,,220113,0431,220113006202,220,,,,,,,,,2,100,1006,1251,2561,17388,,,
225801,8,125.850322,44.247454,头道咀子村委会,,220113,0431,220113006203,220,,,,,,,,,2,100,1006,1251,2561,17388,,,
225802,8,125.850182,44.227383,双桥子村委会,,220113,0431,220113006204,220,,,,,,,,,2,100,1006,1251,2561,17388,,,
225803,8,125.855741,44.191456,小苇子沟村委会,,220113,0431,220113006205,220,,,,,,,,,2,100,1006,1251,2561,17388,,,
225804,8,125.832307,44.193821,拉拉屯村委会,,220113,0431,220113006206,220,,,,,,,,,2,100,1006,1251,2561,17388,,,
225805,8,125.959774,44.246313,石头咀子村委会,,220113,0431,220113006207,220,,,,,,,,,2,100,1006,1251,2561,17388,,,
225806,8,125.961173,44.22569,二道林子村委会,,220113,0431,220113006208,220,,,,,,,,,2,100,1006,1251,2561,17388,,,
225807,8,125.995757,44.173357,官地村委会,,220113,0431,220113006209,220,,,,,,,,,2,100,1006,1251,2561,17388,,,
225808,8,125.960996,44.189512,靠山村委会,,220113,0431,220113006210,220,,,,,,,,,2,100,1006,1251,2561,17388,,,
225809,8,125.896258,44.209117,大苇子沟村委会,,220113,0431,220113006211,220,,,,,,,,,2,100,1006,1251,2561,17388,,,
225810,8,125.949811,44.272134,大院村委会,,220113,0431,220113006212,220,,,,,,,,,2,100,1006,1251,2561,17388,,,
225811,8,125.863793,44.320727,新开村委会,,220113,0431,220113006213,220,,,,,,,,,2,100,1006,1251,2561,17388,,,
225812,8,125.866116,44.300956,庆阳村委会,,220113,0431,220113006214,220,,,,,,,,,2,100,1006,1251,2561,17388,,,
225813,8,125.857394,44.285656,月明楼村委会,,220113,0431,220113006215,220,,,,,,,,,2,100,1006,1251,2561,17388,,,
225814,8,125.852873,44.270609,双兴村委会,,220113,0431,220113006216,220,,,,,,,,,2,100,1006,1251,2561,17388,,,
225815,8,125.894284,44.263305,梨树村委会,,220113,0431,220113006217,220,,,,,,,,,2,100,1006,1251,2561,17388,,,
225816,8,125.974939,44.273923,八台村委会,,220113,0431,220113006218,220,,,,,,,,,2,100,1006,1251,2561,17388,,,
225817,8,125.52204,43.919163,四合村委会,,220105,0431,220113006219,220,,,,,,,,,2,100,1006,1251,2561,17388,,,
225818,8,125.975861,44.303476,卧龙泉村委会,,220113,0431,220113006220,220,,,,,,,,,2,100,1006,1251,2561,17388,,,
225819,8,126.355988,44.334793,西山村委会,,220113,0431,220113006221,220,,,,,,,,,2,100,1006,1251,2561,17388,,,
225820,8,125.932093,44.32284,胜利村委会,,220113,0431,220113006222,220,,,,,,,,,2,100,1006,1251,2561,17388,,,
225821,8,125.890527,44.325565,兴隆沟村委会,,220113,0431,220113006223,220,,,,,,,,,2,100,1006,1251,2561,17388,,,
225822,8,125.885378,44.310973,东兴村委会,,220113,0431,220113006224,220,,,,,,,,,2,100,1006,1251,2561,17388,,,
225823,8,125.914446,44.294287,富民村委会,,220113,0431,220113006225,220,,,,,,,,,2,100,1006,1251,2561,17388,,,
225824,8,125.745705,44.310366,新兴村委会,,220113,0431,220113007200,111,,,,,,,,,2,100,1006,1251,2561,17389,,,
225825,8,125.745705,44.310366,兴隆村委会,,220113,0431,220113007201,220,,,,,,,,,2,100,1006,1251,2561,17389,,,
225826,8,125.745705,44.310366,金川村委会,,220113,0431,220113007202,220,,,,,,,,,2,100,1006,1251,2561,17389,,,
225827,8,125.745705,44.310366,小荒地村委会,,220113,0431,220113007203,220,,,,,,,,,2,100,1006,1251,2561,17389,,,
225828,8,125.745705,44.310366,大荒地村委会,,220113,0431,220113007204,220,,,,,,,,,2,100,1006,1251,2561,17389,,,
225829,8,125.764512,44.33997,头道村委会,,220113,0431,220113007205,220,,,,,,,,,2,100,1006,1251,2561,17389,,,
225830,8,125.745705,44.310366,韩家村委会,,220113,0431,220113007206,220,,,,,,,,,2,100,1006,1251,2561,17389,,,
225831,8,125.745705,44.310366,东岗子村委会,,220113,0431,220113007207,220,,,,,,,,,2,100,1006,1251,2561,17389,,,
225832,8,125.745705,44.310366,前岗子村委会,,220113,0431,220113007208,220,,,,,,,,,2,100,1006,1251,2561,17389,,,
225833,8,125.745705,44.310366,五家子村委会,,220113,0431,220113007209,220,,,,,,,,,2,100,1006,1251,2561,17389,,,
225834,8,125.479733,43.959156,朝阳村委会,,220103,0431,220113007210,220,,,,,,,,,2,100,1006,1251,2561,17389,,,
225835,8,125.745705,44.310366,沟外村委会,,220113,0431,220113007211,220,,,,,,,,,2,100,1006,1251,2561,17389,,,
225836,8,125.745705,44.310366,姜家炉村委会,,220113,0431,220113007212,220,,,,,,,,,2,100,1006,1251,2561,17389,,,
225837,8,125.745705,44.310366,白家村委会,,220113,0431,220113007213,220,,,,,,,,,2,100,1006,1251,2561,17389,,,
225838,8,125.745705,44.310366,春光村委会,,220113,0431,220113007214,220,,,,,,,,,2,100,1006,1251,2561,17389,,,
225839,8,125.745705,44.310366,闫家村委会,,220113,0431,220113007215,220,,,,,,,,,2,100,1006,1251,2561,17389,,,
225840,8,125.745705,44.310366,龙凤村委会,,220113,0431,220113007216,220,,,,,,,,,2,100,1006,1251,2561,17389,,,
225841,8,125.745705,44.310366,新春村委会,,220113,0431,220113007217,220,,,,,,,,,2,100,1006,1251,2561,17389,,,
225842,8,125.745705,44.310366,马安村委会,,220113,0431,220113007218,220,,,,,,,,,2,100,1006,1251,2561,17389,,,
225843,8,125.745705,44.310366,和新村委会,,220113,0431,220113007219,220,,,,,,,,,2,100,1006,1251,2561,17389,,,
225844,8,125.63932,44.26224,盛水泉村委会,,220113,0431,220113008200,111,,,,,,,,,2,100,1006,1251,2561,17390,,,
225845,8,125.63932,44.26224,陶家村委会,,220113,0431,220113008201,220,,,,,,,,,2,100,1006,1251,2561,17390,,,
225846,8,125.63932,44.26224,永增福村委会,,220113,0431,220113008202,220,,,,,,,,,2,100,1006,1251,2561,17390,,,
225847,8,125.63932,44.26224,二十家子村委会,,220113,0431,220113008203,220,,,,,,,,,2,100,1006,1251,2561,17390,,,
225848,8,125.63932,44.26224,腰窝堡村委会,,220113,0431,220113008204,220,,,,,,,,,2,100,1006,1251,2561,17390,,,
225849,8,125.63932,44.26224,纪家村委会,,220113,0431,220113008205,220,,,,,,,,,2,100,1006,1251,2561,17390,,,
225850,8,125.63932,44.26224,分水村委会,,220113,0431,220113008206,220,,,,,,,,,2,100,1006,1251,2561,17390,,,
225851,8,125.63932,44.26224,腰房村委会,,220113,0431,220113008207,220,,,,,,,,,2,100,1006,1251,2561,17390,,,
225852,8,125.63932,44.26224,姜家村委会,,220113,0431,220113008208,220,,,,,,,,,2,100,1006,1251,2561,17390,,,
225853,8,125.63932,44.26224,大榆村委会,,220113,0431,220113008209,220,,,,,,,,,2,100,1006,1251,2561,17390,,,
225854,8,125.63932,44.26224,鸡鸣山村委会,,220113,0431,220113008210,220,,,,,,,,,2,100,1006,1251,2561,17390,,,
225855,8,125.63932,44.26224,赫家村委会,,220113,0431,220113008211,220,,,,,,,,,2,100,1006,1251,2561,17390,,,
225856,8,125.63932,44.26224,西挖村委会,,220113,0431,220113008212,220,,,,,,,,,2,100,1006,1251,2561,17390,,,
225857,8,125.63932,44.26224,双杖子村委会,,220113,0431,220113008213,220,,,,,,,,,2,100,1006,1251,2561,17390,,,
225858,8,125.63932,44.26224,尹家村委会,,220113,0431,220113008214,220,,,,,,,,,2,100,1006,1251,2561,17390,,,
225859,8,125.63932,44.26224,盛家村委会,,220113,0431,220113008215,220,,,,,,,,,2,100,1006,1251,2561,17390,,,
225860,8,125.63932,44.26224,石家村委会,,220113,0431,220113008216,220,,,,,,,,,2,100,1006,1251,2561,17390,,,
225861,8,125.63932,44.26224,坐山村委会,,220113,0431,220113008217,220,,,,,,,,,2,100,1006,1251,2561,17390,,,
225862,8,125.97898,44.442362,太平村委会,,220183,0431,220113008218,220,,,,,,,,,2,100,1006,1251,2561,17390,,,
225863,8,125.884867,43.89381,波兴村委会,,220113,0431,220113009200,111,,,,,,,,,2,100,1006,1251,2561,17391,,,
225864,8,125.884867,43.89381,王家瓦房村委会,,220113,0431,220113009201,220,,,,,,,,,2,100,1006,1251,2561,17391,,,
225865,8,125.884867,43.89381,平安堡村委会,,220113,0431,220113009202,220,,,,,,,,,2,100,1006,1251,2561,17391,,,
225866,8,125.884867,43.89381,锦锈村委会,,220113,0431,220113009203,220,,,,,,,,,2,100,1006,1251,2561,17391,,,
225867,8,125.884867,43.89381,板石村委会,,220113,0431,220113009204,220,,,,,,,,,2,100,1006,1251,2561,17391,,,
225868,8,125.884867,43.89381,东大地村委会,,220113,0431,220113009205,220,,,,,,,,,2,100,1006,1251,2561,17391,,,
225869,8,125.877052,43.887651,金家岗子村委会,,220113,0431,220113009206,220,,,,,,,,,2,100,1006,1251,2561,17391,,,
225870,8,125.884867,43.89381,清水村委会,,220113,0431,220113009207,220,,,,,,,,,2,100,1006,1251,2561,17391,,,
225871,8,125.884867,43.89381,太平庄村委会,,220113,0431,220113009208,220,,,,,,,,,2,100,1006,1251,2561,17391,,,
225872,8,125.884867,43.89381,奋发村委会,,220113,0431,220113009209,220,,,,,,,,,2,100,1006,1251,2561,17391,,,
225873,8,125.884867,43.89381,马兴村委会,,220113,0431,220113009210,220,,,,,,,,,2,100,1006,1251,2561,17391,,,
225874,8,125.908741,43.912463,卞家村委会,,220113,0431,220113009211,220,,,,,,,,,2,100,1006,1251,2561,17391,,,
225875,8,125.884867,43.89381,加工河村委会,,220113,0431,220113009212,220,,,,,,,,,2,100,1006,1251,2561,17391,,,
225876,8,125.884867,43.89381,董大林子村委会,,220113,0431,220113009213,220,,,,,,,,,2,100,1006,1251,2561,17391,,,
225877,8,125.884867,43.89381,连道湾村委会,,220113,0431,220113009214,220,,,,,,,,,2,100,1006,1251,2561,17391,,,
225878,8,125.884867,43.89381,三道岭村委会,,220113,0431,220113009215,220,,,,,,,,,2,100,1006,1251,2561,17391,,,
225879,8,125.884867,43.89381,下洼子村委会,,220113,0431,220113009216,220,,,,,,,,,2,100,1006,1251,2561,17391,,,
225880,8,125.884867,43.89381,大营城子村委会,,220113,0431,220113009217,220,,,,,,,,,2,100,1006,1251,2561,17391,,,
225881,8,125.884867,43.89381,建乡村委会,,220113,0431,220113009218,220,,,,,,,,,2,100,1006,1251,2561,17391,,,
225882,8,125.911837,43.957947,大顶子村委会,,220113,0431,220113009219,220,,,,,,,,,2,100,1006,1251,2561,17391,,,
225883,8,125.884867,43.89381,黄家店村委会,,220113,0431,220113009220,220,,,,,,,,,2,100,1006,1251,2561,17391,,,
225884,8,125.884867,43.89381,张家店村委会,,220113,0431,220113009221,220,,,,,,,,,2,100,1006,1251,2561,17391,,,
225885,8,125.884867,43.89381,茂林村委会,,220113,0431,220113009222,220,,,,,,,,,2,100,1006,1251,2561,17391,,,
225886,8,125.884867,43.89381,庙岭村委会,,220113,0431,220113009223,220,,,,,,,,,2,100,1006,1251,2561,17391,,,
225887,8,125.558577,44.034596,向阳社区,,220113,0431,220113010001,111,,,,,,,,,2,100,1006,1251,2561,17392,,,
225888,8,125.552714,44.026403,民盛社区,,220113,0431,220113010002,111,,,,,,,,,2,100,1006,1251,2561,17392,,,
225889,8,125.562939,44.022321,镇郊村委会,,220113,0431,220113010300,112,,,,,,,,,2,100,1006,1251,2561,17392,,,
225890,8,125.562939,44.022321,王家村委会,,220113,0431,220113010301,220,,,,,,,,,2,100,1006,1251,2561,17392,,,
225891,8,125.562939,44.022321,东风村委会,,220113,0431,220113010302,220,,,,,,,,,2,100,1006,1251,2561,17392,,,
225892,8,125.562939,44.022321,任家村委会,,220113,0431,220113010303,220,,,,,,,,,2,100,1006,1251,2561,17392,,,
225893,8,125.562939,44.022321,红星村委会,,220113,0431,220113010304,220,,,,,,,,,2,100,1006,1251,2561,17392,,,
225894,8,125.562939,44.022321,十里村委会,,220113,0431,220113010305,220,,,,,,,,,2,100,1006,1251,2561,17392,,,
225895,8,125.562939,44.022321,利民村委会,,220113,0431,220113010306,220,,,,,,,,,2,100,1006,1251,2561,17392,,,
225896,8,125.562939,44.022321,大泉村委会,,220113,0431,220113010307,220,,,,,,,,,2,100,1006,1251,2561,17392,,,
225897,8,125.562939,44.022321,魏家村委会,,220113,0431,220113010309,220,,,,,,,,,2,100,1006,1251,2561,17392,,,
225898,8,125.45811,44.016635,孙家村委会,,220113,0431,220113010312,220,,,,,,,,,2,100,1006,1251,2561,17392,,,
225899,8,125.562939,44.022321,三盛村委会,,220113,0431,220113010313,111,,,,,,,,,2,100,1006,1251,2561,17392,,,
225900,8,125.523777,43.985956,双泉村委会,,220113,0431,220113010314,112,,,,,,,,,2,100,1006,1251,2561,17392,,,
225901,8,125.562939,44.022321,六家子村委会,,220113,0431,220113010315,220,,,,,,,,,2,100,1006,1251,2561,17392,,,
225902,8,125.562939,44.022321,和气村委会,,220113,0431,220113010316,112,,,,,,,,,2,100,1006,1251,2561,17392,,,
225903,8,125.562939,44.022321,幸福村委会,,220113,0431,220113010317,220,,,,,,,,,2,100,1006,1251,2561,17392,,,
225904,8,125.562939,44.022321,龙泉村委会,,220113,0431,220113010318,220,,,,,,,,,2,100,1006,1251,2561,17392,,,
225905,8,125.562939,44.022321,岗子村委会,,220113,0431,220113010319,220,,,,,,,,,2,100,1006,1251,2561,17392,,,
225906,8,125.662115,43.941279,东湖居委会,,220113,0431,220113011100,111,,,,,,,,,2,100,1006,1251,2561,17393,,,
225907,8,125.551539,43.922949,黑林村委会,,220113,0431,220113011300,220,,,,,,,,,2,100,1006,1251,2561,17393,,,
225908,8,125.553302,43.94031,双山村委会,,220113,0431,220113011301,220,,,,,,,,,2,100,1006,1251,2561,17393,,,
225909,8,125.662115,43.941279,五一村委会,,220113,0431,220113011302,220,,,,,,,,,2,100,1006,1251,2561,17393,,,
225910,8,125.662115,43.941279,新盛村委会,,220113,0431,220113011303,220,,,,,,,,,2,100,1006,1251,2561,17393,,,
225911,8,125.662115,43.941279,羊草村委会,,220113,0431,220113011304,220,,,,,,,,,2,100,1006,1251,2561,17393,,,
225912,8,125.662115,43.941279,腰站村委会,,220113,0431,220113011305,220,,,,,,,,,2,100,1006,1251,2561,17393,,,
225913,8,125.662115,43.941279,放牛村委会,,220113,0431,220113011306,112,,,,,,,,,2,100,1006,1251,2561,17393,,,
225914,8,125.672596,43.961358,甘家岭村委会,,220113,0431,220113011307,220,,,,,,,,,2,100,1006,1251,2561,17393,,,
225915,8,125.662115,43.941279,团山村委会,,220113,0431,220113011310,220,,,,,,,,,2,100,1006,1251,2561,17393,,,
225916,8,125.839574,44.151742,龙翔社区,,220113,0431,220113012001,111,,,,,,,,,2,100,1006,1251,2561,17394,,,
225917,8,125.839574,44.151742,龙盛社区,,220113,0431,220113012002,111,,,,,,,,,2,100,1006,1251,2561,17394,,,
225918,8,125.753033,43.999442,饮马河居委会,,220113,0431,220113012101,220,,,,,,,,,2,100,1006,1251,2561,17394,,,
225919,8,125.839574,44.151742,龙家堡村委会,,220113,0431,220113012300,111,,,,,,,,,2,100,1006,1251,2561,17394,,,
225920,8,125.839574,44.151742,翻身村委会,,220113,0431,220113012309,220,,,,,,,,,2,100,1006,1251,2561,17394,,,
225921,8,125.839574,44.151742,草城子村委会,,220113,0431,220113012310,220,,,,,,,,,2,100,1006,1251,2561,17394,,,
225922,8,126.176962,44.239331,杨树村委会,,220113,0431,220113012311,220,,,,,,,,,2,100,1006,1251,2561,17394,,,
225923,8,125.839574,44.151742,吉祥村委会,,220113,0431,220113012312,220,,,,,,,,,2,100,1006,1251,2561,17394,,,
225924,8,125.839574,44.151742,水乡村委会,,220113,0431,220113012313,220,,,,,,,,,2,100,1006,1251,2561,17394,,,
225925,8,125.839574,44.151742,双阳村委会,,220113,0431,220113012314,220,,,,,,,,,2,100,1006,1251,2561,17394,,,
225926,8,125.839574,44.151742,泉眼村委会,,220113,0431,220113012315,220,,,,,,,,,2,100,1006,1251,2561,17394,,,
225927,8,125.839574,44.151742,挖铜村委会,,220113,0431,220113012316,220,,,,,,,,,2,100,1006,1251,2561,17394,,,
225928,8,125.839574,44.151742,大城子村委会,,220113,0431,220113012317,220,,,,,,,,,2,100,1006,1251,2561,17394,,,
225929,8,125.479733,43.959156,朝阳村委会,,220103,0431,220113012318,220,,,,,,,,,2,100,1006,1251,2561,17394,,,
225930,8,125.839574,44.151742,小城子村委会,,220113,0431,220113012319,220,,,,,,,,,2,100,1006,1251,2561,17394,,,
225931,8,125.720388,44.09848,陆家村委会,,220105,0431,220113012320,220,,,,,,,,,2,100,1006,1251,2561,17394,,,
225932,8,125.761435,44.100281,饮马河村委会,,220113,0431,220113012322,220,,,,,,,,,2,100,1006,1251,2561,17394,,,
225933,8,125.839574,44.151742,红光村委会,,220113,0431,220113012323,220,,,,,,,,,2,100,1006,1251,2561,17394,,,
225934,8,125.807806,44.165316,沿河村委会,,220113,0431,220113012324,220,,,,,,,,,2,100,1006,1251,2561,17394,,,
225935,8,125.839574,44.151742,双丰村委会,,220113,0431,220113012325,220,,,,,,,,,2,100,1006,1251,2561,17394,,,
225936,8,125.839574,44.151742,袁家村委会,,220113,0431,220113013301,220,,,,,,,,,2,100,1006,1251,2561,17395,,,
225937,8,125.839574,44.151742,腰屯村委会,,220113,0431,220113013302,220,,,,,,,,,2,100,1006,1251,2561,17395,,,
225938,8,125.839574,44.151742,和平村委会,,220113,0431,220113013303,220,,,,,,,,,2,100,1006,1251,2561,17395,,,
225939,8,125.839574,44.151742,临河村委会,,220113,0431,220113013304,220,,,,,,,,,2,100,1006,1251,2561,17395,,,
225940,8,125.839574,44.151742,新民村委会,,220113,0431,220113013305,111,,,,,,,,,2,100,1006,1251,2561,17395,,,
225941,8,125.839574,44.151742,南泉村委会,,220113,0431,220113013306,220,,,,,,,,,2,100,1006,1251,2561,17395,,,
225942,8,125.839574,44.151742,四家子村委会,,220113,0431,220113013307,220,,,,,,,,,2,100,1006,1251,2561,17395,,,
225943,8,125.736776,43.97334,荆家村委会,,220113,0431,220113013310,220,,,,,,,,,2,100,1006,1251,2561,17395,,,
225944,8,125.839574,44.151742,二道村委会,,220113,0431,220113013311,220,,,,,,,,,2,100,1006,1251,2561,17395,,,
225945,8,125.711688,43.985261,小岭村委会,,220113,0431,220113013312,220,,,,,,,,,2,100,1006,1251,2561,17395,,,
225946,8,125.839574,44.151742,莲花村委会,,220113,0431,220113013321,220,,,,,,,,,2,100,1006,1251,2561,17395,,,
225947,8,126.098251,44.226166,沐石河居委会,,220113,0431,220113014001,111,,,,,,,,,2,100,1006,1251,2561,17396,,,
225948,8,125.994115,44.20817,横道沟村委会,,220113,0431,220113014200,220,,,,,,,,,2,100,1006,1251,2561,17396,,,
225949,8,126.037901,44.23886,康家村委会,,220113,0431,220113014201,220,,,,,,,,,2,100,1006,1251,2561,17396,,,
225950,8,126.048271,44.220899,张家村委会,,220113,0431,220113014202,220,,,,,,,,,2,100,1006,1251,2561,17396,,,
225951,8,126.024193,44.189965,于家村委会,,220113,0431,220113014203,220,,,,,,,,,2,100,1006,1251,2561,17396,,,
225952,8,126.068666,44.169089,常家村委会,,220113,0431,220113014204,220,,,,,,,,,2,100,1006,1251,2561,17396,,,
225953,8,126.117585,44.161258,桦树村委会,,220113,0431,220113014205,220,,,,,,,,,2,100,1006,1251,2561,17396,,,
225954,8,126.098124,44.192188,永安村委会,,220113,0431,220113014206,220,,,,,,,,,2,100,1006,1251,2561,17396,,,
225955,8,126.098251,44.226166,沐石河村委会,,220113,0431,220113014207,112,,,,,,,,,2,100,1006,1251,2561,17396,,,
225956,8,126.084647,44.234225,拉腰子村委会,,220113,0431,220113014208,220,,,,,,,,,2,100,1006,1251,2561,17396,,,
225957,8,126.137634,44.215077,太和村委会,,220113,0431,220113014209,220,,,,,,,,,2,100,1006,1251,2561,17396,,,
225958,8,126.140287,44.246486,八家子村委会,,220113,0431,220113014210,220,,,,,,,,,2,100,1006,1251,2561,17396,,,
225959,8,126.097875,44.271095,前梨村委会,,220113,0431,220113014211,220,,,,,,,,,2,100,1006,1251,2561,17396,,,
225960,8,126.084475,44.284863,后梨村委会,,220113,0431,220113014212,220,,,,,,,,,2,100,1006,1251,2561,17396,,,
225961,8,126.015803,44.264983,椴树村委会,,220113,0431,220113014213,220,,,,,,,,,2,100,1006,1251,2561,17396,,,
225962,8,126.051477,44.267407,曹家村委会,,220113,0431,220113014214,220,,,,,,,,,2,100,1006,1251,2561,17396,,,
225963,8,126.034485,44.27645,八棵树村委会,,220113,0431,220113014215,220,,,,,,,,,2,100,1006,1251,2561,17396,,,
225964,8,126.202858,44.280407,卢家村委会,,220113,0431,220113014216,220,,,,,,,,,2,100,1006,1251,2561,17396,,,
225965,8,126.197866,44.185906,碾子沟村委会,,220113,0431,220113014217,220,,,,,,,,,2,100,1006,1251,2561,17396,,,
225966,8,126.207532,44.187124,孤家子村委会,,220113,0431,220113014218,220,,,,,,,,,2,100,1006,1251,2561,17396,,,
225967,8,126.176962,44.239331,杨树村委会,,220113,0431,220113014219,220,,,,,,,,,2,100,1006,1251,2561,17396,,,
225968,8,126.224751,44.318763,齐家村委会,,220113,0431,220113014220,220,,,,,,,,,2,100,1006,1251,2561,17396,,,
225969,8,126.181212,44.307465,前央村委会,,220113,0431,220113014221,220,,,,,,,,,2,100,1006,1251,2561,17396,,,
225970,8,126.210386,44.335084,段家村委会,,220113,0431,220113014222,220,,,,,,,,,2,100,1006,1251,2561,17396,,,
225971,8,126.152566,44.327786,河南村委会,,220113,0431,220113014223,220,,,,,,,,,2,100,1006,1251,2561,17396,,,
225972,8,126.135423,44.291711,梁家村委会,,220113,0431,220113014224,220,,,,,,,,,2,100,1006,1251,2561,17396,,,
225973,8,126.136493,44.298844,先锋村委会,,220113,0431,220113014225,220,,,,,,,,,2,100,1006,1251,2561,17396,,,
225974,8,126.105377,44.326716,赵家村委会,,220113,0431,220113014226,220,,,,,,,,,2,100,1006,1251,2561,17396,,,
225975,8,126.011794,44.367506,城子街居委会,,220113,0431,220113015001,111,,,,,,,,,2,100,1006,1251,2561,17397,,,
225976,8,126.011794,44.367506,城子街村委会,,220113,0431,220113015200,111,,,,,,,,,2,100,1006,1251,2561,17397,,,
225977,8,126.011794,44.367506,清泉村委会,,220113,0431,220113015201,220,,,,,,,,,2,100,1006,1251,2561,17397,,,
225978,8,126.011794,44.367506,秀水村委会,,220113,0431,220113015202,220,,,,,,,,,2,100,1006,1251,2561,17397,,,
225979,8,126.011794,44.367506,铜匠沟村委会,,220113,0431,220113015203,220,,,,,,,,,2,100,1006,1251,2561,17397,,,
225980,8,126.010668,44.357039,百合村委会,,220113,0431,220113015204,220,,,,,,,,,2,100,1006,1251,2561,17397,,,
225981,8,126.011794,44.367506,长岭村委会,,220113,0431,220113015205,220,,,,,,,,,2,100,1006,1251,2561,17397,,,
225982,8,126.011794,44.367506,陈家村委会,,220113,0431,220113015206,220,,,,,,,,,2,100,1006,1251,2561,17397,,,
225983,8,126.011794,44.367506,样子边村委会,,220113,0431,220113015207,220,,,,,,,,,2,100,1006,1251,2561,17397,,,
225984,8,126.011794,44.367506,王家岭村委会,,220113,0431,220113015208,220,,,,,,,,,2,100,1006,1251,2561,17397,,,
225985,8,126.011794,44.367506,七台村委会,,220113,0431,220113015209,220,,,,,,,,,2,100,1006,1251,2561,17397,,,
225986,8,126.011794,44.367506,城东村委会,,220113,0431,220113015210,112,,,,,,,,,2,100,1006,1251,2561,17397,,,
225987,8,126.011794,44.367506,义合村委会,,220113,0431,220113015211,220,,,,,,,,,2,100,1006,1251,2561,17397,,,
225988,8,126.011794,44.367506,朱家村委会,,220113,0431,220113015212,220,,,,,,,,,2,100,1006,1251,2561,17397,,,
225989,8,126.011794,44.367506,柳溪村委会,,220113,0431,220113015213,220,,,,,,,,,2,100,1006,1251,2561,17397,,,
225990,8,126.077862,44.393527,猴石村委会,,220113,0431,220113015214,220,,,,,,,,,2,100,1006,1251,2561,17397,,,
225991,8,126.011794,44.367506,西甸子村委会,,220113,0431,220113015215,220,,,,,,,,,2,100,1006,1251,2561,17397,,,
225992,8,126.011794,44.367506,双川村委会,,220113,0431,220113015216,220,,,,,,,,,2,100,1006,1251,2561,17397,,,
225993,8,126.011794,44.367506,郭家村委会,,220113,0431,220113015217,220,,,,,,,,,2,100,1006,1251,2561,17397,,,
225994,8,126.011794,44.367506,六台村委会,,220113,0431,220113015218,220,,,,,,,,,2,100,1006,1251,2561,17397,,,
225995,8,126.011794,44.367506,条子沟村委会,,220113,0431,220113015219,220,,,,,,,,,2,100,1006,1251,2561,17397,,,
225996,8,126.011794,44.367506,大沟村委会,,220113,0431,220113015220,220,,,,,,,,,2,100,1006,1251,2561,17397,,,
225997,8,126.011794,44.367506,古洞村委会,,220113,0431,220113015221,220,,,,,,,,,2,100,1006,1251,2561,17397,,,
225998,8,126.011794,44.367506,青山村委会,,220113,0431,220113015222,220,,,,,,,,,2,100,1006,1251,2561,17397,,,
225999,8,126.011794,44.367506,碱场村委会,,220113,0431,220113015223,220,,,,,,,,,2,100,1006,1251,2561,17397,,,
226000,8,126.011794,44.367506,桃山村委会,,220113,0431,220113015224,220,,,,,,,,,2,100,1006,1251,2561,17397,,,
226001,8,126.011794,44.367506,石场村委会,,220113,0431,220113015225,220,,,,,,,,,2,100,1006,1251,2561,17397,,,
226002,8,126.011794,44.367506,烧锅村委会,,220113,0431,220113015226,220,,,,,,,,,2,100,1006,1251,2561,17397,,,
226003,8,126.011794,44.367506,团结村委会,,220113,0431,220113015227,220,,,,,,,,,2,100,1006,1251,2561,17397,,,
226004,8,126.07653,44.359469,柴福村委会,,220113,0431,220113015228,220,,,,,,,,,2,100,1006,1251,2561,17397,,,
226005,8,126.011794,44.367506,大贝村委会,,220113,0431,220113015229,220,,,,,,,,,2,100,1006,1251,2561,17397,,,
226006,8,126.34014,44.368755,其塔木居委会,,220113,0431,220113102001,121,,,,,,,,,2,100,1006,1251,2561,17398,,,
226007,8,126.34014,44.368755,其塔木村委会,,220113,0431,220113102200,122,,,,,,,,,2,100,1006,1251,2561,17398,,,
226008,8,126.34014,44.368755,刘家村委会,,220113,0431,220113102201,220,,,,,,,,,2,100,1006,1251,2561,17398,,,
226009,8,126.34014,44.368755,红旗村委会,,220113,0431,220113102202,220,,,,,,,,,2,100,1006,1251,2561,17398,,,
226010,8,126.34014,44.368755,更新村委会,,220113,0431,220113102203,220,,,,,,,,,2,100,1006,1251,2561,17398,,,
226011,8,126.34014,44.368755,马场村委会,,220113,0431,220113102204,220,,,,,,,,,2,100,1006,1251,2561,17398,,,
226012,8,126.34014,44.368755,黎明村委会,,220113,0431,220113102205,220,,,,,,,,,2,100,1006,1251,2561,17398,,,
226013,8,126.34014,44.368755,三兴村委会,,220113,0431,220113102206,220,,,,,,,,,2,100,1006,1251,2561,17398,,,
226014,8,126.34014,44.368755,解放村委会,,220113,0431,220113102207,220,,,,,,,,,2,100,1006,1251,2561,17398,,,
226015,8,126.34014,44.368755,北山村委会,,220113,0431,220113102208,220,,,,,,,,,2,100,1006,1251,2561,17398,,,
226016,8,126.34014,44.368755,成家村委会,,220113,0431,220113102209,220,,,,,,,,,2,100,1006,1251,2561,17398,,,
226017,8,126.34014,44.368755,张大村委会,,220113,0431,220113102210,220,,,,,,,,,2,100,1006,1251,2561,17398,,,
226018,8,126.34014,44.368755,冯家村委会,,220113,0431,220113102211,220,,,,,,,,,2,100,1006,1251,2561,17398,,,
226019,8,126.34014,44.368755,双城村委会,,220113,0431,220113102212,220,,,,,,,,,2,100,1006,1251,2561,17398,,,
226020,8,126.34014,44.368755,戢家村委会,,220113,0431,220113102213,220,,,,,,,,,2,100,1006,1251,2561,17398,,,
226021,8,126.34014,44.368755,西山村委会,,220113,0431,220113102214,220,,,,,,,,,2,100,1006,1251,2561,17398,,,
226022,8,126.34014,44.368755,西哈村委会,,220113,0431,220113102215,220,,,,,,,,,2,100,1006,1251,2561,17398,,,
226023,8,126.34014,44.368755,新鲜村委会,,220113,0431,220113102216,220,,,,,,,,,2,100,1006,1251,2561,17398,,,
226024,8,126.200159,44.490294,上河湾居委会,,220113,0431,220113103001,121,,,,,,,,,2,100,1006,1251,2561,17399,,,
226025,8,126.200159,44.490294,上河湾村委会,,220113,0431,220113103200,122,,,,,,,,,2,100,1006,1251,2561,17399,,,
226026,8,126.200159,44.490294,五台村委会,,220113,0431,220113103201,220,,,,,,,,,2,100,1006,1251,2561,17399,,,
226027,8,126.200159,44.490294,榆树村委会,,220113,0431,220113103202,220,,,,,,,,,2,100,1006,1251,2561,17399,,,
226028,8,126.200159,44.490294,福林村委会,,220113,0431,220113103203,220,,,,,,,,,2,100,1006,1251,2561,17399,,,
226029,8,126.200159,44.490294,黄花村委会,,220113,0431,220113103204,220,,,,,,,,,2,100,1006,1251,2561,17399,,,
226030,8,126.200159,44.490294,双顶村委会,,220113,0431,220113103205,220,,,,,,,,,2,100,1006,1251,2561,17399,,,
226031,8,126.200159,44.490294,红朵村委会,,220113,0431,220113103206,220,,,,,,,,,2,100,1006,1251,2561,17399,,,
226032,8,126.200159,44.490294,桦林村委会,,220113,0431,220113103207,220,,,,,,,,,2,100,1006,1251,2561,17399,,,
226033,8,126.200159,44.490294,干沟村委会,,220113,0431,220113103208,220,,,,,,,,,2,100,1006,1251,2561,17399,,,
226034,8,126.234387,44.484528,双合村委会,,220113,0431,220113103209,122,,,,,,,,,2,100,1006,1251,2561,17399,,,
226035,8,126.200159,44.490294,焦家村委会,,220113,0431,220113103210,220,,,,,,,,,2,100,1006,1251,2561,17399,,,
226036,8,126.200159,44.490294,四台村委会,,220113,0431,220113103211,220,,,,,,,,,2,100,1006,1251,2561,17399,,,
226037,8,126.200159,44.490294,石羊村委会,,220113,0431,220113103212,220,,,,,,,,,2,100,1006,1251,2561,17399,,,
226038,8,126.200159,44.490294,三台村委会,,220113,0431,220113103213,220,,,,,,,,,2,100,1006,1251,2561,17399,,,
226039,8,126.200159,44.490294,玉丰村委会,,220113,0431,220113103214,220,,,,,,,,,2,100,1006,1251,2561,17399,,,
226040,8,126.200159,44.490294,西沟村委会,,220113,0431,220113103215,220,,,,,,,,,2,100,1006,1251,2561,17399,,,
226041,8,126.200159,44.490294,套子里村委会,,220113,0431,220113103216,220,,,,,,,,,2,100,1006,1251,2561,17399,,,
226042,8,126.200159,44.490294,大窝堡村委会,,220113,0431,220113103217,220,,,,,,,,,2,100,1006,1251,2561,17399,,,
226043,8,126.200159,44.490294,三道沟村委会,,220113,0431,220113103218,220,,,,,,,,,2,100,1006,1251,2561,17399,,,
226044,8,126.200159,44.490294,南甸子村委会,,220113,0431,220113103219,220,,,,,,,,,2,100,1006,1251,2561,17399,,,
226045,8,126.200159,44.490294,育林村委会,,220113,0431,220113103220,220,,,,,,,,,2,100,1006,1251,2561,17399,,,
226046,8,126.200159,44.490294,于家村委会,,220113,0431,220113103221,220,,,,,,,,,2,100,1006,1251,2561,17399,,,
226047,8,126.33644,44.274586,宝山村委会,,220113,0431,220113200200,210,,,,,,,,,2,100,1006,1251,2561,17400,,,
226048,8,126.33644,44.274586,二泉村委会,,220113,0431,220113200201,220,,,,,,,,,2,100,1006,1251,2561,17400,,,
226049,8,126.33644,44.274586,红石村委会,,220113,0431,220113200202,220,,,,,,,,,2,100,1006,1251,2561,17400,,,
226050,8,126.33644,44.274586,稗子村委会,,220113,0431,220113200203,220,,,,,,,,,2,100,1006,1251,2561,17400,,,
226051,8,126.33644,44.274586,周家村委会,,220113,0431,220113200204,220,,,,,,,,,2,100,1006,1251,2561,17400,,,
226052,8,126.33644,44.274586,小韩村委会,,220113,0431,220113200205,220,,,,,,,,,2,100,1006,1251,2561,17400,,,
226053,8,126.33644,44.274586,锣鼓村委会,,220113,0431,220113200206,220,,,,,,,,,2,100,1006,1251,2561,17400,,,
226054,8,126.33644,44.274586,葛家村委会,,220113,0431,220113200207,220,,,,,,,,,2,100,1006,1251,2561,17400,,,
226055,8,126.33644,44.274586,蜂蜜村委会,,220113,0431,220113200208,220,,,,,,,,,2,100,1006,1251,2561,17400,,,
226056,8,126.41734,44.264901,舍岭村委会,,220113,0431,220113201200,210,,,,,,,,,2,100,1006,1251,2561,17401,,,
226057,8,126.41734,44.264901,三道村委会,,220113,0431,220113201201,220,,,,,,,,,2,100,1006,1251,2561,17401,,,
226058,8,126.41734,44.264901,七家村委会,,220113,0431,220113201202,220,,,,,,,,,2,100,1006,1251,2561,17401,,,
226059,8,126.41734,44.264901,松江村委会,,220113,0431,220113201203,220,,,,,,,,,2,100,1006,1251,2561,17401,,,
226060,8,126.41734,44.264901,石屯村委会,,220113,0431,220113201204,220,,,,,,,,,2,100,1006,1251,2561,17401,,,
226061,8,126.41734,44.264901,塔库村委会,,220113,0431,220113201205,220,,,,,,,,,2,100,1006,1251,2561,17401,,,
226062,8,126.41734,44.264901,邱家村委会,,220113,0431,220113201206,220,,,,,,,,,2,100,1006,1251,2561,17401,,,
226063,8,126.41734,44.264901,莽卡村委会,,220113,0431,220113201207,220,,,,,,,,,2,100,1006,1251,2561,17401,,,
226064,8,126.41734,44.264901,谢屯村委会,,220113,0431,220113201208,220,,,,,,,,,2,100,1006,1251,2561,17401,,,
226065,8,126.41734,44.264901,江西村委会,,220113,0431,220113201209,220,,,,,,,,,2,100,1006,1251,2561,17401,,,
226066,8,126.41734,44.264901,东哈村委会,,220113,0431,220113201210,220,,,,,,,,,2,100,1006,1251,2561,17401,,,
226067,8,126.41734,44.264901,张庄村委会,,220113,0431,220113201211,220,,,,,,,,,2,100,1006,1251,2561,17401,,,
226068,8,125.184742,44.432889,西关社区,,220122,0431,220122001001,121,,,,,,,,,2,100,1006,1251,2562,17402,,,
226069,8,125.184742,44.432889,站前社区,,220122,0431,220122001002,121,,,,,,,,,2,100,1006,1251,2562,17402,,,
226070,8,125.168437,44.438349,古城街社区,,220122,0431,220122001003,121,,,,,,,,,2,100,1006,1251,2562,17402,,,
226071,8,125.184742,44.432889,绅士社区,,220122,0431,220122001004,121,,,,,,,,,2,100,1006,1251,2562,17402,,,
226072,8,125.184742,44.432889,新大社区,,220122,0431,220122001005,121,,,,,,,,,2,100,1006,1251,2562,17402,,,
226073,8,125.165178,44.4267,西关村委会,,220122,0431,220122001202,122,,,,,,,,,2,100,1006,1251,2562,17402,,,
226074,8,125.162952,44.442093,站前村委会,,220122,0431,220122001204,122,,,,,,,,,2,100,1006,1251,2562,17402,,,
226075,8,125.154677,44.44341,西五里界村委会,,220122,0431,220122001206,122,,,,,,,,,2,100,1006,1251,2562,17402,,,
